$GPGGA,182102.66,,,,,1,,,,M,0.0,M,0.0,0000*41
$GPGSV,2,1,6,16,54,321,40.7,18,59,062,35.7,26,83,013,39.6,27,35,275,38.4*44
$GPGSV,2,2,6,29,16,063,42.2,31,34,191,37.8*42
$GPRMC,182102.66,A,,,,,,,210221,,,A*6F
$GPGGA,182103.66,3718.280426,N,00555.529110,W,1,,,95.32,M,0.0,M,0.0,0000*46
$GPGSV,3,1,9,10,11,150,27.2,16,54,321,37.8,18,59,062,36.1,20,28,120,33.8*4C
$GPGSV,3,2,9,23,22,121,31.2,26,83,013,35.6,27,35,275,38.0,29,16,063,38.6*43
$GPGSV,3,3,9,31,34,191,36.6*61
$GPRMC,182103.66,A,3718.280426,N,00555.529110,W,001.1,024.1,210221,,,A*4C
$GPGGA,182104.65,3718.281588,N,00555.528343,W,1,,,95.86,M,0.0,M,0.0,0000*4C
$GPGSV,2,1,8,10,11,150,34.6,16,54,321,32.0,20,28,120,31.8,23,22,121,33.1*42
$GPGSV,2,2,8,26,83,013,38.4,27,35,275,43.4,29,16,063,33.6,31,34,191,27.9*4C
$GPRMC,182104.65,A,3718.281588,N,00555.528343,W,000.2,,210221,,,A*62
$GPGGA,182105.66,3718.281559,N,00555.528519,W,1,,,94.05,M,0.0,M,0.0,0000*41
$GPGSV,2,1,6,16,54,321,33.3,20,28,120,28.5,23,22,121,26.7,26,83,013,33.7*47
$GPGSV,2,2,6,27,35,275,33.2,31,34,191,26.1*47
$GPRMC,182105.66,A,3718.281559,N,00555.528519,W,000.3,,210221,,,A*64
$GPGGA,182106.66,3718.280562,N,00555.528233,W,1,,,94.96,M,0.0,M,0.0,0000*4E
$GPGSV,2,1,8,16,54,321,40.8,18,59,062,34.1,20,28,120,31.0,23,22,121,30.5*43
$GPGSV,2,2,8,26,83,013,33.9,27,35,275,41.7,29,16,063,30.2,31,34,191,32.0*41
$GPRMC,182106.66,A,3718.280562,N,00555.528233,W,000.4,,210221,,,A*66
$GPGGA,182107.67,3718.279630,N,00555.529023,W,1,,,96.37,M,0.0,M,0.0,0000*47
$GPGSV,2,1,8,10,11,150,31.2,16,54,321,45.6,18,59,062,36.9,20,28,120,34.3*44
$GPGSV,2,2,8,23,22,121,34.3,26,83,013,37.4,27,35,275,39.8,31,34,191,36.1*42
$GPRMC,182107.67,A,3718.279630,N,00555.529023,W,000.2,,210221,,,A*60
$GPGGA,182108.64,3718.279394,N,00555.529692,W,1,,,96.01,M,0.0,M,0.0,0000*49
$GPGSV,2,1,8,10,11,150,26.8,16,54,321,45.6,20,28,120,35.5,23,22,121,31.0*43
$GPGSV,2,2,8,26,83,013,38.2,27,35,276,42.1,29,16,063,29.0,31,34,191,33.8*44
$GPRMC,182108.64,A,3718.279394,N,00555.529692,W,002.0,333.1,210221,,,A*47
$GPGGA,182109.66,3718.280675,N,00555.530636,W,1,,,94.49,M,0.0,M,0.0,0000*4E
$GPGSV,3,1,9,10,11,150,29.9,16,54,321,42.2,18,59,062,39.5,20,28,120,30.5*44
$GPGSV,3,2,9,23,22,121,37.3,26,83,014,37.7,27,35,276,43.9,29,16,063,28.6*47
$GPGSV,3,3,9,31,34,191,38.8*61
$GPRMC,182109.66,A,3718.280675,N,00555.530636,W,004.5,320.7,210221,,,A*49
$GPGGA,182110.65,3718.282086,N,00555.531883,W,1,,,94.46,M,0.0,M,0.0,0000*43
$GPGSV,2,1,8,16,54,321,43.8,18,59,062,41.0,20,28,120,33.6,23,22,121,31.8*4B
$GPGSV,2,2,8,26,83,014,36.7,27,35,276,44.8,29,16,063,31.9,31,34,191,30.8*44
$GPRMC,182110.65,A,3718.282086,N,00555.531883,W,005.3,299.7,210221,,,A*4F
$GPGGA,182111.64,3718.283666,N,00555.533212,W,1,,,91.65,M,0.0,M,0.0,0000*4E
$GPGSV,2,1,8,16,54,321,44.7,18,59,062,34.9,20,28,120,34.6,23,22,121,30.6*40
$GPGSV,2,2,8,26,83,014,36.3,27,35,276,43.4,29,16,063,32.5,31,34,191,33.5*4A
$GPRMC,182111.64,A,3718.283666,N,00555.533212,W,007.8,305.4,210221,,,A*48
$GPGGA,182112.65,3718.285180,N,00555.535294,W,1,,,89.11,M,0.0,M,0.0,0000*47
$GPGSV,2,1,7,16,54,321,44.0,18,59,062,38.8,20,28,120,35.6,23,22,121,29.3*49
$GPGSV,2,2,7,26,83,014,30.7,27,35,276,43.7,29,16,063,33.7*60
$GPRMC,182112.65,A,3718.285180,N,00555.535294,W,009.9,311.7,210221,,,A*42
$GPGGA,182113.65,3718.287192,N,00555.537983,W,1,,,88.63,M,0.0,M,0.0,0000*4C
$GPGSV,3,1,9,10,11,150,28.4,16,54,321,41.2,18,59,062,38.6,20,28,120,36.4*4E
$GPGSV,3,2,9,23,22,121,34.8,26,83,014,31.7,27,35,276,40.6,29,16,063,32.5*4D
$GPGSV,3,3,9,31,34,191,38.4*6D
$GPRMC,182113.65,A,3718.287192,N,00555.537983,W,010.3,313.8,210221,,,A*42
$GPGGA,182114.66,3718.289282,N,00555.540682,W,1,,,90.28,M,0.0,M,0.0,0000*4C
$GPGSV,2,1,8,16,54,321,44.2,18,59,062,36.2,20,28,120,33.1,23,22,121,30.7*4D
$GPGSV,2,2,8,26,83,014,34.5,27,35,276,38.4,29,16,063,35.9,31,34,191,38.8*4F
$GPRMC,182114.66,A,3718.289282,N,00555.540682,W,012.3,325.6,210221,,,A*4D
$GPGGA,182115.65,3718.292142,N,00555.543061,W,1,,,90.18,M,0.0,M,0.0,0000*40
$GPGSV,2,1,8,10,11,150,30.1,16,54,321,46.0,18,59,062,29.8,20,28,120,39.9*4B
$GPGSV,2,2,8,23,22,121,33.3,26,83,014,35.2,27,35,276,42.1,29,16,063,34.9*4F
$GPRMC,182115.65,A,3718.292142,N,00555.543061,W,012.8,325.3,210221,,,A*4C
$GPGGA,182116.64,3718.295388,N,00555.545509,W,1,,,90.18,M,0.0,M,0.0,0000*4C
$GPGSV,2,1,6,16,54,321,47.6,20,28,120,40.6,23,22,121,33.7,26,83,014,30.1*4A
$GPGSV,2,2,6,27,35,276,43.0,29,16,063,35.9*4E
$GPRMC,182116.64,A,3718.295388,N,00555.545509,W,016.5,328.7,210221,,,A*40
$GPGGA,182117.66,3718.299677,N,00555.548877,W,1,,,90.03,M,0.0,M,0.0,0000*45
$GPGSV,2,1,6,16,54,321,48.0,20,28,120,39.6,23,22,121,34.6,26,83,014,32.7*4F
$GPGSV,2,2,6,27,35,276,40.7,29,16,063,36.1*41
$GPRMC,182117.66,A,3718.299677,N,00555.548877,W,018.6,330.2,210221,,,A*42
$GPGGA,182118.65,3718.304689,N,00555.552007,W,1,,,88.78,M,0.0,M,0.0,0000*4C
$GPGSV,2,1,8,10,11,150,27.2,16,54,321,48.1,20,28,120,39.7,23,22,121,37.5*4F
$GPGSV,2,2,8,26,83,014,35.8,27,35,276,39.8,29,16,063,37.3,31,34,191,32.3*47
$GPRMC,182118.65,A,3718.304689,N,00555.552007,W,021.2,331.2,210221,,,A*41
$GPGGA,182119.66,3718.310133,N,00555.555602,W,1,,,88.16,M,0.0,M,0.0,0000*41
$GPGSV,2,1,8,10,11,150,26.8,16,54,321,47.3,20,28,120,39.4,23,22,121,38.1*41
$GPGSV,2,2,8,26,83,014,32.7,27,35,276,39.8,29,16,063,33.6,31,34,191,29.6*41
$GPRMC,182119.66,A,3718.310133,N,00555.555602,W,022.6,327.5,210221,,,A*43
$GPGGA,182120.65,3718.315818,N,00555.559607,W,1,,,86.76,M,0.0,M,0.0,0000*4C
$GPGSV,2,1,8,10,11,150,26.1,16,54,321,46.3,20,28,120,39.0,23,22,121,38.9*45
$GPGSV,2,2,8,26,83,014,34.6,27,35,276,37.8,29,16,063,31.3,31,34,191,31.2*42
$GPRMC,182120.65,A,3718.315818,N,00555.559607,W,024.5,331.1,210221,,,A*40
$GPGGA,182121.67,3718.321915,N,00555.563973,W,1,,,86.06,M,0.0,M,0.0,0000*46
$GPGSV,3,1,9,10,11,150,27.7,16,54,321,46.3,18,59,061,33.7,20,28,120,39.6*40
$GPGSV,3,2,9,23,22,121,38.1,26,83,014,34.0,27,35,276,39.5,29,16,063,36.4*42
$GPGSV,3,3,9,31,34,191,30.5*64
$GPRMC,182121.67,A,3718.321915,N,00555.563973,W,024.2,329.2,210221,,,A*40
$GPGGA,182122.66,3718.327587,N,00555.568353,W,1,,,85.42,M,0.0,M,0.0,0000*45
$GPGSV,3,1,9,10,11,150,31.4,16,54,321,45.9,18,59,061,30.8,20,28,120,39.4*43
$GPGSV,3,2,9,23,22,121,36.5,26,83,014,37.4,27,35,276,40.6,29,16,063,36.0*46
$GPGSV,3,3,9,31,34,191,33.2*60
$GPRMC,182122.66,A,3718.327587,N,00555.568353,W,024.8,329.3,210221,,,A*4B
$GPGGA,182123.65,3718.333571,N,00555.572869,W,1,,,84.62,M,0.0,M,0.0,0000*41
$GPGSV,2,1,8,16,54,321,45.7,18,59,061,30.3,20,28,120,38.4,23,22,121,36.4*46
$GPGSV,2,2,8,26,83,014,37.7,27,35,276,41.0,29,16,063,37.0,31,34,191,33.7*4B
$GPRMC,182123.65,A,3718.333571,N,00555.572869,W,025.9,329.1,210221,,,A*4E
$GPGGA,182124.66,3718.339956,N,00555.577644,W,1,,,84.63,M,0.0,M,0.0,0000*43
$GPGSV,3,1,9,10,11,150,26.8,16,54,321,45.7,18,59,061,30.4,20,28,120,38.5*4B
$GPGSV,3,2,9,23,22,121,36.9,26,83,014,37.5,27,35,276,40.5,29,16,063,35.0*4B
$GPGSV,3,3,9,31,34,191,33.9*6B
$GPRMC,182124.66,A,3718.339956,N,00555.577644,W,026.1,328.6,210221,,,A*40
$GPGGA,182125.65,3718.346093,N,00555.582358,W,1,,,84.13,M,0.0,M,0.0,0000*4C
$GPGSV,3,1,9,10,11,150,28.6,16,54,321,46.2,18,59,061,29.9,20,28,120,38.9*44
$GPGSV,3,2,9,23,22,121,35.8,26,83,014,36.7,27,35,276,40.7,29,16,063,31.4*48
$GPGSV,3,3,9,31,34,191,32.4*67
$GPRMC,182125.65,A,3718.346093,N,00555.582358,W,027.0,329.6,210221,,,A*49
$GPGGA,182126.65,3718.352607,N,00555.587117,W,1,,,83.60,M,0.0,M,0.0,0000*4E
$GPGSV,3,1,9,10,11,150,28.3,16,54,321,46.7,18,59,061,29.2,20,28,120,39.5*42
$GPGSV,3,2,9,23,22,121,36.8,26,83,014,35.4,27,35,276,39.4,29,16,063,36.1*44
$GPGSV,3,3,9,31,34,191,32.6*65
$GPRMC,182126.65,A,3718.352607,N,00555.587117,W,027.4,330.4,210221,,,A*46
$GPGGA,182127.66,3718.359293,N,00555.591881,W,1,,,83.22,M,0.0,M,0.0,0000*49
$GPGSV,2,1,8,16,54,321,46.7,18,59,061,30.7,20,28,120,38.9,23,22,121,36.4*4C
$GPGSV,2,2,8,26,83,014,34.3,27,35,276,40.2,29,16,063,32.0,31,34,191,31.9*46
$GPRMC,182127.66,A,3718.359293,N,00555.591881,W,028.0,330.2,210221,,,A*4A
$GPGGA,182128.65,3718.365986,N,00555.596727,W,1,,,82.75,M,0.0,M,0.0,0000*42
$GPGSV,2,1,7,16,54,321,47.0,18,59,061,28.9,20,28,120,38.7,23,22,121,37.0*49
$GPGSV,2,2,7,26,83,014,34.6,27,35,276,40.3,29,16,063,34.4*66
$GPRMC,182128.65,A,3718.365986,N,00555.596727,W,027.7,329.8,210221,,,A*48
$GPGGA,182129.67,3718.372621,N,00555.601753,W,1,,,82.55,M,0.0,M,0.0,0000*49
$GPGSV,2,1,8,16,54,321,46.8,18,59,061,27.7,20,28,120,38.3,23,22,121,36.7*4C
$GPGSV,2,2,8,26,83,015,31.1,27,35,276,39.2,29,16,063,33.4,31,34,191,30.2*41
$GPRMC,182129.67,A,3718.372621,N,00555.601753,W,027.6,330.0,210221,,,A*40
$GPGGA,182130.66,3718.379092,N,00555.606460,W,1,,,82.52,M,0.0,M,0.0,0000*46
$GPGSV,2,1,8,16,54,321,47.4,18,59,061,30.6,20,28,120,39.5,23,22,121,38.4*4C
$GPGSV,2,2,8,26,83,015,32.1,27,35,276,39.8,29,16,063,27.2,31,34,191,31.0*48
$GPRMC,182130.66,A,3718.379092,N,00555.606460,W,027.7,330.4,210221,,,A*4D
$GPGGA,182131.65,3718.385751,N,00555.611053,W,1,,,82.01,M,0.0,M,0.0,0000*4B
$GPGSV,2,1,8,16,54,321,47.8,18,59,061,29.3,20,28,120,38.1,23,22,121,37.5*46
$GPGSV,2,2,8,26,83,015,33.3,27,35,276,40.2,29,16,063,28.1,31,34,191,29.7*4D
$GPRMC,182131.65,A,3718.385751,N,00555.611053,W,027.5,330.3,210221,,,A*43
$GPGGA,182132.66,3718.392474,N,00555.615786,W,1,,,81.10,M,0.0,M,0.0,0000*41
$GPGSV,2,1,8,10,11,150,30.5,16,54,321,47.5,18,59,061,28.8,20,28,120,39.1*41
$GPGSV,2,2,8,23,22,121,37.6,26,83,015,34.5,27,35,276,42.1,29,16,063,33.6*41
$GPRMC,182132.66,A,3718.392474,N,00555.615786,W,027.9,330.3,210221,,,A*46
$GPGGA,182133.66,3718.399170,N,00555.620477,W,1,,,80.78,M,0.0,M,0.0,0000*4E
$GPGSV,3,1,9,10,11,150,30.2,16,54,321,46.4,18,59,061,31.4,20,28,120,40.5*48
$GPGSV,3,2,9,23,22,121,38.3,26,83,015,34.0,27,35,276,37.4,29,16,063,34.1*49
$GPGSV,3,3,9,31,34,191,30.3*62
$GPRMC,182133.66,A,3718.399170,N,00555.620477,W,027.6,330.2,210221,,,A*48
$GPGGA,182134.67,3718.405973,N,00555.625187,W,1,,,80.20,M,0.0,M,0.0,0000*43
$GPGSV,2,1,8,10,11,150,30.9,16,54,321,46.8,18,59,061,32.4,20,28,120,39.3*44
$GPGSV,2,2,8,23,22,121,37.2,26,83,015,29.7,27,35,276,31.4,31,34,191,28.7*44
$GPRMC,182134.67,A,3718.405973,N,00555.625187,W,027.4,330.8,210221,,,A*40
$GPGGA,182135.66,3718.412481,N,00555.629509,W,1,,,80.42,M,0.0,M,0.0,0000*4F
$GPGSV,3,1,9,10,11,150,34.6,16,54,321,47.5,18,59,061,30.6,20,29,120,40.6*49
$GPGSV,3,2,9,23,22,121,39.0,26,83,015,35.3,27,35,276,35.4,29,16,063,30.3*4D
$GPGSV,3,3,9,31,34,191,29.8*61
$GPRMC,182135.66,A,3718.412481,N,00555.629509,W,026.1,330.0,210221,,,A*44
$GPGGA,182136.65,3718.418699,N,00555.634080,W,1,,,80.01,M,0.0,M,0.0,0000*41
$GPGSV,2,1,8,10,11,150,33.9,16,54,321,47.5,18,59,061,26.6,20,29,120,39.7*49
$GPGSV,2,2,8,23,22,121,39.4,26,83,015,29.7,27,35,276,35.9,29,16,063,30.2*4C
$GPRMC,182136.65,A,3718.418699,N,00555.634080,W,026.1,329.9,210221,,,A*4C
$GPGGA,182137.67,3718.424714,N,00555.638958,W,1,,,80.88,M,0.0,M,0.0,0000*48
$GPGSV,2,1,8,10,11,150,32.1,16,54,321,48.5,18,59,061,30.1,20,29,120,41.8*4F
$GPGSV,2,2,8,23,22,121,41.6,26,83,015,37.2,27,35,276,43.0,29,16,063,32.9*4A
$GPRMC,182137.67,A,3718.424714,N,00555.638958,W,025.9,330.5,210221,,,A*4B
$GPGGA,182138.66,3718.430983,N,00555.643112,W,1,,,80.83,M,0.0,M,0.0,0000*42
$GPGSV,2,1,8,10,11,150,34.4,16,54,321,48.0,18,59,061,28.9,20,29,120,42.0*43
$GPGSV,2,2,8,23,22,121,42.8,26,83,015,38.6,27,35,276,41.4,29,16,063,26.4*42
$GPRMC,182138.66,A,3718.430983,N,00555.643112,W,026.0,330.2,210221,,,A*47
$GPGGA,182139.67,3718.437175,N,00555.647721,W,1,,,81.18,M,0.0,M,0.0,0000*45
$GPGSV,3,1,9,10,11,150,34.9,16,54,321,47.7,18,58,061,31.7,20,29,120,41.9*4B
$GPGSV,3,2,9,23,22,121,42.6,26,83,015,37.8,27,35,276,41.9,29,16,063,27.6*43
$GPGSV,3,3,9,31,34,191,27.2*65
$GPRMC,182139.67,A,3718.437175,N,00555.647721,W,025.3,328.3,210221,,,A*4B
$GPGGA,182140.66,3718.443093,N,00555.651795,W,1,,,81.69,M,0.0,M,0.0,0000*4E
$GPGSV,2,1,8,10,11,150,28.7,16,54,321,46.9,18,58,061,30.9,20,29,120,38.5*4A
$GPGSV,2,2,8,23,22,121,41.0,26,83,015,37.1,27,35,276,44.8,29,16,063,29.2*41
$GPRMC,182140.66,A,3718.443093,N,00555.651795,W,025.4,330.3,210221,,,A*48
$GPGGA,182141.65,3718.449198,N,00555.656106,W,1,,,81.76,M,0.0,M,0.0,0000*49
$GPGSV,2,1,8,10,11,150,34.7,16,54,321,47.4,18,58,061,27.5,20,29,120,39.8*4D
$GPGSV,2,2,8,23,22,121,40.9,26,83,015,38.2,27,35,276,41.4,29,16,063,26.5*44
$GPRMC,182141.65,A,3718.449198,N,00555.656106,W,025.2,330.9,210221,,,A*4D
$GPGGA,182142.67,3718.455154,N,00555.660230,W,1,,,82.60,M,0.0,M,0.0,0000*42
$GPGSV,2,1,7,10,11,150,33.9,16,54,321,47.4,20,29,120,40.8,23,22,121,40.7*46
$GPGSV,2,2,7,26,83,015,36.2,27,35,276,41.7,29,16,063,31.7*62
$GPRMC,182142.67,A,3718.455154,N,00555.660230,W,024.8,330.3,210221,,,A*43
$GPGGA,182143.68,3718.461024,N,00555.664413,W,1,,,84.54,M,0.0,M,0.0,0000*4F
$GPGSV,2,1,8,10,11,150,33.2,16,54,321,47.7,20,29,120,39.5,23,22,121,41.1*45
$GPGSV,2,2,8,26,83,015,37.3,27,35,276,42.0,29,16,063,34.9,31,34,191,29.1*4A
$GPRMC,182143.68,A,3718.461024,N,00555.664413,W,023.5,328.3,210221,,,A*4C
$GPGGA,182144.67,3718.466440,N,00555.668554,W,1,,,85.96,M,0.0,M,0.0,0000*47
$GPGSV,2,1,7,10,11,150,34.5,16,54,321,47.4,20,29,120,40.3,23,22,121,42.6*45
$GPGSV,2,2,7,26,83,015,38.2,27,35,276,42.9,29,16,063,36.3*62
$GPRMC,182144.67,A,3718.466440,N,00555.668554,W,022.9,329.7,210221,,,A*43
$GPGGA,182145.68,3718.471873,N,00555.672745,W,1,,,86.65,M,0.0,M,0.0,0000*45
$GPGSV,2,1,6,10,11,150,34.5,16,54,321,47.2,20,29,120,40.2,23,22,121,41.5*43
$GPGSV,2,2,6,26,83,015,37.6,27,35,276,42.5*45
$GPRMC,182145.68,A,3718.471873,N,00555.672745,W,022.9,330.0,210221,,,A*41
$GPGGA,182146.67,3718.477120,N,00555.676802,W,1,,,88.24,M,0.0,M,0.0,0000*43
$GPGSV,2,1,8,10,11,150,32.2,16,54,321,47.3,18,58,061,27.6,20,29,120,39.8*4A
$GPGSV,2,2,8,23,22,121,41.2,26,83,015,38.6,27,35,276,43.3,29,16,063,32.0*4F
$GPRMC,182146.67,A,3718.477120,N,00555.676802,W,022.6,332.7,210221,,,A*46
$GPGGA,182147.67,3718.482576,N,00555.680226,W,1,,,89.36,M,0.0,M,0.0,0000*48
$GPGSV,2,1,8,10,11,150,35.1,16,54,321,46.8,18,58,061,30.1,20,29,120,39.2*4F
$GPGSV,2,2,8,23,22,121,41.1,26,83,015,38.0,27,35,276,43.5,29,16,063,35.3*48
$GPRMC,182147.67,A,3718.482576,N,00555.680226,W,022.6,329.3,210221,,,A*41
$GPGGA,182148.68,3718.488088,N,00555.684255,W,1,,,89.52,M,0.0,M,0.0,0000*44
$GPGSV,2,1,7,10,11,150,34.9,16,54,321,45.6,18,58,061,34.7,20,29,120,39.8*4C
$GPGSV,2,2,7,23,22,121,40.1,26,83,016,37.0,27,35,276,42.3*6F
$GPRMC,182148.68,A,3718.488088,N,00555.684255,W,022.8,329.2,210221,,,A*40
$GPGGA,182149.67,3718.493327,N,00555.688586,W,1,,,89.19,M,0.0,M,0.0,0000*4C
$GPGSV,3,1,9,10,11,150,32.9,16,54,321,44.2,18,58,061,33.7,20,29,120,37.7*46
$GPGSV,3,2,9,23,22,121,35.7,26,83,016,38.6,27,35,276,42.1,29,16,063,34.7*48
$GPGSV,3,3,9,31,34,191,35.6*62
$GPRMC,182149.67,A,3718.493327,N,00555.688586,W,022.9,320.4,210221,,,A*49
$GPGGA,182150.69,3718.498079,N,00555.693557,W,1,,,89.45,M,0.0,M,0.0,0000*46
$GPGSV,2,1,8,16,54,321,42.2,18,58,061,39.2,20,29,120,35.0,23,22,121,32.6*43
$GPGSV,2,2,8,26,83,016,39.3,27,35,276,37.6,29,16,063,35.6,31,34,191,35.5*44
$GPRMC,182150.69,A,3718.498079,N,00555.693557,W,021.9,315.1,210221,,,A*4A
$GPGGA,182151.68,3718.502323,N,00555.698950,W,1,,,89.78,M,0.0,M,0.0,0000*46
$GPGSV,3,1,9,10,11,150,28.0,16,54,321,42.1,18,58,061,36.5,20,29,120,38.8*46
$GPGSV,3,2,9,23,22,121,31.8,26,83,016,38.9,27,35,276,38.8,29,16,063,32.3*4A
$GPGSV,3,3,9,31,34,191,29.3*6A
$GPRMC,182151.68,A,3718.502323,N,00555.698950,W,020.9,312.0,210221,,,A*43
$GPGGA,182152.67,3718.506263,N,00555.704571,W,1,,,90.56,M,0.0,M,0.0,0000*44
$GPGSV,3,1,9,10,11,150,28.4,16,54,321,41.0,18,58,061,38.3,20,29,120,37.1*4E
$GPGSV,3,2,9,23,22,121,28.3,26,83,016,40.4,27,35,276,40.2,29,16,063,34.2*49
$GPGSV,3,3,9,31,34,191,28.8*60
$GPRMC,182152.67,A,3718.506263,N,00555.704571,W,019.5,310.3,210221,,,A*42
$GPGGA,182153.68,3718.509948,N,00555.709986,W,1,,,89.87,M,0.0,M,0.0,0000*4A
$GPGSV,2,1,7,16,54,321,45.6,18,58,061,39.5,20,29,120,37.1,23,22,121,30.6*49
$GPGSV,2,2,7,26,83,016,39.9,27,35,276,35.7,29,16,063,39.1*68
$GPRMC,182153.68,A,3718.509948,N,00555.709986,W,018.4,315.9,210221,,,A*47
$GPGGA,182154.68,3718.513555,N,00555.714160,W,1,,,90.33,M,0.0,M,0.0,0000*4D
$GPGSV,2,1,7,10,11,150,33.0,16,54,321,47.9,18,58,061,35.4,20,29,120,39.3*46
$GPGSV,2,2,7,23,22,121,36.4,27,35,276,41.6,29,16,063,31.5*6F
$GPRMC,182154.68,A,3718.513555,N,00555.714160,W,017.0,333.2,210221,,,A*43
$GPGGA,182155.69,3718.518000,N,00555.716830,W,1,,,90.08,M,0.0,M,0.0,0000*45
$GPGSV,3,1,9,10,11,150,36.6,16,54,321,41.3,18,58,061,31.3,20,29,120,34.4*4F
$GPGSV,3,2,9,23,22,121,38.7,26,83,016,32.1,27,35,276,40.5,29,16,063,30.6*4B
$GPGSV,3,3,9,31,33,191,33.2*67
$GPRMC,182155.69,A,3718.518000,N,00555.716830,W,018.8,351.4,210221,,,A*46
$GPGGA,182156.68,3718.523307,N,00555.717601,W,1,,,90.23,M,0.0,M,0.0,0000*4F
$GPGSV,2,1,8,10,11,150,38.9,16,54,321,39.9,18,58,061,36.5,20,29,120,39.0*43
$GPGSV,2,2,8,23,22,121,41.3,26,83,016,33.3,27,35,276,36.0,31,33,191,34.8*4E
$GPRMC,182156.68,A,3718.523307,N,00555.717601,W,020.5,356.2,210221,,,A*42
$GPGGA,182157.67,3718.528890,N,00555.718033,W,1,,,90.73,M,0.0,M,0.0,0000*42
$GPGSV,2,1,8,10,11,150,34.7,16,54,321,42.1,18,58,061,36.1,20,29,120,42.6*4B
$GPGSV,2,2,8,23,22,121,42.7,26,83,016,36.9,27,35,276,40.1,31,33,191,29.9*4B
$GPRMC,182157.67,A,3718.528890,N,00555.718033,W,021.2,354.7,210221,,,A*4B
$GPGGA,182158.69,3718.534508,N,00555.719001,W,1,,,90.59,M,0.0,M,0.0,0000*4A
$GPGSV,3,1,9,10,11,150,35.4,16,54,321,44.8,18,58,061,36.5,20,29,120,41.0*47
$GPGSV,3,2,9,23,22,121,42.5,26,83,016,38.3,27,35,276,29.2,29,16,063,40.1*44
$GPGSV,3,3,9,31,33,191,32.5*61
$GPRMC,182158.69,A,3718.534508,N,00555.719001,W,021.6,345.7,210221,,,A*4F
$GPGGA,182159.68,3718.540191,N,00555.721079,W,1,,,90.82,M,0.0,M,0.0,0000*4F
$GPGSV,2,1,8,16,54,321,47.8,18,58,061,34.5,20,29,120,43.4,23,22,121,39.5*4B
$GPGSV,2,2,8,26,83,016,40.0,27,35,276,38.6,29,16,063,31.8,31,33,191,29.8*4B
$GPRMC,182159.68,A,3718.540191,N,00555.721079,W,021.6,334.4,210221,,,A*49
$GPGGA,182200.67,3718.545588,N,00555.724284,W,1,,,91.00,M,0.0,M,0.0,0000*48
$GPGSV,3,1,9,10,11,150,29.0,16,54,321,44.0,18,58,061,28.3,20,29,120,39.6*46
$GPGSV,3,2,9,23,22,121,39.0,26,83,016,39.2,27,35,276,43.1,29,16,063,28.1*4C
$GPGSV,3,3,9,31,33,191,33.1*64
$GPRMC,182200.67,A,3718.545588,N,00555.724284,W,021.6,324.1,210221,,,A*41
$GPGGA,182201.67,3718.550317,N,00555.728960,W,1,,,90.07,M,0.0,M,0.0,0000*46
$GPGSV,2,1,7,16,54,321,43.0,18,58,061,36.0,20,29,120,36.1,23,22,121,33.8*4F
$GPGSV,2,2,7,26,83,016,37.9,27,35,276,29.1,29,16,063,29.9*64
$GPRMC,182201.67,A,3718.550317,N,00555.728960,W,021.1,316.3,210221,,,A*4D
$GPGGA,182202.68,3718.554632,N,00555.734055,W,1,,,90.13,M,0.0,M,0.0,0000*4B
$GPGSV,3,1,9,10,11,150,30.8,16,54,321,42.4,18,58,061,36.1,20,29,120,39.9*46
$GPGSV,3,2,9,23,22,121,32.5,26,83,016,36.5,27,35,276,29.2,29,16,063,27.2*49
$GPGSV,3,3,9,31,33,191,34.6*64
$GPRMC,182202.68,A,3718.554632,N,00555.734055,W,021.4,307.3,210221,,,A*40
$GPGGA,182203.67,3718.558104,N,00555.740166,W,1,,,90.31,M,0.0,M,0.0,0000*49
$GPGSV,2,1,8,16,54,321,46.1,18,58,061,39.8,20,29,120,35.6,23,22,121,29.3*47
$GPGSV,2,2,8,26,83,016,38.6,27,35,276,35.4,29,16,063,31.7,31,33,191,34.2*44
$GPRMC,182203.67,A,3718.558104,N,00555.740166,W,020.8,315.7,210221,,,A*48
$GPGGA,182204.68,3718.562146,N,00555.745449,W,1,,,90.81,M,0.0,M,0.0,0000*48
$GPGSV,2,1,8,10,11,150,35.9,16,54,321,48.2,18,58,061,35.6,20,29,120,38.5*47
$GPGSV,2,2,8,23,22,121,38.4,26,83,016,37.8,27,35,276,39.6,29,16,063,32.8*45
$GPRMC,182204.68,A,3718.562146,N,00555.745449,W,021.2,328.2,210221,,,A*42
$GPGGA,182205.68,3718.566699,N,00555.749390,W,1,,,90.75,M,0.0,M,0.0,0000*4C
$GPGSV,3,1,9,10,11,150,29.9,16,54,321,45.3,18,58,061,40.3,20,29,120,39.7*42
$GPGSV,3,2,9,23,22,121,39.3,26,83,016,33.9,27,35,276,38.7,29,15,063,38.1*46
$GPGSV,3,3,9,31,33,191,38.3*6D
$GPRMC,182205.68,A,3718.566699,N,00555.749390,W,022.3,341.2,210221,,,A*40
$GPGGA,182206.67,3718.572965,N,00555.751725,W,1,,,90.88,M,0.0,M,0.0,0000*48
$GPGSV,3,1,9,10,11,149,29.5,16,54,321,48.5,18,58,061,34.5,20,29,120,38.0*4E
$GPGSV,3,2,9,23,22,121,40.0,26,83,016,37.5,27,35,276,27.9,29,15,063,37.2*4F
$GPGSV,3,3,9,31,33,191,31.9*6E
$GPRMC,182206.67,A,3718.572965,N,00555.751725,W,023.0,343.5,210221,,,A*41
$GPGGA,182207.68,3718.579126,N,00555.754080,W,1,,,90.93,M,0.0,M,0.0,0000*45
$GPGSV,2,1,8,16,54,321,48.3,18,58,061,29.4,20,29,120,40.7,23,22,121,38.4*42
$GPGSV,2,2,8,26,83,017,37.9,27,35,276,35.0,29,15,063,32.4,31,33,191,36.7*45
$GPRMC,182207.68,A,3718.579126,N,00555.754080,W,024.9,338.3,210221,,,A*42
$GPGGA,182208.67,3718.585538,N,00555.757289,W,1,,,91.24,M,0.0,M,0.0,0000*48
$GPGSV,2,1,7,10,11,149,29.1,16,54,321,47.4,18,58,061,35.9,20,29,120,35.9*42
$GPGSV,2,2,7,23,22,121,34.7,26,83,017,35.6,27,35,276,41.1*6E
$GPRMC,182208.67,A,3718.585538,N,00555.757289,W,024.2,327.0,210221,,,A*44
$GPGGA,182209.68,3718.591551,N,00555.762070,W,1,,,91.66,M,0.0,M,0.0,0000*48
$GPGSV,2,1,8,10,11,149,31.9,16,54,321,46.6,18,58,061,32.3,20,29,120,37.8*41
$GPGSV,2,2,8,23,22,121,39.2,26,83,017,37.3,27,35,276,43.1,29,15,063,32.8*41
$GPRMC,182209.68,A,3718.591551,N,00555.762070,W,027.1,331.5,210221,,,A*40
$GPGGA,182210.68,3718.598011,N,00555.766367,W,1,,,92.76,M,0.0,M,0.0,0000*4B
$GPGSV,2,1,8,10,11,149,34.7,16,54,321,46.3,20,29,120,39.3,23,22,121,40.6*4A
$GPGSV,2,2,8,26,83,017,37.8,27,35,276,43.7,29,15,063,34.6,31,33,191,26.7*47
$GPRMC,182210.68,A,3718.598011,N,00555.766367,W,027.5,328.6,210221,,,A*4E
$GPGGA,182211.67,3718.604296,N,00555.771373,W,1,,,93.21,M,0.0,M,0.0,0000*4E
$GPGSV,3,1,9,10,11,149,33.3,16,54,321,46.4,18,58,061,29.2,20,29,120,38.2*45
$GPGSV,3,2,9,23,22,121,38.8,26,83,017,37.3,27,35,276,42.4,29,15,063,33.9*4E
$GPGSV,3,3,9,31,33,191,28.5*6A
$GPRMC,182211.67,A,3718.604296,N,00555.771373,W,028.5,329.4,210221,,,A*44
$GPGGA,182212.68,3718.611211,N,00555.776440,W,1,,,93.65,M,0.0,M,0.0,0000*49
$GPGSV,3,1,9,10,11,149,33.9,16,54,321,46.7,18,58,061,30.3,20,29,120,39.2*44
$GPGSV,3,2,9,23,22,121,39.4,26,83,017,37.7,27,35,276,42.4,29,15,063,32.1*4E
$GPGSV,3,3,9,31,33,191,28.1*6E
$GPRMC,182212.68,A,3718.611211,N,00555.776440,W,029.2,330.2,210221,,,A*4B
$GPGGA,182213.68,3718.618169,N,00555.781506,W,1,,,94.00,M,0.0,M,0.0,0000*42
$GPGSV,3,1,9,10,11,149,33.1,16,54,321,46.8,18,58,061,28.9,20,29,120,38.5*46
$GPGSV,3,2,9,23,22,121,38.8,26,83,017,38.1,27,35,276,43.1,29,15,063,31.0*4C
$GPGSV,3,3,9,31,33,191,28.6*69
$GPRMC,182213.68,A,3718.618169,N,00555.781506,W,029.4,329.8,210221,,,A*40
$GPGGA,182214.69,3718.625564,N,00555.786540,W,1,,,94.05,M,0.0,M,0.0,0000*43
$GPGSV,3,1,9,10,11,149,33.4,16,54,321,46.6,18,58,061,28.6,20,29,120,40.1*49
$GPGSV,3,2,9,23,22,121,40.4,26,83,017,38.5,27,35,276,44.1,29,15,063,29.6*43
$GPGSV,3,3,9,31,33,191,26.9*68
$GPRMC,182214.69,A,3718.625564,N,00555.786540,W,029.9,329.4,210221,,,A*45
$GPGGA,182215.68,3718.632570,N,00555.791923,W,1,,,94.88,M,0.0,M,0.0,0000*4A
$GPGSV,3,1,9,10,11,149,33.6,16,54,321,46.5,18,58,061,31.1,20,29,120,38.3*4A
$GPGSV,3,2,9,23,22,121,39.3,26,83,017,38.6,27,35,276,43.3,29,15,063,31.8*4B
$GPGSV,3,3,9,31,33,191,27.6*66
$GPRMC,182215.68,A,3718.632570,N,00555.791923,W,030.3,330.2,210221,,,A*45
$GPGGA,182216.67,3718.639963,N,00555.797231,W,1,,,94.87,M,0.0,M,0.0,0000*42
$GPGSV,2,1,8,10,11,149,32.0,16,54,321,46.2,18,58,061,33.7,20,29,120,38.3*4E
$GPGSV,2,2,8,23,22,121,38.6,26,83,017,37.3,27,35,276,42.2,29,15,063,34.7*4F
$GPRMC,182216.67,A,3718.639963,N,00555.797231,W,030.1,330.1,210221,,,A*43
$GPGGA,182217.69,3718.647223,N,00555.802661,W,1,,,95.33,M,0.0,M,0.0,0000*47
$GPGSV,3,1,9,10,11,149,32.2,16,54,321,46.0,18,58,061,34.1,20,29,119,38.9*4F
$GPGSV,3,2,9,23,22,121,38.8,26,83,017,37.9,27,35,276,41.5,29,15,063,29.2*46
$GPGSV,3,3,9,31,33,191,29.8*66
$GPRMC,182217.69,A,3718.647223,N,00555.802661,W,030.0,330.0,210221,,,A*48
$GPGGA,182218.68,3718.654388,N,00555.807904,W,1,,,95.64,M,0.0,M,0.0,0000*40
$GPGSV,2,1,8,10,11,149,33.4,16,54,321,46.0,18,58,061,34.4,20,29,119,38.2*46
$GPGSV,2,2,8,23,22,121,38.5,26,83,017,37.7,27,35,276,41.4,31,33,191,26.7*4F
$GPRMC,182218.68,A,3718.654388,N,00555.807904,W,030.0,330.3,210221,,,A*4E
$GPGGA,182219.69,3718.661699,N,00555.813001,W,1,,,95.90,M,0.0,M,0.0,0000*41
$GPGSV,2,1,8,10,11,149,32.0,16,54,321,45.8,18,58,061,34.2,20,29,119,38.3*4F
$GPGSV,2,2,8,23,22,121,38.5,26,83,017,37.1,27,35,276,41.6,31,33,191,28.8*4A
$GPRMC,182219.69,A,3718.661699,N,00555.813001,W,029.8,329.3,210221,,,A*4C
$GPGGA,182220.69,3718.668894,N,00555.818517,W,1,,,95.89,M,0.0,M,0.0,0000*40
$GPGSV,3,1,9,10,11,149,33.8,16,54,321,45.5,18,58,061,34.1,20,29,119,38.1*4A
$GPGSV,3,2,9,23,22,121,37.9,26,83,017,37.9,27,35,276,42.4,29,15,063,27.8*4E
$GPGSV,3,3,9,31,33,191,31.0*67
$GPRMC,182220.69,A,3718.668894,N,00555.818517,W,030.3,330.5,210221,,,A*48
$GPGGA,182221.68,3718.676517,N,00555.823394,W,1,,,95.62,M,0.0,M,0.0,0000*49
$GPGSV,2,1,8,10,11,149,32.8,16,54,321,46.0,18,58,061,33.8,20,29,119,38.5*47
$GPGSV,2,2,8,23,22,121,39.3,26,83,017,36.2,27,35,276,42.4,31,33,191,31.1*4F
$GPRMC,182221.68,A,3718.676517,N,00555.823394,W,030.2,330.2,210221,,,A*42
$GPGGA,182222.69,3718.683795,N,00555.828698,W,1,,,95.91,M,0.0,M,0.0,0000*47
$GPGSV,2,1,8,10,11,149,29.3,16,54,321,46.5,18,58,061,35.7,20,29,119,36.6*47
$GPGSV,2,2,8,23,22,121,38.8,26,83,017,36.3,27,35,276,43.7,31,33,191,30.8*4E
$GPRMC,182222.69,A,3718.683795,N,00555.828698,W,029.9,329.8,210221,,,A*41
$GPGGA,182223.68,3718.690827,N,00555.834133,W,1,,,95.91,M,0.0,M,0.0,0000*48
$GPGSV,2,1,8,10,11,149,32.1,16,54,321,44.6,18,58,061,29.4,20,29,119,38.7*4F
$GPGSV,2,2,8,23,22,121,38.9,26,83,017,37.5,27,35,276,42.3,29,15,063,28.6*4B
$GPRMC,182223.68,A,3718.690827,N,00555.834133,W,029.9,329.4,210221,,,A*42
$GPGGA,182224.70,3718.698361,N,00555.839247,W,1,,,95.85,M,0.0,M,0.0,0000*4F
$GPGSV,2,1,8,10,11,149,31.9,16,54,321,45.6,18,58,061,32.4,20,29,119,38.0*48
$GPGSV,2,2,8,23,22,121,39.8,26,83,017,36.8,27,35,276,43.0,31,33,191,26.5*49
$GPRMC,182224.70,A,3718.698361,N,00555.839247,W,030.1,329.1,210221,,,A*45
$GPGGA,182225.69,3718.705652,N,00555.844560,W,1,,,95.84,M,0.0,M,0.0,0000*4F
$GPGSV,2,1,8,10,11,149,33.5,16,54,321,45.6,18,58,061,33.3,20,29,119,38.6*46
$GPGSV,2,2,8,23,22,120,39.2,26,83,018,36.2,27,35,276,43.1,31,33,191,26.3*40
$GPRMC,182225.69,A,3718.705652,N,00555.844560,W,030.4,330.1,210221,,,A*49
$GPGGA,182226.68,3718.712991,N,00555.849890,W,1,,,96.68,M,0.0,M,0.0,0000*45
$GPGSV,2,1,8,10,11,149,32.4,16,54,321,44.7,18,58,061,31.6,20,29,119,36.3*4A
$GPGSV,2,2,8,23,22,120,37.2,26,83,018,36.8,27,35,276,40.6,31,33,191,28.8*45
$GPRMC,182226.68,A,3718.712991,N,00555.849890,W,028.9,328.0,210221,,,A*4E
$GPGGA,182227.70,3718.720173,N,00555.855204,W,1,,,96.81,M,0.0,M,0.0,0000*45
$GPGSV,3,1,9,10,12,149,29.0,16,54,321,44.7,18,58,061,26.3,20,29,119,35.4*40
$GPGSV,3,2,9,23,22,120,36.4,26,83,018,33.4,27,35,276,39.8,29,15,064,30.3*4F
$GPGSV,3,3,9,31,33,191,30.4*62
$GPRMC,182227.70,A,3718.720173,N,00555.855204,W,029.3,329.4,210221,,,A*47
$GPGGA,182228.69,3718.727690,N,00555.860134,W,1,,,96.49,M,0.0,M,0.0,0000*4D
$GPGSV,2,1,8,10,12,149,28.9,16,54,321,44.7,20,29,119,33.4,23,22,120,35.3*4D
$GPGSV,2,2,8,26,83,018,33.0,27,35,276,40.0,29,15,064,27.7,31,33,191,30.5*41
$GPRMC,182228.69,A,3718.727690,N,00555.860134,W,029.3,329.9,210221,,,A*46
$GPGGA,182229.70,3718.734798,N,00555.864964,W,1,,,96.54,M,0.0,M,0.0,0000*4A
$GPGSV,2,1,8,10,12,149,27.1,16,54,321,44.6,20,29,119,34.8,23,22,120,35.9*4A
$GPGSV,2,2,8,26,83,018,33.5,27,35,276,40.6,29,15,064,31.8,31,33,191,28.8*4E
$GPRMC,182229.70,A,3718.734798,N,00555.864964,W,029.2,330.0,210221,,,A*4D
$GPGGA,182230.69,3718.741834,N,00555.870051,W,1,,,96.96,M,0.0,M,0.0,0000*45
$GPGSV,2,1,6,16,54,321,45.1,20,29,119,34.6,23,22,120,35.5,26,83,018,34.7*4C
$GPGSV,2,2,6,27,35,276,41.6,29,15,064,25.8*4E
$GPRMC,182230.69,A,3718.741834,N,00555.870051,W,027.8,328.6,210221,,,A*47
$GPGGA,182231.68,3718.748533,N,00555.875226,W,1,,,96.42,M,0.0,M,0.0,0000*48
$GPGSV,3,1,9,10,12,149,26.4,16,54,321,44.6,18,58,061,27.1,20,29,119,31.3*4A
$GPGSV,3,2,9,23,22,120,34.9,26,83,018,36.8,27,35,276,43.2,29,15,064,31.9*45
$GPGSV,3,3,9,31,33,191,27.1*61
$GPRMC,182231.68,A,3718.748533,N,00555.875226,W,028.7,329.5,210221,,,A*41
$GPGGA,182232.71,3718.755732,N,00555.880872,W,1,,,95.64,M,0.0,M,0.0,0000*4A
$GPGSV,3,1,9,10,12,149,26.5,16,54,321,43.0,18,58,061,29.9,20,29,119,27.5*4D
$GPGSV,3,2,9,23,22,120,32.6,26,83,018,36.8,27,35,276,43.7,29,15,064,33.5*47
$GPGSV,3,3,9,31,33,191,27.1*61
$GPRMC,182232.71,A,3718.755732,N,00555.880872,W,028.7,330.5,210221,,,A*4C
$GPGGA,182233.70,3718.762497,N,00555.885680,W,1,,,94.90,M,0.0,M,0.0,0000*4E
$GPGSV,2,1,8,16,54,322,41.7,18,58,061,28.1,20,29,119,26.7,23,22,120,33.4*48
$GPGSV,2,2,8,26,83,018,37.1,27,35,276,44.3,29,15,064,29.8,31,33,191,27.4*45
$GPRMC,182233.70,A,3718.762497,N,00555.885680,W,029.6,330.5,210221,,,A*42
$GPGGA,182234.70,3718.769786,N,00555.890750,W,1,,,94.15,M,0.0,M,0.0,0000*44
$GPGSV,3,1,9,10,12,149,27.9,16,54,322,42.9,18,58,061,29.3,20,29,119,28.0*4B
$GPGSV,3,2,9,23,22,120,34.4,26,83,018,37.2,27,35,276,44.1,29,15,064,32.2*4F
$GPGSV,3,3,9,31,33,191,28.4*6B
$GPRMC,182234.70,A,3718.769786,N,00555.890750,W,029.5,330.2,210221,,,A*41
$GPGGA,182235.71,3718.777034,N,00555.896066,W,1,,,93.97,M,0.0,M,0.0,0000*4C
$GPGSV,3,1,9,10,12,149,28.0,16,54,322,43.4,18,58,061,31.4,20,29,119,29.0*4E
$GPGSV,3,2,9,23,23,120,33.1,26,83,018,37.1,27,35,276,43.5,29,15,064,31.7*4A
$GPGSV,3,3,9,31,33,191,26.1*60
$GPRMC,182235.71,A,3718.777034,N,00555.896066,W,028.8,329.9,210221,,,A*4B
$GPGGA,182236.70,3718.783935,N,00555.901216,W,1,,,93.83,M,0.0,M,0.0,0000*42
$GPGSV,3,1,9,10,12,149,26.0,16,55,322,43.6,18,58,061,30.4,20,29,119,30.1*4B
$GPGSV,3,2,9,23,23,120,35.4,26,83,018,36.3,27,35,276,44.0,29,15,064,29.6*40
$GPGSV,3,3,9,31,33,191,27.8*68
$GPRMC,182236.70,A,3718.783935,N,00555.901216,W,028.5,330.2,210221,,,A*4E
$GPGGA,182237.70,3718.791061,N,00555.906220,W,1,,,93.55,M,0.0,M,0.0,0000*41
$GPGSV,3,1,9,10,12,149,28.3,16,55,322,44.4,18,58,061,30.5,20,29,119,31.2*40
$GPGSV,3,2,9,23,23,120,35.7,26,83,018,36.6,27,35,276,43.7,29,15,064,33.6*4D
$GPGSV,3,3,9,31,33,191,28.3*6C
$GPRMC,182237.70,A,3718.791061,N,00555.906220,W,027.9,329.8,210221,,,A*47
$GPGGA,182238.71,3718.797587,N,00555.911280,W,1,,,93.98,M,0.0,M,0.0,0000*49
$GPGSV,2,1,8,10,12,149,28.1,16,55,322,43.7,18,58,061,34.2,20,29,119,29.8*46
$GPGSV,2,2,8,23,23,120,33.8,26,83,018,36.0,27,35,276,42.8,29,15,064,32.9*42
$GPRMC,182238.71,A,3718.797587,N,00555.911280,W,026.9,329.7,210221,,,A*40
$GPGGA,182239.70,3718.804019,N,00555.916033,W,1,,,93.66,M,0.0,M,0.0,0000*42
$GPGSV,3,1,9,10,12,149,31.2,16,55,322,45.5,18,58,061,34.5,20,29,119,37.3*4A
$GPGSV,3,2,9,23,23,120,35.9,26,83,018,35.1,27,35,276,43.2,29,15,064,30.2*45
$GPGSV,3,3,9,31,33,191,27.1*61
$GPRMC,182239.70,A,3718.804019,N,00555.916033,W,025.8,330.3,210221,,,A*44
$GPGGA,182240.71,3718.810102,N,00555.919994,W,1,,,94.97,M,0.0,M,0.0,0000*41
$GPGSV,2,1,8,10,12,149,31.9,16,55,322,46.5,18,58,061,33.0,20,29,119,40.4*47
$GPGSV,2,2,8,23,23,120,41.4,26,83,018,35.2,27,35,276,41.8,29,15,064,34.2*44
$GPRMC,182240.71,A,3718.810102,N,00555.919994,W,021.1,331.9,210221,,,A*48
$GPGGA,182241.71,3718.815042,N,00555.923401,W,1,,,94.75,M,0.0,M,0.0,0000*44
$GPGSV,2,1,8,10,12,149,34.3,16,55,322,47.1,18,58,061,36.4,20,29,119,39.7*41
$GPGSV,2,2,8,23,23,120,41.7,26,83,018,38.1,27,35,276,42.4,29,15,064,34.0*44
$GPRMC,182241.71,A,3718.815042,N,00555.923401,W,014.6,330.3,210221,,,A*4B
$GPGGA,182242.70,3718.818525,N,00555.925719,W,1,,,94.79,M,0.0,M,0.0,0000*4F
$GPGSV,2,1,8,10,12,149,34.9,16,55,322,47.2,18,58,061,36.9,20,29,119,39.2*40
$GPGSV,2,2,8,23,23,120,41.6,26,83,018,38.3,27,35,276,42.5,29,15,064,35.0*47
$GPRMC,182242.70,A,3718.818525,N,00555.925719,W,008.0,330.4,210221,,,A*40
$GPGGA,182243.69,3718.820465,N,00555.926640,W,1,,,94.61,M,0.0,M,0.0,0000*4F
$GPGSV,2,1,8,10,12,149,33.9,16,55,322,46.6,18,58,061,35.4,20,29,119,39.2*4C
$GPGSV,2,2,8,23,23,120,41.4,26,83,019,37.5,27,35,276,43.0,29,15,064,32.4*4A
$GPRMC,182243.69,A,3718.820465,N,00555.926640,W,003.5,330.4,210221,,,A*47
$GPGGA,182244.70,3718.821349,N,00555.926972,W,1,,,94.19,M,0.0,M,0.0,0000*49
$GPGSV,2,1,8,16,55,322,46.5,18,58,061,35.8,20,29,119,37.5,23,23,120,36.0*4B
$GPGSV,2,2,8,26,83,019,37.8,27,35,276,43.1,29,15,064,29.8,31,33,191,30.1*4B
$GPRMC,182244.70,A,3718.821349,N,00555.926972,W,002.3,332.3,210221,,,A*4C
$GPGGA,182245.70,3718.821948,N,00555.927158,W,1,,,94.22,M,0.0,M,0.0,0000*4A
$GPGSV,3,1,9,10,12,149,28.1,16,55,322,47.2,18,58,061,34.6,20,29,119,36.4*41
$GPGSV,3,2,9,23,23,120,35.7,26,83,019,39.8,27,35,276,43.6,29,15,064,35.3*4F
$GPGSV,3,3,9,31,33,191,32.4*60
$GPRMC,182245.70,A,3718.821948,N,00555.927158,W,001.5,334.3,210221,,,A*44
$GPGGA,182246.71,3718.821641,N,00555.927306,W,1,,,95.36,M,0.0,M,0.0,0000*43
$GPGSV,3,1,9,10,12,149,32.9,16,55,322,46.8,18,58,061,32.2,20,29,119,36.2*4D
$GPGSV,3,2,9,23,23,120,37.5,26,83,019,38.1,27,36,276,43.2,29,15,064,34.7*45
$GPGSV,3,3,9,31,33,191,32.7*63
$GPRMC,182246.71,A,3718.821641,N,00555.927306,W,000.5,272.6,210221,,,A*4E
$GPGGA,182247.70,3718.821548,N,00555.927398,W,1,,,95.05,M,0.0,M,0.0,0000*4E
$GPGSV,3,1,9,10,12,149,35.2,16,55,322,48.1,18,58,061,34.7,20,29,119,36.3*44
$GPGSV,3,2,9,23,23,120,38.3,26,83,019,34.4,27,36,276,44.1,29,15,064,32.4*44
$GPGSV,3,3,9,31,33,191,32.3*67
$GPRMC,182247.70,A,3718.821548,N,00555.927398,W,003.8,328.9,210221,,,A*4C
$GPGGA,182248.71,3718.822645,N,00555.928066,W,1,,,94.74,M,0.0,M,0.0,0000*47
$GPGSV,2,1,8,10,12,149,34.0,16,55,322,48.3,20,29,119,38.0,23,23,120,38.9*4A
$GPGSV,2,2,8,26,83,019,36.7,27,36,276,44.7,29,15,064,26.2,31,33,191,31.4*46
$GPRMC,182248.71,A,3718.822645,N,00555.928066,W,006.3,331.3,210221,,,A*4E
$GPGGA,182249.71,3718.824198,N,00555.929322,W,1,,,94.49,M,0.0,M,0.0,0000*4B
$GPGSV,2,1,8,10,12,149,32.7,16,55,322,47.4,18,58,061,28.8,20,29,119,36.5*48
$GPGSV,2,2,8,23,23,120,37.7,26,83,019,34.7,27,36,276,42.4,29,15,064,27.9*46
$GPRMC,182249.71,A,3718.824198,N,00555.929322,W,008.2,329.3,210221,,,A*4A
$GPGGA,182250.72,3718.826458,N,00555.930964,W,1,,,94.02,M,0.0,M,0.0,0000*44
$GPGSV,3,1,9,10,12,149,31.9,16,55,322,47.8,18,58,061,34.7,20,29,119,39.2*43
$GPGSV,3,2,9,23,23,120,35.6,26,83,019,32.8,27,36,276,38.8,29,15,064,31.2*41
$GPGSV,3,3,9,31,33,191,34.9*6B
$GPRMC,182250.72,A,3718.826458,N,00555.930964,W,010.2,331.5,210221,,,A*4C
$GPGGA,182251.71,3718.828973,N,00555.932575,W,1,,,94.08,M,0.0,M,0.0,0000*48
$GPGSV,2,1,8,10,12,149,33.8,16,55,322,48.9,18,58,061,30.6,20,29,119,41.6*40
$GPGSV,2,2,8,23,23,120,35.6,26,83,019,35.1,27,36,276,42.1,29,15,064,29.2*42
$GPRMC,182251.71,A,3718.828973,N,00555.932575,W,010.9,336.6,210221,,,A*45
$GPGGA,182252.70,3718.831672,N,00555.933891,W,1,,,94.87,M,0.0,M,0.0,0000*4D
$GPGSV,2,1,8,10,12,149,34.4,16,55,322,48.1,18,58,061,33.2,20,29,119,40.5*46
$GPGSV,2,2,8,23,23,120,40.8,26,83,019,36.0,27,36,276,30.8,29,15,064,35.5*4A
$GPRMC,182252.70,A,3718.831672,N,00555.933891,W,012.4,345.7,210221,,,A*4D
$GPGGA,182253.72,3718.834446,N,00555.934706,W,1,,,95.74,M,0.0,M,0.0,0000*45
$GPGSV,3,1,9,10,12,149,35.3,16,55,322,38.3,18,58,061,39.6,20,29,119,31.9*41
$GPGSV,3,2,9,23,23,120,39.8,26,83,019,36.8,27,36,276,38.3,29,15,064,34.1*4A
$GPGSV,3,3,9,31,33,191,35.8*6B
$GPRMC,182253.72,A,3718.834446,N,00555.934706,W,014.9,358.7,210221,,,A*4F
$GPGGA,182254.71,3718.838425,N,00555.934787,W,1,,,96.03,M,0.0,M,0.0,0000*42
$GPGSV,3,1,9,10,12,149,29.5,16,55,322,39.4,18,58,060,42.5,20,29,119,38.8*4A
$GPGSV,3,2,9,23,23,120,38.5,26,83,019,35.2,27,36,276,33.3,29,15,064,35.9*4D
$GPGSV,3,3,9,31,33,191,28.4*6B
$GPRMC,182254.71,A,3718.838425,N,00555.934787,W,016.8,010.1,210221,,,A*41
$GPGGA,182255.72,3718.842934,N,00555.933732,W,1,,,96.52,M,0.0,M,0.0,0000*4D
$GPGSV,3,1,9,10,12,149,31.0,16,55,322,36.2,18,58,060,41.0,20,29,119,38.3*42
$GPGSV,3,2,9,23,23,120,39.1,26,83,019,36.5,27,36,276,36.7,29,15,064,27.6*41
$GPGSV,3,3,9,31,33,191,35.1*62
$GPRMC,182255.72,A,3718.842934,N,00555.933732,W,018.2,014.4,210221,,,A*4F
$GPGGA,182256.72,3718.847737,N,00555.932086,W,1,,,96.61,M,0.0,M,0.0,0000*4F
$GPGSV,2,1,8,10,12,149,28.6,16,55,322,34.3,18,58,060,40.4,20,29,119,35.4*40
$GPGSV,2,2,8,23,23,120,39.0,26,83,019,39.9,27,36,276,34.4,31,33,191,32.8*4E
$GPRMC,182256.72,A,3718.847737,N,00555.932086,W,019.1,014.1,210221,,,A*4A
$GPGGA,182257.71,3718.852967,N,00555.930267,W,1,,,96.86,M,0.0,M,0.0,0000*44
$GPGSV,3,1,9,10,12,149,32.5,16,55,322,36.9,18,58,060,37.4,20,29,119,37.0*46
$GPGSV,3,2,9,23,23,120,41.7,26,83,019,38.1,27,36,276,39.6,29,15,064,32.9*47
$GPGSV,3,3,9,31,33,191,36.9*69
$GPRMC,182257.71,A,3718.852967,N,00555.930267,W,020.1,011.2,210221,,,A*44
$GPGGA,182258.72,3718.858750,N,00555.928745,W,1,,,97.22,M,0.0,M,0.0,0000*4B
$GPGSV,3,1,9,10,12,149,31.4,16,55,322,34.0,18,58,060,34.8,20,29,119,37.9*49
$GPGSV,3,2,9,23,23,120,41.1,26,83,019,37.3,27,36,276,33.2,29,15,064,41.3*4C
$GPGSV,3,3,9,31,33,191,37.1*60
$GPRMC,182258.72,A,3718.858750,N,00555.928745,W,020.3,008.4,210221,,,A*48
$GPGGA,182259.71,3718.864603,N,00555.927319,W,1,,,97.25,M,0.0,M,0.0,0000*44
$GPGSV,3,1,9,10,12,149,29.6,16,55,322,31.7,18,58,060,34.4,20,29,119,39.7*4C
$GPGSV,3,2,9,23,23,120,40.3,26,83,019,39.0,27,36,276,35.6,29,15,064,32.6*41
$GPGSV,3,3,9,31,33,191,36.1*61
$GPRMC,182259.71,A,3718.864603,N,00555.927319,W,020.6,004.7,210221,,,A*4A
$GPGGA,182300.73,3718.870270,N,00555.926757,W,1,,,96.46,M,0.0,M,0.0,0000*45
$GPGSV,3,1,9,10,12,149,32.7,16,55,322,36.1,18,58,060,29.6,20,29,119,43.9*4B
$GPGSV,3,2,9,23,23,120,41.3,26,83,020,40.1,27,36,276,36.2,29,15,064,40.3*42
$GPGSV,3,3,9,31,33,191,27.9*69
$GPRMC,182300.73,A,3718.870270,N,00555.926757,W,021.5,357.3,210221,,,A*4C
$GPGGA,182301.72,3718.876326,N,00555.927101,W,1,,,96.88,M,0.0,M,0.0,0000*47
$GPGSV,3,1,9,10,12,149,33.4,16,55,322,40.2,18,58,060,36.9,20,29,119,42.6*44
$GPGSV,3,2,9,23,23,120,42.2,26,83,020,37.9,27,36,276,33.4,29,15,064,35.4*4E
$GPGSV,3,3,9,31,33,191,34.6*64
$GPRMC,182301.72,A,3718.876326,N,00555.927101,W,021.3,354.1,210221,,,A*4B
$GPGGA,182302.73,3718.882661,N,00555.927936,W,1,,,96.93,M,0.0,M,0.0,0000*4E
$GPGSV,2,1,8,10,12,149,33.9,16,55,322,44.4,18,58,060,38.5,20,29,119,39.6*45
$GPGSV,2,2,8,23,23,120,40.9,26,83,020,36.3,29,15,064,40.9,31,33,191,29.8*4C
$GPRMC,182302.73,A,3718.882661,N,00555.927936,W,022.2,346.2,210221,,,A*4A
$GPGGA,182303.72,3718.888566,N,00555.930228,W,1,,,96.42,M,0.0,M,0.0,0000*4E
$GPGSV,3,1,9,10,12,149,27.0,16,55,322,45.2,18,58,060,32.8,20,29,119,39.9*46
$GPGSV,3,2,9,23,23,120,36.8,26,83,020,34.2,27,36,276,33.9,29,15,064,35.3*45
$GPGSV,3,3,9,31,33,191,34.3*61
$GPRMC,182303.72,A,3718.888566,N,00555.930228,W,022.6,337.9,210221,,,A*4F
$GPGGA,182304.71,3718.894176,N,00555.933058,W,1,,,96.78,M,0.0,M,0.0,0000*4D
$GPGSV,2,1,8,10,12,149,27.6,16,55,322,43.5,20,29,119,37.9,23,23,120,36.4*46
$GPGSV,2,2,8,26,83,020,33.4,27,36,276,41.9,29,15,064,29.3,31,33,191,29.4*46
$GPRMC,182304.71,A,3718.894176,N,00555.933058,W,023.0,331.0,210221,,,A*4D
$GPGGA,182305.73,3718.899666,N,00555.937747,W,1,,,96.67,M,0.0,M,0.0,0000*46
$GPGSV,3,1,9,10,12,149,28.7,16,55,322,43.8,18,58,060,31.9,20,29,119,35.3*46
$GPGSV,3,2,9,23,23,120,34.2,26,84,020,32.5,27,36,276,36.7,29,15,064,31.5*42
$GPGSV,3,3,9,31,33,191,31.7*60
$GPRMC,182305.73,A,3718.899666,N,00555.937747,W,023.2,322.4,210221,,,A*4C
$GPGGA,182306.72,3718.904634,N,00555.942728,W,1,,,97.02,M,0.0,M,0.0,0000*4F
$GPGSV,2,1,8,16,55,322,40.3,18,58,060,31.3,20,29,119,35.0,23,23,120,29.8*44
$GPGSV,2,2,8,26,84,020,33.4,27,36,276,34.4,29,15,064,36.0,31,33,191,36.6*4F
$GPRMC,182306.72,A,3718.904634,N,00555.942728,W,022.8,315.3,210221,,,A*4F
$GPGGA,182307.71,3718.909122,N,00555.948393,W,1,,,97.03,M,0.0,M,0.0,0000*4F
$GPGSV,2,1,8,10,12,149,29.4,16,55,322,42.3,18,58,060,35.1,20,29,119,33.4*43
$GPGSV,2,2,8,26,84,020,35.0,27,36,276,28.0,29,15,064,37.0,31,33,191,33.5*43
$GPRMC,182307.71,A,3718.909122,N,00555.948393,W,022.6,308.3,210221,,,A*4C
$GPGGA,182308.72,3718.912910,N,00555.954482,W,1,,,97.96,M,0.0,M,0.0,0000*46
$GPGSV,2,1,7,10,12,149,31.1,16,55,322,45.7,18,58,060,28.8,20,29,119,27.6*41
$GPGSV,2,2,7,26,84,020,36.1,27,36,276,27.5,29,15,064,37.6*62
$GPRMC,182308.72,A,3718.912910,N,00555.954482,W,021.5,302.8,210221,,,A*48
$GPGGA,182309.72,3718.916178,N,00555.960822,W,1,,,98.02,M,0.0,M,0.0,0000*46
$GPGSV,2,1,8,10,12,149,31.5,16,55,322,43.2,18,58,060,33.7,20,29,119,31.9*44
$GPGSV,2,2,8,26,84,020,35.6,27,36,276,37.1,29,15,064,35.8,31,33,191,40.0*41
$GPRMC,182309.72,A,3718.916178,N,00555.960822,W,022.8,294.7,210221,,,A*45
$GPGGA,182310.73,3718.918786,N,00555.968353,W,1,,,98.06,M,0.0,M,0.0,0000*47
$GPGSV,2,1,7,16,55,322,38.9,18,58,060,31.5,23,23,120,29.9,26,84,020,35.1*42
$GPGSV,2,2,7,27,36,276,37.1,29,15,064,34.8,31,33,191,37.1*6A
$GPRMC,182310.73,A,3718.918786,N,00555.968353,W,022.5,291.5,210221,,,A*4A
$GPGGA,182311.72,3718.921113,N,00555.976041,W,1,,,97.86,M,0.0,M,0.0,0000*4F
$GPGSV,2,1,7,16,55,322,38.6,18,58,060,30.8,23,23,120,30.7,26,84,020,35.4*42
$GPGSV,2,2,7,27,36,276,36.0,29,15,064,32.2,31,33,191,35.8*6D
$GPRMC,182311.72,A,3718.921113,N,00555.976041,W,021.9,293.0,210221,,,A*4D
$GPGGA,182312.74,3718.923197,N,00555.983408,W,1,,,98.40,M,0.0,M,0.0,0000*42
$GPGSV,2,1,8,10,12,149,26.2,16,55,322,37.7,18,58,060,37.6,23,23,120,28.2*46
$GPGSV,2,2,8,26,84,020,36.8,27,36,276,39.4,29,15,064,38.2,31,33,191,38.3*4C
$GPRMC,182312.74,A,3718.923197,N,00555.983408,W,020.4,292.6,210221,,,A*4E
$GPGGA,182313.73,3718.925255,N,00555.989391,W,1,,,98.43,M,0.0,M,0.0,0000*41
$GPGSV,2,1,8,16,55,322,42.8,18,58,060,37.7,20,29,119,31.3,23,23,120,29.0*40
$GPGSV,2,2,8,26,84,020,38.2,27,36,276,42.3,29,15,064,34.0,31,33,191,37.4*45
$GPRMC,182313.73,A,3718.925255,N,00555.989391,W,018.8,299.0,210221,,,A*44
$GPGGA,182314.72,3718.928040,N,00555.994987,W,1,,,98.45,M,0.0,M,0.0,0000*4B
$GPGSV,2,1,7,10,12,149,30.8,16,55,322,45.8,18,58,060,37.3,26,84,020,38.6*47
$GPGSV,2,2,7,27,36,276,44.2,29,15,064,26.9,31,33,191,40.8*66
$GPRMC,182314.72,A,3718.928040,N,00555.994987,W,017.8,307.8,210221,,,A*49
$GPGGA,182315.73,3718.931359,N,00555.999785,W,1,,,97.71,M,0.0,M,0.0,0000*41
$GPGSV,2,1,7,16,55,322,46.4,18,58,060,37.7,20,29,119,36.4,26,84,020,36.8*48
$GPGSV,2,2,7,27,36,276,41.0,29,15,064,36.3,31,33,191,40.8*6A
$GPRMC,182315.73,A,3718.931359,N,00555.999785,W,018.6,316.5,210221,,,A*47
$GPGGA,182316.73,3718.935252,N,00556.004516,W,1,,,97.28,M,0.0,M,0.0,0000*46
$GPGSV,3,1,9,10,12,149,30.6,16,55,322,45.8,18,58,060,33.7,20,29,119,36.9*4D
$GPGSV,3,2,9,23,23,120,37.7,26,84,020,34.3,27,36,276,39.2,29,15,064,32.6*4E
$GPGSV,3,3,9,31,33,191,35.5*66
$GPRMC,182316.73,A,3718.935252,N,00556.004516,W,019.6,325.8,210221,,,A*40
$GPGGA,182317.74,3718.939806,N,00556.008396,W,1,,,97.33,M,0.0,M,0.0,0000*4F
$GPGSV,2,1,8,10,12,149,30.1,16,55,322,45.2,18,58,060,32.4,20,29,119,38.6*43
$GPGSV,2,2,8,23,23,120,38.2,26,84,021,33.3,27,36,276,42.4,29,15,064,31.3*4E
$GPRMC,182317.74,A,3718.939806,N,00556.008396,W,020.8,324.9,210221,,,A*47
$GPGGA,182318.73,3718.944771,N,00556.012236,W,1,,,97.23,M,0.0,M,0.0,0000*43
$GPGSV,2,1,7,10,12,149,30.5,16,55,322,44.6,20,29,119,35.7,23,23,120,37.5*44
$GPGSV,2,2,7,26,84,021,32.8,27,36,276,41.2,29,15,064,32.5*6F
$GPRMC,182318.73,A,3718.944771,N,00556.012236,W,023.1,329.2,210221,,,A*46
$GPGGA,182319.72,3718.950203,N,00556.016450,W,1,,,97.32,M,0.0,M,0.0,0000*44
$GPGSV,2,1,7,10,12,149,28.2,16,55,322,44.6,18,58,060,30.7,20,29,119,37.0*4B
$GPGSV,2,2,7,23,23,120,35.0,26,84,021,31.2,27,36,276,40.0*69
$GPRMC,182319.72,A,3718.950203,N,00556.016450,W,023.5,328.7,210221,,,A*41
$GPGGA,182320.72,3718.955955,N,00556.020837,W,1,,,97.42,M,0.0,M,0.0,0000*4C
$GPGSV,3,1,9,10,12,149,25.8,16,55,322,45.8,18,58,060,35.3,20,29,119,37.8*45
$GPGSV,3,2,9,23,23,120,34.9,26,84,021,32.2,27,36,276,41.4,29,15,064,32.9*43
$GPGSV,3,3,9,31,33,191,30.3*65
$GPRMC,182320.72,A,3718.955955,N,00556.020837,W,024.6,330.1,210221,,,A*45
$GPGGA,182321.73,3718.961993,N,00556.025430,W,1,,,97.46,M,0.0,M,0.0,0000*4B
$GPGSV,3,1,9,10,12,149,29.8,16,55,322,45.6,18,58,060,33.3,20,29,119,38.2*44
$GPGSV,3,2,9,23,23,120,34.3,26,84,021,32.3,27,36,277,40.7,29,15,064,28.3*4A
$GPGSV,3,3,9,31,33,191,30.1*67
$GPRMC,182321.73,A,3718.961993,N,00556.025430,W,025.0,329.5,210221,,,A*4D
$GPGGA,182322.72,3718.968000,N,00556.029767,W,1,,,97.70,M,0.0,M,0.0,0000*4B
$GPGSV,2,1,8,10,12,149,27.0,16,55,322,43.9,18,58,060,28.7,20,29,119,35.9*43
$GPGSV,2,2,8,23,23,120,33.3,26,84,021,34.2,27,36,277,39.3,31,33,191,29.8*4C
$GPRMC,182322.72,A,3718.968000,N,00556.029767,W,025.5,329.8,210221,,,A*40
$GPGGA,182323.73,3718.974172,N,00556.034345,W,1,,,97.97,M,0.0,M,0.0,0000*43
$GPGSV,2,1,8,10,12,149,26.1,16,55,322,45.8,18,58,060,31.7,20,29,119,37.5*42
$GPGSV,2,2,8,23,23,120,34.2,26,84,021,34.5,27,36,277,39.4,29,15,064,26.9*42
$GPRMC,182323.73,A,3718.974172,N,00556.034345,W,026.0,330.9,210221,,,A*4E
$GPGGA,182324.72,3718.980357,N,00556.038919,W,1,,,98.09,M,0.0,M,0.0,0000*4C
$GPGSV,2,1,6,16,55,322,46.0,18,58,060,33.0,20,29,119,36.3,23,23,120,34.7*4D
$GPGSV,2,2,6,26,84,021,30.2,27,36,277,40.7*44
$GPRMC,182324.72,A,3718.980357,N,00556.038919,W,025.7,330.2,210221,,,A*46
$GPGGA,182325.73,3718.986719,N,00556.043416,W,1,,,98.19,M,0.0,M,0.0,0000*4B
$GPGSV,3,1,9,10,12,149,27.2,16,55,322,45.3,18,58,060,30.4,20,29,119,36.7*4A
$GPGSV,3,2,9,23,23,120,35.3,26,84,021,33.6,27,36,277,39.5,29,15,064,27.9*46
$GPGSV,3,3,9,31,33,191,27.0*60
$GPRMC,182325.73,A,3718.986719,N,00556.043416,W,025.6,330.2,210221,,,A*41
$GPGGA,182326.73,3718.993088,N,00556.047771,W,1,,,98.61,M,0.0,M,0.0,0000*4A
$GPGSV,3,1,9,10,12,149,28.7,16,55,322,44.5,18,58,060,31.0,20,29,119,36.8*4D
$GPGSV,3,2,9,23,23,120,34.4,26,84,021,32.6,27,36,277,40.3,29,15,064,28.2*4D
$GPGSV,3,3,9,31,33,191,28.6*69
$GPRMC,182326.73,A,3718.993088,N,00556.047771,W,025.9,329.9,210221,,,A*43
$GPGGA,182327.72,3718.999440,N,00556.052378,W,1,,,98.64,M,0.0,M,0.0,0000*4C
$GPGSV,3,1,9,10,12,149,28.4,16,55,322,44.5,18,58,060,36.1,20,29,119,38.6*48
$GPGSV,3,2,9,23,23,120,33.3,26,84,021,32.1,27,36,277,42.7,29,15,064,29.5*4A
$GPGSV,3,3,9,31,33,191,29.3*6D
$GPRMC,182327.72,A,3718.999440,N,00556.052378,W,026.7,330.2,210221,,,A*4E
$GPGGA,182328.74,3719.005800,N,00556.057593,W,1,,,98.44,M,0.0,M,0.0,0000*44
$GPGSV,3,1,9,10,12,149,26.2,16,55,322,43.6,18,58,060,35.7,20,29,119,38.8*4F
$GPGSV,3,2,9,23,23,120,34.5,26,84,021,30.9,27,36,277,42.4,29,15,064,29.7*40
$GPGSV,3,3,9,31,33,191,29.6*68
$GPRMC,182328.74,A,3719.005800,N,00556.057593,W,026.3,330.9,210221,,,A*4B
$GPGGA,182329.73,3719.012027,N,00556.062080,W,1,,,98.74,M,0.0,M,0.0,0000*4B
$GPGSV,3,1,9,10,12,149,28.5,16,55,322,44.5,18,58,060,35.6,20,29,119,39.4*4E
$GPGSV,3,2,9,23,23,120,33.4,26,84,021,28.9,27,36,277,41.4,29,15,064,31.2*40
$GPGSV,3,3,9,31,33,191,30.5*63
$GPRMC,182329.73,A,3719.012027,N,00556.062080,W,025.9,330.4,210221,,,A*43
$GPGGA,182330.74,3719.018178,N,00556.066684,W,1,,,99.61,M,0.0,M,0.0,0000*46
$GPGSV,3,1,9,10,12,149,29.1,16,55,322,43.9,18,58,060,35.8,20,29,119,39.5*4F
$GPGSV,3,2,9,23,23,120,33.6,26,84,021,32.3,27,36,277,41.2,29,15,064,29.4*4A
$GPGSV,3,3,9,31,33,191,31.8*6F
$GPRMC,182330.74,A,3719.018178,N,00556.066684,W,024.5,327.7,210221,,,A*43
$GPGGA,182331.74,3719.024080,N,00556.071111,W,1,,,99.88,M,0.0,M,0.0,0000*44
$GPGSV,3,1,9,10,12,149,27.9,16,55,322,44.1,18,58,060,36.6,20,29,119,40.1*41
$GPGSV,3,2,9,23,23,120,34.2,26,84,021,31.5,27,36,277,41.3,29,15,064,28.9*41
$GPGSV,3,3,9,31,33,191,30.9*6F
$GPRMC,182331.74,A,3719.024080,N,00556.071111,W,024.9,329.3,210221,,,A*40
$GPGGA,182332.75,3719.030046,N,00556.075581,W,1,,,100.26,M,0.0,M,0.0,0000*75
$GPGSV,3,1,9,10,12,149,29.7,16,55,322,44.7,18,58,060,35.4,20,29,119,39.5*4C
$GPGSV,3,2,9,23,23,120,34.7,26,84,021,33.4,27,36,277,40.3,29,15,064,29.5*4B
$GPGSV,3,3,9,31,33,191,28.3*6C
$GPRMC,182332.75,A,3719.030046,N,00556.075581,W,025.0,328.4,210221,,,A*4A
$GPGGA,182333.74,3719.036117,N,00556.080021,W,1,,,100.19,M,0.0,M,0.0,0000*7F
$GPGSV,2,1,8,10,12,149,29.6,16,55,322,43.9,18,58,060,33.5,20,29,119,39.0*46
$GPGSV,2,2,8,23,23,120,34.2,26,84,022,32.5,27,36,277,41.7,31,33,191,28.4*4E
$GPRMC,182333.74,A,3719.036117,N,00556.080021,W,025.4,330.4,210221,,,A*41
$GPGGA,182334.73,3719.042344,N,00556.084657,W,1,,,100.43,M,0.0,M,0.0,0000*74
$GPGSV,3,1,9,10,12,149,29.0,16,55,322,45.2,18,58,060,33.1,20,29,119,38.2*4A
$GPGSV,3,2,9,23,23,120,35.0,26,84,022,34.1,27,36,277,41.6,29,15,064,30.1*44
$GPGSV,3,3,9,31,33,191,28.2*6D
$GPRMC,182334.73,A,3719.042344,N,00556.084657,W,025.9,332.0,210221,,,A*4E
$GPGGA,182335.74,3719.048763,N,00556.088959,W,1,,,100.36,M,0.0,M,0.0,0000*76
$GPGSV,2,1,7,16,55,322,44.2,18,58,060,33.8,20,29,119,38.2,23,23,120,35.4*49
$GPGSV,2,2,7,26,84,022,32.6,27,36,277,41.9,29,15,064,30.3*6C
$GPRMC,182335.74,A,3719.048763,N,00556.088959,W,025.4,330.6,210221,,,A*47
$GPGGA,182336.74,3719.055228,N,00556.092946,W,1,,,100.16,M,0.0,M,0.0,0000*74
$GPGSV,2,1,7,16,55,322,45.5,18,58,060,34.5,20,29,119,38.5,23,23,120,35.8*4E
$GPGSV,2,2,7,26,84,022,31.5,27,36,277,41.5,29,15,064,29.9*62
$GPRMC,182336.74,A,3719.055228,N,00556.092946,W,025.0,329.1,210221,,,A*4C
$GPGGA,182337.73,3719.061254,N,00556.097354,W,1,,,99.86,M,0.0,M,0.0,0000*4A
$GPGSV,2,1,8,16,55,322,44.2,18,58,060,34.4,20,29,119,38.8,23,23,120,33.6*43
$GPGSV,2,2,8,26,84,022,33.1,27,36,277,41.5,29,15,064,30.4,31,33,191,30.9*41
$GPRMC,182337.73,A,3719.061254,N,00556.097354,W,025.4,330.4,210221,,,A*43
$GPGGA,182338.74,3719.067233,N,00556.101883,W,1,,,100.72,M,0.0,M,0.0,0000*70
$GPGSV,2,1,8,16,55,322,45.3,18,58,060,33.5,20,29,119,39.6,23,23,120,35.6*4C
$GPGSV,2,2,8,26,84,022,33.5,27,36,277,42.6,29,15,064,28.1,31,33,191,29.4*4C
$GPRMC,182338.74,A,3719.067233,N,00556.101883,W,024.7,329.7,210221,,,A*4A
$GPGGA,182339.73,3719.072959,N,00556.105969,W,1,,,101.25,M,0.0,M,0.0,0000*77
$GPGSV,3,1,9,10,12,149,28.1,16,55,322,45.6,18,58,060,39.8,20,29,119,38.5*4A
$GPGSV,3,2,9,23,23,120,35.2,26,84,022,30.2,27,36,277,42.4,29,15,064,26.6*40
$GPGSV,3,3,9,31,33,191,31.0*67
$GPRMC,182339.73,A,3719.072959,N,00556.105969,W,023.6,331.1,210221,,,A*47
$GPGGA,182340.75,3719.078142,N,00556.110196,W,1,,,102.28,M,0.0,M,0.0,0000*75
$GPGSV,2,1,8,16,55,322,45.9,18,58,060,35.3,20,29,119,37.9,23,23,120,36.6*44
$GPGSV,2,2,8,26,84,022,33.3,27,36,277,40.0,29,15,064,30.3,31,33,191,36.1*4E
$GPRMC,182340.75,A,3719.078142,N,00556.110196,W,023.1,328.8,210221,,,A*4D
$GPGGA,182341.74,3719.083249,N,00556.114399,W,1,,,103.00,M,0.0,M,0.0,0000*7B
$GPGSV,2,1,8,10,12,149,27.3,16,55,322,44.5,18,58,060,31.6,20,29,119,38.8*4E
$GPGSV,2,2,8,23,23,120,36.1,26,84,022,35.6,27,36,277,40.0,31,33,191,38.0*48
$GPRMC,182341.74,A,3719.083249,N,00556.114399,W,021.9,326.2,210221,,,A*46
$GPGGA,182342.73,3719.087950,N,00556.118722,W,1,,,102.87,M,0.0,M,0.0,0000*7E
$GPGSV,3,1,9,10,12,149,27.5,16,55,322,44.6,18,58,060,33.6,20,29,119,36.0*4F
$GPGSV,3,2,9,23,23,120,31.7,26,84,022,38.6,27,36,277,44.9,29,15,064,28.6*48
$GPGSV,3,3,9,31,33,191,39.1*6E
$GPRMC,182342.73,A,3719.087950,N,00556.118722,W,020.6,327.3,210221,,,A*43
$GPGGA,182343.74,3719.092233,N,00556.122584,W,1,,,103.00,M,0.0,M,0.0,0000*7B
$GPGSV,3,1,9,10,12,149,33.2,16,55,322,43.8,18,58,060,32.5,20,29,119,41.9*4F
$GPGSV,3,2,9,23,23,120,37.7,26,84,022,34.2,27,36,277,39.5,29,15,064,33.7*4B
$GPGSV,3,3,9,31,33,191,35.3*60
$GPRMC,182343.74,A,3719.092233,N,00556.122584,W,016.8,326.1,210221,,,A*40
$GPGGA,182344.74,3719.096207,N,00556.125717,W,1,,,102.95,M,0.0,M,0.0,0000*7D
$GPGSV,3,1,9,10,12,149,36.4,16,55,322,44.9,18,58,060,36.1,20,29,119,36.0*43
$GPGSV,3,2,9,23,23,120,36.6,26,84,022,27.2,27,36,277,42.4,29,15,064,29.7*4F
$GPGSV,3,3,9,31,33,191,38.1*6F
$GPRMC,182344.74,A,3719.096207,N,00556.125717,W,016.2,337.5,210221,,,A*45
$GPGGA,182345.73,3719.100275,N,00556.127825,W,1,,,102.88,M,0.0,M,0.0,0000*70
$GPGSV,3,1,9,10,12,149,33.3,16,55,322,44.9,18,58,060,34.1,20,29,119,35.0*40
$GPGSV,3,2,9,23,23,120,27.8,26,84,022,29.7,27,36,277,42.6,29,15,064,31.6*40
$GPGSV,3,3,9,31,33,191,32.9*6D
$GPRMC,182345.73,A,3719.100275,N,00556.127825,W,017.4,348.1,210221,,,A*4F
$GPGGA,182346.72,3719.105092,N,00556.129022,W,1,,,103.49,M,0.0,M,0.0,0000*71
$GPGSV,3,1,9,10,12,149,32.1,16,55,322,42.4,18,58,060,40.6,20,29,119,30.0*49
$GPGSV,3,2,9,23,23,120,38.9,26,84,022,39.1,27,36,277,42.2,29,15,064,38.5*46
$GPGSV,3,3,9,31,33,191,35.6*65
$GPRMC,182346.72,A,3719.105092,N,00556.129022,W,017.8,350.8,210221,,,A*4E
$GPGGA,182347.74,3719.110440,N,00556.129901,W,1,,,103.75,M,0.0,M,0.0,0000*7E
$GPGSV,3,1,9,10,12,149,33.6,16,55,322,43.9,18,58,060,35.4,20,29,119,27.2*47
$GPGSV,3,2,9,23,23,120,39.6,26,84,022,31.2,27,36,277,35.7,29,15,064,39.1*43
$GPGSV,3,3,9,31,33,191,35.9*6A
$GPRMC,182347.74,A,3719.110440,N,00556.129901,W,017.6,347.1,210221,,,A*4F
$GPGGA,182348.75,3719.115088,N,00556.131318,W,1,,,103.58,M,0.0,M,0.0,0000*71
$GPGSV,2,1,8,10,12,149,26.5,16,55,322,46.7,18,58,060,37.6,20,29,119,37.1*49
$GPGSV,2,2,8,23,23,120,40.3,26,84,022,38.5,27,36,277,29.3,29,15,064,39.9*47
$GPRMC,182348.75,A,3719.115088,N,00556.131318,W,018.7,341.4,210221,,,A*42
$GPGGA,182349.76,3719.120069,N,00556.133529,W,1,,,103.98,M,0.0,M,0.0,0000*70
$GPGSV,2,1,8,10,12,149,27.2,16,55,322,45.9,18,58,060,33.9,20,29,119,39.6*40
$GPGSV,2,2,8,23,23,120,37.8,26,84,022,36.7,27,36,277,42.2,29,15,064,32.0*4E
$GPRMC,182349.76,A,3719.120069,N,00556.133529,W,019.7,332.6,210221,,,A*48
$GPGGA,182350.75,3719.124882,N,00556.136861,W,1,,,103.93,M,0.0,M,0.0,0000*7D
$GPGSV,2,1,7,10,12,149,31.6,16,55,322,45.3,20,29,119,38.6,23,23,120,37.5*4E
$GPGSV,2,2,7,26,84,023,36.6,27,36,277,43.2,31,33,191,34.6*67
$GPRMC,182350.75,A,3719.124882,N,00556.136861,W,020.3,324.2,210221,,,A*43
$GPGGA,182351.75,3719.129670,N,00556.141094,W,1,,,103.80,M,0.0,M,0.0,0000*72
$GPGSV,2,1,8,10,12,149,29.7,16,55,322,44.9,18,58,060,38.0,20,29,119,38.8*47
$GPGSV,2,2,8,23,23,120,31.0,26,84,023,36.2,27,36,277,44.6,31,33,191,38.9*43
$GPRMC,182351.75,A,3719.129670,N,00556.141094,W,020.7,318.7,210221,,,A*40
$GPGGA,182352.76,3719.133959,N,00556.145999,W,1,,,104.44,M,0.0,M,0.0,0000*72
$GPGSV,2,1,8,10,12,149,29.3,16,55,322,43.7,18,58,060,38.0,20,29,119,37.9*44
$GPGSV,2,2,8,26,84,023,36.1,27,36,277,43.4,29,15,064,32.8,31,33,191,39.6*4E
$GPRMC,182352.76,A,3719.133959,N,00556.145999,W,021.2,317.0,210221,,,A*43
$GPGGA,182353.75,3719.138427,N,00556.151266,W,1,,,104.73,M,0.0,M,0.0,0000*75
$GPGSV,2,1,8,16,55,322,45.7,18,58,060,38.4,20,29,119,38.7,23,23,120,29.2*4B
$GPGSV,2,2,8,26,84,023,34.7,27,36,277,43.7,29,15,064,34.2,31,33,191,39.2*41
$GPRMC,182353.75,A,3719.138427,N,00556.151266,W,021.3,318.0,210221,,,A*4E
$GPGGA,182354.74,3719.142802,N,00556.156242,W,1,,,104.29,M,0.0,M,0.0,0000*7B
$GPGSV,3,1,9,10,12,149,27.8,16,55,322,45.6,18,58,060,38.3,20,29,119,37.1*4D
$GPGSV,3,2,9,23,23,120,33.8,26,84,023,35.9,27,36,277,45.5,29,15,064,31.6*43
$GPGSV,3,3,9,31,33,191,38.1*6F
$GPRMC,182354.74,A,3719.142802,N,00556.156242,W,022.0,321.3,210221,,,A*46
$GPGGA,182355.76,3719.147786,N,00556.161344,W,1,,,103.36,M,0.0,M,0.0,0000*74
$GPGSV,3,1,9,10,12,149,32.8,16,55,322,46.1,18,58,060,33.5,20,29,119,37.4*45
$GPGSV,3,2,9,23,23,120,34.9,26,84,023,30.0,27,36,277,42.2,29,15,064,31.0*4F
$GPGSV,3,3,9,31,33,191,37.1*60
$GPRMC,182355.76,A,3719.147786,N,00556.161344,W,022.5,326.7,210221,,,A*46
$GPGGA,182356.75,3719.153282,N,00556.165576,W,1,,,102.89,M,0.0,M,0.0,0000*76
$GPGSV,3,1,9,10,12,149,33.2,16,55,322,45.7,18,58,060,34.1,20,29,119,38.1*42
$GPGSV,3,2,9,23,23,120,36.5,26,84,023,32.0,27,36,277,41.7,29,15,064,27.8*4A
$GPGSV,3,3,9,31,33,191,36.3*63
$GPRMC,182356.75,A,3719.153282,N,00556.165576,W,022.1,325.1,210221,,,A*40
$GPGGA,182357.74,3719.158088,N,00556.170057,W,1,,,103.92,M,0.0,M,0.0,0000*7C
$GPGSV,3,1,9,10,12,149,32.4,16,55,322,44.5,18,58,060,35.7,20,29,119,37.4*4B
$GPGSV,3,2,9,23,23,120,34.7,26,84,023,34.0,27,36,277,42.0,29,15,064,27.7*47
$GPGSV,3,3,9,31,33,191,38.1*6F
$GPRMC,182357.74,A,3719.158088,N,00556.170057,W,022.6,324.5,210221,,,A*43
$GPGGA,182358.75,3719.163051,N,00556.175035,W,1,,,103.84,M,0.0,M,0.0,0000*78
$GPGSV,3,1,9,10,12,149,33.6,16,55,322,42.5,18,58,060,36.0,20,29,119,37.6*48
$GPGSV,3,2,9,23,23,120,34.9,26,84,023,30.3,27,36,277,44.8,29,15,064,26.0*46
$GPGSV,3,3,9,31,33,191,41.4*64
$GPRMC,182358.75,A,3719.163051,N,00556.175035,W,023.7,325.4,210221,,,A*40
$GPGGA,182359.74,3719.168269,N,00556.179843,W,1,,,104.55,M,0.0,M,0.0,0000*74
$GPGSV,3,1,9,10,12,149,32.0,16,55,322,43.4,18,58,060,37.2,20,29,119,36.5*4E
$GPGSV,3,2,9,23,23,120,34.1,26,84,023,29.4,27,36,277,43.7,29,15,064,27.4*4C
$GPGSV,3,3,9,31,33,191,39.8*67
$GPRMC,182359.74,A,3719.168269,N,00556.179843,W,023.1,320.6,210221,,,A*46
$GPGGA,182400.76,3719.173483,N,00556.184858,W,1,,,104.65,M,0.0,M,0.0,0000*7E
$GPGSV,3,1,9,10,12,149,28.9,16,55,322,42.5,18,58,060,38.3,20,29,119,36.2*45
$GPGSV,3,2,9,23,23,120,33.4,26,84,023,28.3,27,36,277,45.3,29,15,064,28.1*40
$GPGSV,3,3,9,31,33,191,41.2*62
$GPRMC,182400.76,A,3719.173483,N,00556.184858,W,023.1,318.4,210221,,,A*46
$GPGGA,182401.75,3719.178083,N,00556.190265,W,1,,,105.13,M,0.0,M,0.0,0000*72
$GPGSV,3,1,9,10,12,149,30.3,16,55,322,43.4,18,58,060,38.7,20,29,119,34.8*4A
$GPGSV,3,2,9,23,23,120,32.5,26,84,023,28.2,27,36,277,44.5,29,15,064,34.3*49
$GPGSV,3,3,9,31,33,191,42.1*62
$GPRMC,182401.75,A,3719.178083,N,00556.190265,W,023.2,318.8,210221,,,A*45
$GPGGA,182402.74,3719.182339,N,00556.195835,W,1,,,107.15,M,0.0,M,0.0,0000*79
$GPGSV,3,1,9,10,12,149,29.7,16,55,322,43.5,18,58,060,37.7,20,29,119,37.0*43
$GPGSV,3,2,9,23,23,120,32.6,26,84,023,30.9,27,36,277,44.6,29,15,064,35.2*4B
$GPGSV,3,3,9,31,33,191,40.4*65
$GPRMC,182402.74,A,3719.182339,N,00556.195835,W,022.9,317.5,210221,,,A*42
$GPGGA,182403.76,3719.187035,N,00556.201421,W,1,,,106.91,M,0.0,M,0.0,0000*7A
$GPGSV,3,1,9,10,12,149,26.7,16,55,322,42.9,18,58,060,34.5,20,29,119,38.7*48
$GPGSV,3,2,9,23,23,120,34.3,26,84,023,31.1,27,36,277,43.3,29,15,064,34.5*45
$GPGSV,3,3,9,31,33,191,37.7*66
$GPRMC,182403.76,A,3719.187035,N,00556.201421,W,023.6,316.3,210221,,,A*45
$GPGGA,182404.75,3719.191698,N,00556.207083,W,1,,,107.69,M,0.0,M,0.0,0000*74
$GPGSV,2,1,7,16,55,322,42.3,18,58,060,28.9,20,29,119,37.1,23,23,120,33.9*42
$GPGSV,2,2,7,26,84,023,31.4,27,36,277,41.8,29,15,064,30.9*67
$GPRMC,182404.75,A,3719.191698,N,00556.207083,W,023.7,312.4,210221,,,A*4F
$GPGGA,182405.76,3719.196151,N,00556.213418,W,1,,,108.34,M,0.0,M,0.0,0000*77
$GPGSV,2,1,8,10,12,149,28.5,16,55,322,42.8,18,58,060,34.9,20,29,119,34.1*43
$GPGSV,2,2,8,26,84,023,32.1,27,36,277,39.7,29,15,064,32.1,31,33,191,34.9*4F
$GPRMC,182405.76,A,3719.196151,N,00556.213418,W,024.1,310.6,210221,,,A*4A
$GPGGA,182406.75,3719.200403,N,00556.220127,W,1,,,108.87,M,0.0,M,0.0,0000*78
$GPGSV,2,1,8,10,12,149,31.4,16,55,322,41.4,18,58,060,39.7,20,29,119,36.5*40
$GPGSV,2,2,8,23,23,120,31.6,27,36,277,40.1,29,15,064,27.5,31,32,191,38.3*4E
$GPRMC,182406.75,A,3719.200403,N,00556.220127,W,023.7,309.6,210221,,,A*44
$GPGGA,182407.75,3719.203863,N,00556.227089,W,1,,,110.81,M,0.0,M,0.0,0000*7D
$GPGSV,3,1,9,10,12,149,28.8,16,55,322,42.2,18,58,060,37.4,20,29,119,35.5*4F
$GPGSV,3,2,9,23,23,120,26.2,26,84,024,29.0,27,36,277,40.9,29,15,064,30.9*49
$GPGSV,3,3,9,31,32,191,36.7*66
$GPRMC,182407.75,A,3719.203863,N,00556.227089,W,024.3,309.7,210221,,,A*4C
$GPGGA,182408.76,3719.208227,N,00556.233836,W,1,,,110.53,M,0.0,M,0.0,0000*76
$GPGSV,3,1,9,10,12,149,32.1,16,55,322,43.0,18,58,060,35.8,20,29,119,33.4*47
$GPGSV,3,2,9,23,23,120,31.1,26,84,024,30.9,27,36,277,40.2,29,15,064,36.2*4B
$GPGSV,3,3,9,31,32,191,36.8*69
$GPRMC,182408.76,A,3719.208227,N,00556.233836,W,025.1,308.2,210221,,,A*4F
$GPGGA,182409.75,3719.212458,N,00556.240765,W,1,,,111.50,M,0.0,M,0.0,0000*7E
$GPGSV,2,1,8,10,12,149,34.5,16,55,322,45.0,18,58,060,33.3,20,29,119,34.8*45
$GPGSV,2,2,8,23,23,120,27.6,26,84,024,35.1,27,36,277,38.5,29,15,064,32.3*4B
$GPRMC,182409.75,A,3719.212458,N,00556.240765,W,024.7,305.1,210221,,,A*4C
$GPGGA,182410.76,3719.216637,N,00556.247750,W,1,,,111.60,M,0.0,M,0.0,0000*78
$GPGSV,2,1,7,10,12,149,36.0,16,55,322,45.9,18,58,060,31.3,20,29,119,36.2*4E
$GPGSV,2,2,7,26,84,024,36.0,27,36,277,33.2,29,15,064,35.2*62
$GPRMC,182410.76,A,3719.216637,N,00556.247750,W,025.4,303.6,210221,,,A*4A
$GPGGA,182411.76,3719.220330,N,00556.254975,W,1,,,112.17,M,0.0,M,0.0,0000*76
$GPGSV,3,1,9,10,12,149,35.4,16,55,322,45.7,18,58,060,28.5,20,29,119,30.2*40
