$GPGGA,182102.66,3718.280417,N,00555.530800,W,1,06,1.30,93.59,M,0.0,M,0.0,0000*54
$GPGSV,2,1,6,16,54,321,40.7,18,59,062,35.7,26,83,013,39.6,27,35,275,38.4*44
$GPGSV,2,2,6,29,16,063,42.2,31,34,191,37.8*42
$GPRMC,182102.66,A,3718.280417,N,00555.530800,W,000.1,,210221,,,A*67
$GPGGA,182103.66,3718.280406,N,00555.527394,W,1,09,1.05,98.49,M,0.0,M,0.0,0000*56
$GPGSV,3,1,9,10,11,150,27.2,16,54,321,37.8,18,59,062,36.1,20,28,120,33.8*4C
$GPGSV,3,2,9,23,22,121,31.2,26,83,013,35.6,27,35,275,38.0,29,16,063,38.6*43
$GPGSV,3,3,9,31,34,191,36.6*61
$GPRMC,182103.66,A,3718.280406,N,00555.527394,W,001.1,023.9,210221,,,A*41
$GPGGA,182104.65,3718.285092,N,00555.527345,W,1,08,1.10,98.06,M,0.0,M,0.0,0000*5C
$GPGSV,2,1,8,10,11,150,34.6,16,54,321,32.0,20,28,120,31.8,23,22,121,33.1*42
$GPGSV,2,2,8,26,83,013,38.4,27,35,275,43.4,29,16,063,33.6,31,34,191,27.9*4C
$GPRMC,182104.65,A,3718.285092,N,00555.527345,W,000.2,,210221,,,A*61
$GPGGA,182105.66,3718.279024,N,00555.530870,W,1,06,1.59,56.37,M,0.0,M,0.0,0000*58
$GPGSV,2,1,6,16,54,321,33.3,20,28,120,28.5,23,22,121,26.7,26,83,013,33.7*47
$GPGSV,2,2,6,27,35,275,33.2,31,34,191,26.1*47
$GPRMC,182105.66,A,3718.279024,N,00555.530870,W,000.4,,210221,,,A*60
$GPGGA,182106.66,3718.274519,N,00555.527293,W,1,08,1.09,101.96,M,0.0,M,0.0,0000*6F
$GPGSV,2,1,8,16,54,321,40.8,18,59,062,34.1,20,28,120,31.0,23,22,121,30.5*43
$GPGSV,2,2,8,26,83,013,33.9,27,35,275,41.7,29,16,063,30.2,31,34,191,32.0*41
$GPRMC,182106.66,A,3718.274519,N,00555.527293,W,000.5,,210221,,,A*65
$GPGGA,182107.67,3718.273621,N,00555.533044,W,1,08,1.51,109.74,M,0.0,M,0.0,0000*64
$GPGSV,2,1,8,10,11,150,31.2,16,54,321,45.6,18,59,062,36.9,20,28,120,34.3*44
$GPGSV,2,2,8,23,22,121,34.3,26,83,013,37.4,27,35,275,39.8,31,34,191,36.1*42
$GPRMC,182107.67,A,3718.273621,N,00555.533044,W,000.2,,210221,,,A*60
$GPGGA,182108.64,3718.277928,N,00555.532644,W,1,08,1.10,95.48,M,0.0,M,0.0,0000*53
$GPGSV,2,1,8,10,11,150,26.8,16,54,321,45.6,20,28,120,35.5,23,22,121,31.0*43
$GPGSV,2,2,8,26,83,013,38.2,27,35,276,42.1,29,16,063,29.0,31,34,191,33.8*44
$GPRMC,182108.64,A,3718.277928,N,00555.532644,W,002.2,334.8,210221,,,A*49
$GPGGA,182109.66,3718.283965,N,00555.532646,W,1,09,1.05,87.77,M,0.0,M,0.0,0000*5A
$GPGSV,3,1,9,10,11,150,29.9,16,54,321,42.2,18,59,062,39.5,20,28,120,30.5*44
$GPGSV,3,2,9,23,22,121,37.3,26,83,014,37.7,27,35,276,43.9,29,16,063,28.6*47
$GPGSV,3,3,9,31,34,191,38.8*61
$GPRMC,182109.66,A,3718.283965,N,00555.532646,W,004.7,321.2,210221,,,A*47
$GPGGA,182110.65,3718.286102,N,00555.532782,W,1,08,1.09,91.60,M,0.0,M,0.0,0000*58
$GPGSV,2,1,8,16,54,321,43.8,18,59,062,41.0,20,28,120,33.6,23,22,121,31.8*4B
$GPGSV,2,2,8,26,83,014,36.7,27,35,276,44.8,29,16,063,31.9,31,34,191,30.8*44
$GPRMC,182110.65,A,3718.286102,N,00555.532782,W,005.3,298.5,210221,,,A*48
$GPGGA,182111.64,3718.290432,N,00555.531261,W,1,08,1.09,70.22,M,0.0,M,0.0,0000*5B
$GPGSV,2,1,8,16,54,321,44.7,18,59,062,34.9,20,28,120,34.6,23,22,121,30.6*40
$GPGSV,2,2,8,26,83,014,36.3,27,35,276,43.4,29,16,063,32.5,31,34,191,33.5*4A
$GPRMC,182111.64,A,3718.290432,N,00555.531261,W,007.9,306.0,210221,,,A*49
$GPGGA,182112.65,3718.288029,N,00555.534373,W,1,07,1.39,61.80,M,0.0,M,0.0,0000*5D
$GPGSV,2,1,7,16,54,321,44.0,18,59,062,38.8,20,28,120,35.6,23,22,121,29.3*49
$GPGSV,2,2,7,26,83,014,30.7,27,35,276,43.7,29,16,063,33.7*60
$GPRMC,182112.65,A,3718.288029,N,00555.534373,W,010.1,312.6,210221,,,A*46
$GPGGA,182113.65,3718.288428,N,00555.538852,W,1,09,1.05,84.46,M,0.0,M,0.0,0000*5D
$GPGSV,3,1,9,10,11,150,28.4,16,54,321,41.2,18,59,062,38.6,20,28,120,36.4*4E
$GPGSV,3,2,9,23,22,121,34.8,26,83,014,31.7,27,35,276,40.6,29,16,063,32.5*4D
$GPGSV,3,3,9,31,34,191,38.4*6D
$GPRMC,182113.65,A,3718.288428,N,00555.538852,W,010.3,314.0,210221,,,A*44
$GPGGA,182114.66,3718.289395,N,00555.541612,W,1,08,1.09,108.62,M,0.0,M,0.0,0000*63
$GPGSV,2,1,8,16,54,321,44.2,18,59,062,36.2,20,28,120,33.1,23,22,121,30.7*4D
$GPGSV,2,2,8,26,83,014,34.5,27,35,276,38.4,29,16,063,35.9,31,34,191,38.8*4F
$GPRMC,182114.66,A,3718.289395,N,00555.541612,W,012.4,326.1,210221,,,A*41
$GPGGA,182115.65,3718.293049,N,00555.542891,W,1,08,1.21,89.42,M,0.0,M,0.0,0000*5E
$GPGSV,2,1,8,10,11,150,30.1,16,54,321,46.0,18,59,062,29.8,20,28,120,39.9*4B
$GPGSV,2,2,8,23,22,121,33.3,26,83,014,35.2,27,35,276,42.1,29,16,063,34.9*4F
$GPRMC,182115.65,A,3718.293049,N,00555.542891,W,012.9,325.4,210221,,,A*47
$GPGGA,182116.64,3718.298736,N,00555.544686,W,1,06,1.47,94.22,M,0.0,M,0.0,0000*52
$GPGSV,2,1,6,16,54,321,47.6,20,28,120,40.6,23,22,121,33.7,26,83,014,30.1*4A
$GPGSV,2,2,6,27,35,276,43.0,29,16,063,35.9*4E
$GPRMC,182116.64,A,3718.298736,N,00555.544686,W,016.8,329.1,210221,,,A*43
$GPGGA,182117.66,3718.303482,N,00555.552773,W,1,06,1.47,91.30,M,0.0,M,0.0,0000*54
$GPGSV,2,1,6,16,54,321,48.0,20,28,120,39.6,23,22,121,34.6,26,83,014,32.7*4F
$GPGSV,2,2,6,27,35,276,40.7,29,16,063,36.1*41
$GPRMC,182117.66,A,3718.303482,N,00555.552773,W,018.7,330.3,210221,,,A*48
$GPGGA,182118.65,3718.309612,N,00555.550959,W,1,08,1.10,88.08,M,0.0,M,0.0,0000*52
$GPGSV,2,1,8,10,11,150,27.2,16,54,321,48.1,20,28,120,39.7,23,22,121,37.5*4F
$GPGSV,2,2,8,26,83,014,35.8,27,35,276,39.8,29,16,063,37.3,31,34,191,32.3*47
$GPRMC,182118.65,A,3718.309612,N,00555.550959,W,021.4,331.3,210221,,,A*49
$GPGGA,182119.66,3718.313176,N,00555.555067,W,1,08,1.10,90.59,M,0.0,M,0.0,0000*52
$GPGSV,2,1,8,10,11,150,26.8,16,54,321,47.3,20,28,120,39.4,23,22,121,38.1*41
$GPGSV,2,2,8,26,83,014,32.7,27,35,276,39.8,29,16,063,33.6,31,34,191,29.6*41
$GPRMC,182119.66,A,3718.313176,N,00555.555067,W,022.6,327.4,210221,,,A*45
$GPGGA,182120.65,3718.323031,N,00555.555785,W,1,08,1.10,76.96,M,0.0,M,0.0,0000*5A
$GPGSV,2,1,8,10,11,150,26.1,16,54,321,46.3,20,28,120,39.0,23,22,121,38.9*45
$GPGSV,2,2,8,26,83,014,34.6,27,35,276,37.8,29,16,063,31.3,31,34,191,31.2*42
$GPRMC,182120.65,A,3718.323031,N,00555.555785,W,024.8,331.6,210221,,,A*4B
$GPGGA,182121.67,3718.323282,N,00555.566454,W,1,09,1.05,86.40,M,0.0,M,0.0,0000*5D
$GPGSV,3,1,9,10,11,150,27.7,16,54,321,46.3,18,59,061,33.7,20,28,120,39.6*40
$GPGSV,3,2,9,23,22,121,38.1,26,83,014,34.0,27,35,276,39.5,29,16,063,36.4*42
$GPGSV,3,3,9,31,34,191,30.5*64
$GPRMC,182121.67,A,3718.323282,N,00555.566454,W,024.2,329.1,210221,,,A*49
$GPGGA,182122.66,3718.326812,N,00555.569288,W,1,09,1.05,92.07,M,0.0,M,0.0,0000*57
$GPGSV,3,1,9,10,11,150,31.4,16,54,321,45.9,18,59,061,30.8,20,28,120,39.4*43
$GPGSV,3,2,9,23,22,121,36.5,26,83,014,37.4,27,35,276,40.6,29,16,063,36.0*46
$GPGSV,3,3,9,31,34,191,33.2*60
$GPRMC,182122.66,A,3718.326812,N,00555.569288,W,024.9,329.3,210221,,,A*4C
$GPGGA,182123.65,3718.334866,N,00555.574324,W,1,08,1.09,81.34,M,0.0,M,0.0,0000*51
$GPGSV,2,1,8,16,54,321,45.7,18,59,061,30.3,20,28,120,38.4,23,22,121,36.4*46
$GPGSV,2,2,8,26,83,014,37.7,27,35,276,41.0,29,16,063,37.0,31,34,191,33.7*4B
$GPRMC,182123.65,A,3718.334866,N,00555.574324,W,026.0,329.1,210221,,,A*4C
$GPGGA,182124.66,3718.341745,N,00555.578624,W,1,09,1.05,88.47,M,0.0,M,0.0,0000*50
$GPGSV,3,1,9,10,11,150,26.8,16,54,321,45.7,18,59,061,30.4,20,28,120,38.5*4B
$GPGSV,3,2,9,23,22,121,36.9,26,83,014,37.5,27,35,276,40.5,29,16,063,35.0*4B
$GPGSV,3,3,9,31,34,191,33.9*6B
$GPRMC,182124.66,A,3718.341745,N,00555.578624,W,026.1,328.6,210221,,,A*4A
$GPGGA,182125.65,3718.345419,N,00555.582181,W,1,09,1.05,85.82,M,0.0,M,0.0,0000*55
$GPGSV,3,1,9,10,11,150,28.6,16,54,321,46.2,18,59,061,29.9,20,28,120,38.9*44
$GPGSV,3,2,9,23,22,121,35.8,26,83,014,36.7,27,35,276,40.7,29,16,063,31.4*48
$GPGSV,3,3,9,31,34,191,32.4*67
$GPRMC,182125.65,A,3718.345419,N,00555.582181,W,027.1,329.7,210221,,,A*4A
$GPGGA,182126.65,3718.353691,N,00555.587543,W,1,09,1.05,82.25,M,0.0,M,0.0,0000*56
$GPGSV,3,1,9,10,11,150,28.3,16,54,321,46.7,18,59,061,29.2,20,28,120,39.5*42
$GPGSV,3,2,9,23,22,121,36.8,26,83,014,35.4,27,35,276,39.4,29,16,063,36.1*44
$GPGSV,3,3,9,31,34,191,32.6*65
$GPRMC,182126.65,A,3718.353691,N,00555.587543,W,027.4,330.5,210221,,,A*4C
$GPGGA,182127.66,3718.358994,N,00555.591639,W,1,08,1.09,92.79,M,0.0,M,0.0,0000*59
$GPGSV,2,1,8,16,54,321,46.7,18,59,061,30.7,20,28,120,38.9,23,22,121,36.4*4C
$GPGSV,2,2,8,26,83,014,34.3,27,35,276,40.2,29,16,063,32.0,31,34,191,31.9*46
$GPRMC,182127.66,A,3718.358994,N,00555.591639,W,028.0,330.2,210221,,,A*4A
$GPGGA,182128.65,3718.366542,N,00555.597324,W,1,07,1.40,80.04,M,0.0,M,0.0,0000*5B
$GPGSV,2,1,7,16,54,321,47.0,18,59,061,28.9,20,28,120,38.7,23,22,121,37.0*49
$GPGSV,2,2,7,26,83,014,34.6,27,35,276,40.3,29,16,063,34.4*66
$GPRMC,182128.65,A,3718.366542,N,00555.597324,W,027.6,329.8,210221,,,A*48
$GPGGA,182129.67,3718.370453,N,00555.603978,W,1,08,1.09,93.51,M,0.0,M,0.0,0000*53
$GPGSV,2,1,8,16,54,321,46.8,18,59,061,27.7,20,28,120,38.3,23,22,121,36.7*4C
$GPGSV,2,2,8,26,83,015,31.1,27,35,276,39.2,29,16,063,33.4,31,34,191,30.2*41
$GPRMC,182129.67,A,3718.370453,N,00555.603978,W,027.6,330.0,210221,,,A*40
$GPGGA,182130.66,3718.374400,N,00555.605068,W,1,08,1.09,108.20,M,0.0,M,0.0,0000*63
$GPGSV,2,1,8,16,54,321,47.4,18,59,061,30.6,20,28,120,39.5,23,22,121,38.4*4C
$GPGSV,2,2,8,26,83,015,32.1,27,35,276,39.8,29,16,063,27.2,31,34,191,31.0*48
$GPRMC,182130.66,A,3718.374400,N,00555.605068,W,027.8,330.5,210221,,,A*4E
$GPGGA,182131.65,3718.386806,N,00555.608405,W,1,08,1.09,77.76,M,0.0,M,0.0,0000*5E
$GPGSV,2,1,8,16,54,321,47.8,18,59,061,29.3,20,28,120,38.1,23,22,121,37.5*46
$GPGSV,2,2,8,26,83,015,33.3,27,35,276,40.2,29,16,063,28.1,31,34,191,29.7*4D
$GPRMC,182131.65,A,3718.386806,N,00555.608405,W,027.5,330.3,210221,,,A*42
$GPGGA,182132.66,3718.392547,N,00555.615077,W,1,08,1.21,77.23,M,0.0,M,0.0,0000*54
$GPGSV,2,1,8,10,11,150,30.5,16,54,321,47.5,18,59,061,28.8,20,28,120,39.1*41
$GPGSV,2,2,8,23,22,121,37.6,26,83,015,34.5,27,35,276,42.1,29,16,063,33.6*41
$GPRMC,182132.66,A,3718.392547,N,00555.615077,W,027.9,330.4,210221,,,A*49
$GPGGA,182133.66,3718.399150,N,00555.618239,W,1,09,1.05,90.26,M,0.0,M,0.0,0000*52
$GPGSV,3,1,9,10,11,150,30.2,16,54,321,46.4,18,59,061,31.4,20,28,120,40.5*48
$GPGSV,3,2,9,23,22,121,38.3,26,83,015,34.0,27,35,276,37.4,29,16,063,34.1*49
$GPGSV,3,3,9,31,34,191,30.3*62
$GPRMC,182133.66,A,3718.399150,N,00555.618239,W,027.6,330.1,210221,,,A*4E
$GPGGA,182134.67,3718.412259,N,00555.619292,W,1,08,1.51,76.36,M,0.0,M,0.0,0000*53
$GPGSV,2,1,8,10,11,150,30.9,16,54,321,46.8,18,59,061,32.4,20,28,120,39.3*44
$GPGSV,2,2,8,23,22,121,37.2,26,83,015,29.7,27,35,276,31.4,31,34,191,28.7*44
$GPRMC,182134.67,A,3718.412259,N,00555.619292,W,027.1,330.8,210221,,,A*48
$GPGGA,182135.66,3718.414613,N,00555.623456,W,1,09,1.05,88.81,M,0.0,M,0.0,0000*55
$GPGSV,3,1,9,10,11,150,34.6,16,54,321,47.5,18,59,061,30.6,20,29,120,40.6*49
$GPGSV,3,2,9,23,22,121,39.0,26,83,015,35.3,27,35,276,35.4,29,16,063,30.3*4D
$GPGSV,3,3,9,31,34,191,29.8*61
$GPRMC,182135.66,A,3718.414613,N,00555.623456,W,026.0,329.8,210221,,,A*4B
$GPGGA,182136.65,3718.417774,N,00555.635081,W,1,08,1.21,80.44,M,0.0,M,0.0,0000*59
$GPGSV,2,1,8,10,11,150,33.9,16,54,321,47.5,18,59,061,26.6,20,29,120,39.7*49
$GPGSV,2,2,8,23,22,121,39.4,26,83,015,29.7,27,35,276,35.9,29,16,063,30.2*4C
$GPRMC,182136.65,A,3718.417774,N,00555.635081,W,026.1,329.9,210221,,,A*41
$GPGGA,182137.67,3718.418250,N,00555.641320,W,1,08,1.21,96.41,M,0.0,M,0.0,0000*5F
$GPGSV,2,1,8,10,11,150,32.1,16,54,321,48.5,18,59,061,30.1,20,29,120,41.8*4F
$GPGSV,2,2,8,23,22,121,41.6,26,83,015,37.2,27,35,276,43.0,29,16,063,32.9*4A
$GPRMC,182137.67,A,3718.418250,N,00555.641320,W,025.9,330.6,210221,,,A*49
$GPGGA,182138.66,3718.433520,N,00555.639251,W,1,08,1.21,83.39,M,0.0,M,0.0,0000*5B
$GPGSV,2,1,8,10,11,150,34.4,16,54,321,48.0,18,59,061,28.9,20,29,120,42.0*43
$GPGSV,2,2,8,23,22,121,42.8,26,83,015,38.6,27,35,276,41.4,29,16,063,26.4*42
$GPRMC,182138.66,A,3718.433520,N,00555.639251,W,026.0,330.2,210221,,,A*48
$GPGGA,182139.67,3718.434339,N,00555.648073,W,1,09,1.05,92.49,M,0.0,M,0.0,0000*56
$GPGSV,3,1,9,10,11,150,34.9,16,54,321,47.7,18,58,061,31.7,20,29,120,41.9*4B
$GPGSV,3,2,9,23,22,121,42.6,26,83,015,37.8,27,35,276,41.9,29,16,063,27.6*43
$GPGSV,3,3,9,31,34,191,27.2*65
$GPRMC,182139.67,A,3718.434339,N,00555.648073,W,025.0,327.9,210221,,,A*4B
$GPGGA,182140.66,3718.441925,N,00555.646646,W,1,08,1.21,100.22,M,0.0,M,0.0,0000*62
$GPGSV,2,1,8,10,11,150,28.7,16,54,321,46.9,18,58,061,30.9,20,29,120,38.5*4A
$GPGSV,2,2,8,23,22,121,41.0,26,83,015,37.1,27,35,276,44.8,29,16,063,29.2*41
$GPRMC,182140.66,A,3718.441925,N,00555.646646,W,025.5,330.5,210221,,,A*40
$GPGGA,182141.65,3718.450559,N,00555.655361,W,1,08,1.21,87.57,M,0.0,M,0.0,0000*59
$GPGSV,2,1,8,10,11,150,34.7,16,54,321,47.4,18,58,061,27.5,20,29,120,39.8*4D
$GPGSV,2,2,8,23,22,121,40.9,26,83,015,38.2,27,35,276,41.4,29,16,063,26.5*44
$GPRMC,182141.65,A,3718.450559,N,00555.655361,W,025.1,331.0,210221,,,A*47
$GPGGA,182142.67,3718.451044,N,00555.657973,W,1,07,1.26,102.98,M,0.0,M,0.0,0000*6C
$GPGSV,2,1,7,10,11,150,33.9,16,54,321,47.4,20,29,120,40.8,23,22,121,40.7*46
$GPGSV,2,2,7,26,83,015,36.2,27,35,276,41.7,29,16,063,31.7*62
$GPRMC,182142.67,A,3718.451044,N,00555.657973,W,024.8,330.2,210221,,,A*4E
$GPGGA,182143.68,3718.459495,N,00555.662838,W,1,08,1.10,100.09,M,0.0,M,0.0,0000*6A
$GPGSV,2,1,8,10,11,150,33.2,16,54,321,47.7,20,29,120,39.5,23,22,121,41.1*45
$GPGSV,2,2,8,26,83,015,37.3,27,35,276,42.0,29,16,063,34.9,31,34,191,29.1*4A
$GPRMC,182143.68,A,3718.459495,N,00555.662838,W,023.5,328.1,210221,,,A*48
$GPGGA,182144.67,3718.465330,N,00555.667265,W,1,07,1.26,98.38,M,0.0,M,0.0,0000*5A
$GPGSV,2,1,7,10,11,150,34.5,16,54,321,47.4,20,29,120,40.3,23,22,121,42.6*45
$GPGSV,2,2,7,26,83,015,38.2,27,35,276,42.9,29,16,063,36.3*62
$GPRMC,182144.67,A,3718.465330,N,00555.667265,W,022.9,329.8,210221,,,A*45
$GPGGA,182145.68,3718.464565,N,00555.674911,W,1,06,3.06,109.66,M,0.0,M,0.0,0000*6A
$GPGSV,2,1,6,10,11,150,34.5,16,54,321,47.2,20,29,120,40.2,23,22,121,41.5*43
$GPGSV,2,2,6,26,83,015,37.6,27,35,276,42.5*45
$GPRMC,182145.68,A,3718.464565,N,00555.674911,W,022.9,330.0,210221,,,A*46
$GPGGA,182146.67,3718.472380,N,00555.677954,W,1,08,1.21,109.19,M,0.0,M,0.0,0000*6F
$GPGSV,2,1,8,10,11,150,32.2,16,54,321,47.3,18,58,061,27.6,20,29,120,39.8*4A
$GPGSV,2,2,8,23,22,121,41.2,26,83,015,38.6,27,35,276,43.3,29,16,063,32.0*4F
$GPRMC,182146.67,A,3718.472380,N,00555.677954,W,022.7,332.8,210221,,,A*46
$GPGGA,182147.67,3718.481439,N,00555.678203,W,1,08,1.21,107.48,M,0.0,M,0.0,0000*6B
$GPGSV,2,1,8,10,11,150,35.1,16,54,321,46.8,18,58,061,30.1,20,29,120,39.2*4F
$GPGSV,2,2,8,23,22,121,41.1,26,83,015,38.0,27,35,276,43.5,29,16,063,35.3*48
$GPRMC,182147.67,A,3718.481439,N,00555.678203,W,022.6,329.2,210221,,,A*49
$GPGGA,182148.68,3718.490365,N,00555.683202,W,1,07,2.70,87.99,M,0.0,M,0.0,0000*5D
$GPGSV,2,1,7,10,11,150,34.9,16,54,321,45.6,18,58,061,34.7,20,29,120,39.8*4C
$GPGSV,2,2,7,23,22,121,40.1,26,83,016,37.0,27,35,276,42.3*6F
$GPRMC,182148.68,A,3718.490365,N,00555.683202,W,022.8,329.2,210221,,,A*4C
$GPGGA,182149.67,3718.492619,N,00555.690923,W,1,09,1.05,80.81,M,0.0,M,0.0,0000*54
$GPGSV,3,1,9,10,11,150,32.9,16,54,321,44.2,18,58,061,33.7,20,29,120,37.7*46
$GPGSV,3,2,9,23,22,121,35.7,26,83,016,38.6,27,35,276,42.1,29,16,063,34.7*48
$GPGSV,3,3,9,31,34,191,35.6*62
$GPRMC,182149.67,A,3718.492619,N,00555.690923,W,022.9,320.2,210221,,,A*4C
$GPGGA,182150.69,3718.495515,N,00555.690482,W,1,08,1.09,92.11,M,0.0,M,0.0,0000*5B
$GPGSV,2,1,8,16,54,321,42.2,18,58,061,39.2,20,29,120,35.0,23,22,121,32.6*43
$GPGSV,2,2,8,26,83,016,39.3,27,35,276,37.6,29,16,063,35.6,31,34,191,35.5*44
$GPRMC,182150.69,A,3718.495515,N,00555.690482,W,021.9,314.9,210221,,,A*4B
$GPGGA,182151.68,3718.501837,N,00555.699405,W,1,09,1.05,93.82,M,0.0,M,0.0,0000*5A
$GPGSV,3,1,9,10,11,150,28.0,16,54,321,42.1,18,58,061,36.5,20,29,120,38.8*46
$GPGSV,3,2,9,23,22,121,31.8,26,83,016,38.9,27,35,276,38.8,29,16,063,32.3*4A
$GPGSV,3,3,9,31,34,191,29.3*6A
$GPRMC,182151.68,A,3718.501837,N,00555.699405,W,020.7,311.4,210221,,,A*4B
$GPGGA,182152.67,3718.509600,N,00555.708414,W,1,09,1.05,102.40,M,0.0,M,0.0,0000*6A
$GPGSV,3,1,9,10,11,150,28.4,16,54,321,41.0,18,58,061,38.3,20,29,120,37.1*4E
$GPGSV,3,2,9,23,22,121,28.3,26,83,016,40.4,27,35,276,40.2,29,16,063,34.2*49
$GPGSV,3,3,9,31,34,191,28.8*60
$GPRMC,182152.67,A,3718.509600,N,00555.708414,W,019.4,310.0,210221,,,A*40
$GPGGA,182153.68,3718.512428,N,00555.712961,W,1,07,1.40,70.68,M,0.0,M,0.0,0000*53
$GPGSV,2,1,7,16,54,321,45.6,18,58,061,39.5,20,29,120,37.1,23,22,121,30.6*49
$GPGSV,2,2,7,26,83,016,39.9,27,35,276,35.7,29,16,063,39.1*68
$GPRMC,182153.68,A,3718.512428,N,00555.712961,W,018.3,316.2,210221,,,A*4A
$GPGGA,182154.68,3718.510460,N,00555.711855,W,1,07,1.24,109.83,M,0.0,M,0.0,0000*67
$GPGSV,2,1,7,10,11,150,33.0,16,54,321,47.9,18,58,061,35.4,20,29,120,39.3*46
$GPGSV,2,2,7,23,22,121,36.4,27,35,276,41.6,29,16,063,31.5*6F
$GPRMC,182154.68,A,3718.510460,N,00555.711855,W,017.4,334.6,210221,,,A*4A
$GPGGA,182155.69,3718.517456,N,00555.717159,W,1,09,1.05,79.47,M,0.0,M,0.0,0000*55
$GPGSV,3,1,9,10,11,150,36.6,16,54,321,41.3,18,58,061,31.3,20,29,120,34.4*4F
$GPGSV,3,2,9,23,22,121,38.7,26,83,016,32.1,27,35,276,40.5,29,16,063,30.6*4B
$GPGSV,3,3,9,31,33,191,33.2*67
$GPRMC,182155.69,A,3718.517456,N,00555.717159,W,019.2,352.1,210221,,,A*44
$GPGGA,182156.68,3718.527116,N,00555.713888,W,1,08,1.51,83.83,M,0.0,M,0.0,0000*59
$GPGSV,2,1,8,10,11,150,38.9,16,54,321,39.9,18,58,061,36.5,20,29,120,39.0*43
$GPGSV,2,2,8,23,22,121,41.3,26,83,016,33.3,27,35,276,36.0,31,33,191,34.8*4E
$GPRMC,182156.68,A,3718.527116,N,00555.713888,W,020.8,356.4,210221,,,A*44
$GPGGA,182157.67,3718.525408,N,00555.717203,W,1,08,1.51,113.27,M,0.0,M,0.0,0000*64
$GPGSV,2,1,8,10,11,150,34.7,16,54,321,42.1,18,58,061,36.1,20,29,120,42.6*4B
$GPGSV,2,2,8,23,22,121,42.7,26,83,016,36.9,27,35,276,40.1,31,33,191,29.9*4B
$GPRMC,182157.67,A,3718.525408,N,00555.717203,W,021.4,354.7,210221,,,A*43
$GPGGA,182158.69,3718.532129,N,00555.724588,W,1,09,1.05,76.62,M,0.0,M,0.0,0000*52
$GPGSV,3,1,9,10,11,150,35.4,16,54,321,44.8,18,58,061,36.5,20,29,120,41.0*47
$GPGSV,3,2,9,23,22,121,42.5,26,83,016,38.3,27,35,276,29.2,29,16,063,40.1*44
$GPGSV,3,3,9,31,33,191,32.5*61
$GPRMC,182158.69,A,3718.532129,N,00555.724588,W,021.6,345.3,210221,,,A*40
$GPGGA,182159.68,3718.538737,N,00555.723744,W,1,08,1.09,91.41,M,0.0,M,0.0,0000*51
$GPGSV,2,1,8,16,54,321,47.8,18,58,061,34.5,20,29,120,43.4,23,22,121,39.5*4B
$GPGSV,2,2,8,26,83,016,40.0,27,35,276,38.6,29,16,063,31.8,31,33,191,29.8*4B
$GPRMC,182159.68,A,3718.538737,N,00555.723744,W,021.6,333.8,210221,,,A*4C
$GPGGA,182200.67,3718.547999,N,00555.723337,W,1,09,1.05,92.01,M,0.0,M,0.0,0000*59
$GPGSV,3,1,9,10,11,150,29.0,16,54,321,44.0,18,58,061,28.3,20,29,120,39.6*46
$GPGSV,3,2,9,23,22,121,39.0,26,83,016,39.2,27,35,276,43.1,29,16,063,28.1*4C
$GPGSV,3,3,9,31,33,191,33.1*64
$GPRMC,182200.67,A,3718.547999,N,00555.723337,W,021.4,323.5,210221,,,A*40
$GPGGA,182201.67,3718.548666,N,00555.742922,W,1,07,1.40,37.90,M,0.0,M,0.0,0000*59
$GPGSV,2,1,7,16,54,321,43.0,18,58,061,36.0,20,29,120,36.1,23,22,121,33.8*4F
$GPGSV,2,2,7,26,83,016,37.9,27,35,276,29.1,29,16,063,29.9*64
$GPRMC,182201.67,A,3718.548666,N,00555.742922,W,020.8,314.4,210221,,,A*40
$GPGGA,182202.68,3718.559015,N,00555.729633,W,1,09,1.05,85.99,M,0.0,M,0.0,0000*5A
$GPGSV,3,1,9,10,11,150,30.8,16,54,321,42.4,18,58,061,36.1,20,29,120,39.9*46
$GPGSV,3,2,9,23,22,121,32.5,26,83,016,36.5,27,35,276,29.2,29,16,063,27.2*49
$GPGSV,3,3,9,31,33,191,34.6*64
$GPRMC,182202.68,A,3718.559015,N,00555.729633,W,021.3,306.5,210221,,,A*44
$GPGGA,182203.67,3718.555280,N,00555.744737,W,1,08,1.09,93.47,M,0.0,M,0.0,0000*51
$GPGSV,2,1,8,16,54,321,46.1,18,58,061,39.8,20,29,120,35.6,23,22,121,29.3*47
$GPGSV,2,2,8,26,83,016,38.6,27,35,276,35.4,29,16,063,31.7,31,33,191,34.2*44
$GPRMC,182203.67,A,3718.555280,N,00555.744737,W,020.9,316.1,210221,,,A*48
$GPGGA,182204.68,3718.557181,N,00555.747870,W,1,08,1.21,104.12,M,0.0,M,0.0,0000*63
$GPGSV,2,1,8,10,11,150,35.9,16,54,321,48.2,18,58,061,35.6,20,29,120,38.5*47
$GPGSV,2,2,8,23,22,121,38.4,26,83,016,37.8,27,35,276,39.6,29,16,063,32.8*45
$GPRMC,182204.68,A,3718.557181,N,00555.747870,W,021.4,328.8,210221,,,A*47
$GPGGA,182205.68,3718.562330,N,00555.750463,W,1,09,1.05,97.79,M,0.0,M,0.0,0000*55
$GPGSV,3,1,9,10,11,150,29.9,16,54,321,45.3,18,58,061,40.3,20,29,120,39.7*42
$GPGSV,3,2,9,23,22,121,39.3,26,83,016,33.9,27,35,276,38.7,29,15,063,38.1*46
$GPGSV,3,3,9,31,33,191,38.3*6D
$GPRMC,182205.68,A,3718.562330,N,00555.750463,W,022.4,341.5,210221,,,A*41
$GPGGA,182206.67,3718.579263,N,00555.747356,W,1,09,1.05,89.08,M,0.0,M,0.0,0000*5A
$GPGSV,3,1,9,10,11,149,29.5,16,54,321,48.5,18,58,061,34.5,20,29,120,38.0*4E
$GPGSV,3,2,9,23,22,121,40.0,26,83,016,37.5,27,35,276,27.9,29,15,063,37.2*4F
$GPGSV,3,3,9,31,33,191,31.9*6E
$GPRMC,182206.67,A,3718.579263,N,00555.747356,W,023.1,343.7,210221,,,A*43
$GPGGA,182207.68,3718.578429,N,00555.753986,W,1,08,1.09,81.81,M,0.0,M,0.0,0000*5B
$GPGSV,2,1,8,16,54,321,48.3,18,58,061,29.4,20,29,120,40.7,23,22,121,38.4*42
$GPGSV,2,2,8,26,83,017,37.9,27,35,276,35.0,29,15,063,32.4,31,33,191,36.7*45
$GPRMC,182207.68,A,3718.578429,N,00555.753986,W,025.0,338.2,210221,,,A*48
$GPGGA,182208.67,3718.593098,N,00555.756625,W,1,07,2.68,62.09,M,0.0,M,0.0,0000*55
$GPGSV,2,1,7,10,11,149,29.1,16,54,321,47.4,18,58,061,35.9,20,29,120,35.9*42
$GPGSV,2,2,7,23,22,121,34.7,26,83,017,35.6,27,35,276,41.1*6E
$GPRMC,182208.67,A,3718.593098,N,00555.756625,W,023.7,325.7,210221,,,A*48
$GPGGA,182209.68,3718.595125,N,00555.763454,W,1,08,1.21,88.83,M,0.0,M,0.0,0000*5F
$GPGSV,2,1,8,10,11,149,31.9,16,54,321,46.6,18,58,061,32.3,20,29,120,37.8*41
$GPGSV,2,2,8,23,22,121,39.2,26,83,017,37.3,27,35,276,43.1,29,15,063,32.8*41
$GPRMC,182209.68,A,3718.595125,N,00555.763454,W,027.3,331.8,210221,,,A*4F
$GPGGA,182210.68,3718.596043,N,00555.764677,W,1,08,1.10,106.65,M,0.0,M,0.0,0000*6C
$GPGSV,2,1,8,10,11,149,34.7,16,54,321,46.3,20,29,120,39.3,23,22,121,40.6*4A
$GPGSV,2,2,8,26,83,017,37.8,27,35,276,43.7,29,15,063,34.6,31,33,191,26.7*47
$GPRMC,182210.68,A,3718.596043,N,00555.764677,W,027.5,328.5,210221,,,A*42
$GPGGA,182211.67,3718.600210,N,00555.771858,W,1,09,1.05,110.69,M,0.0,M,0.0,0000*63
$GPGSV,3,1,9,10,11,149,33.3,16,54,321,46.4,18,58,061,29.2,20,29,120,38.2*45
$GPGSV,3,2,9,23,22,121,38.8,26,83,017,37.3,27,35,276,42.4,29,15,063,33.9*4E
$GPGSV,3,3,9,31,33,191,28.5*6A
$GPRMC,182211.67,A,3718.600210,N,00555.771858,W,028.6,329.5,210221,,,A*4E
$GPGGA,182212.68,3718.611129,N,00555.775723,W,1,09,1.05,104.31,M,0.0,M,0.0,0000*69
$GPGSV,3,1,9,10,11,149,33.9,16,54,321,46.7,18,58,061,30.3,20,29,120,39.2*44
$GPGSV,3,2,9,23,22,121,39.4,26,83,017,37.7,27,35,276,42.4,29,15,063,32.1*4E
$GPGSV,3,3,9,31,33,191,28.1*6E
$GPRMC,182212.68,A,3718.611129,N,00555.775723,W,029.3,330.3,210221,,,A*46
$GPGGA,182213.68,3718.617486,N,00555.781860,W,1,09,1.05,102.91,M,0.0,M,0.0,0000*61
$GPGSV,3,1,9,10,11,149,33.1,16,54,321,46.8,18,58,061,28.9,20,29,120,38.5*46
$GPGSV,3,2,9,23,22,121,38.8,26,83,017,38.1,27,35,276,43.1,29,15,063,31.0*4C
$GPGSV,3,3,9,31,33,191,28.6*69
$GPRMC,182213.68,A,3718.617486,N,00555.781860,W,029.4,329.8,210221,,,A*46
$GPGGA,182214.69,3718.632646,N,00555.784474,W,1,09,1.05,89.63,M,0.0,M,0.0,0000*5D
$GPGSV,3,1,9,10,11,149,33.4,16,54,321,46.6,18,58,061,28.6,20,29,120,40.1*49
$GPGSV,3,2,9,23,22,121,40.4,26,83,017,38.5,27,35,276,44.1,29,15,063,29.6*43
$GPGSV,3,3,9,31,33,191,26.9*68
$GPRMC,182214.69,A,3718.632646,N,00555.784474,W,030.0,329.5,210221,,,A*44
$GPGGA,182215.68,3718.629939,N,00555.793356,W,1,09,1.05,116.59,M,0.0,M,0.0,0000*6F
$GPGSV,3,1,9,10,11,149,33.6,16,54,321,46.5,18,58,061,31.1,20,29,120,38.3*4A
$GPGSV,3,2,9,23,22,121,39.3,26,83,017,38.6,27,35,276,43.3,29,15,063,31.8*4B
$GPGSV,3,3,9,31,33,191,27.6*66
$GPRMC,182215.68,A,3718.629939,N,00555.793356,W,030.3,330.3,210221,,,A*45
$GPGGA,182216.67,3718.643950,N,00555.798593,W,1,08,1.21,92.51,M,0.0,M,0.0,0000*56
$GPGSV,2,1,8,10,11,149,32.0,16,54,321,46.2,18,58,061,33.7,20,29,120,38.3*4E
$GPGSV,2,2,8,23,22,121,38.6,26,83,017,37.3,27,35,276,42.2,29,15,063,34.7*4F
$GPRMC,182216.67,A,3718.643950,N,00555.798593,W,030.1,330.1,210221,,,A*4E
$GPGGA,182217.69,3718.644194,N,00555.804108,W,1,09,1.05,106.68,M,0.0,M,0.0,0000*63
$GPGSV,3,1,9,10,11,149,32.2,16,54,321,46.0,18,58,061,34.1,20,29,119,38.9*4F
$GPGSV,3,2,9,23,22,121,38.8,26,83,017,37.9,27,35,276,41.5,29,15,063,29.2*46
$GPGSV,3,3,9,31,33,191,29.8*66
$GPRMC,182217.69,A,3718.644194,N,00555.804108,W,029.9,329.9,210221,,,A*4A
$GPGGA,182218.68,3718.655010,N,00555.808973,W,1,08,1.51,103.75,M,0.0,M,0.0,0000*61
$GPGSV,2,1,8,10,11,149,33.4,16,54,321,46.0,18,58,061,34.4,20,29,119,38.2*46
$GPGSV,2,2,8,23,22,121,38.5,26,83,017,37.7,27,35,276,41.4,31,33,191,26.7*4F
$GPRMC,182218.68,A,3718.655010,N,00555.808973,W,030.0,330.3,210221,,,A*42
$GPGGA,182219.69,3718.662278,N,00555.809962,W,1,08,1.51,100.12,M,0.0,M,0.0,0000*6A
$GPGSV,2,1,8,10,11,149,32.0,16,54,321,45.8,18,58,061,34.2,20,29,119,38.3*4F
$GPGSV,2,2,8,23,22,121,38.5,26,83,017,37.1,27,35,276,41.6,31,33,191,28.8*4A
$GPRMC,182219.69,A,3718.662278,N,00555.809962,W,029.7,329.1,210221,,,A*4E
$GPGGA,182220.69,3718.670788,N,00555.821820,W,1,09,1.05,96.06,M,0.0,M,0.0,0000*5F
$GPGSV,3,1,9,10,11,149,33.8,16,54,321,45.5,18,58,061,34.1,20,29,119,38.1*4A
$GPGSV,3,2,9,23,22,121,37.9,26,83,017,37.9,27,35,276,42.4,29,15,063,27.8*4E
$GPGSV,3,3,9,31,33,191,31.0*67
$GPRMC,182220.69,A,3718.670788,N,00555.821820,W,030.4,330.7,210221,,,A*45
$GPGGA,182221.68,3718.691969,N,00555.818870,W,1,08,1.51,64.33,M,0.0,M,0.0,0000*55
$GPGSV,2,1,8,10,11,149,32.8,16,54,321,46.0,18,58,061,33.8,20,29,119,38.5*47
$GPGSV,2,2,8,23,22,121,39.3,26,83,017,36.2,27,35,276,42.4,31,33,191,31.1*4F
$GPRMC,182221.68,A,3718.691969,N,00555.818870,W,030.2,330.1,210221,,,A*44
$GPGGA,182222.69,3718.680824,N,00555.828508,W,1,08,1.51,105.74,M,0.0,M,0.0,0000*6B
$GPGSV,2,1,8,10,11,149,29.3,16,54,321,46.5,18,58,061,35.7,20,29,119,36.6*47
$GPGSV,2,2,8,23,22,121,38.8,26,83,017,36.3,27,35,276,43.7,31,33,191,30.8*4E
$GPRMC,182222.69,A,3718.680824,N,00555.828508,W,029.9,329.7,210221,,,A*42
$GPGGA,182223.68,3718.688818,N,00555.837647,W,1,08,1.21,95.71,M,0.0,M,0.0,0000*50
$GPGSV,2,1,8,10,11,149,32.1,16,54,321,44.6,18,58,061,29.4,20,29,119,38.7*4F
$GPGSV,2,2,8,23,22,121,38.9,26,83,017,37.5,27,35,276,42.3,29,15,063,28.6*4B
$GPRMC,182223.68,A,3718.688818,N,00555.837647,W,029.9,329.4,210221,,,A*40
$GPGGA,182224.70,3718.711408,N,00555.833792,W,1,08,1.51,80.64,M,0.0,M,0.0,0000*58
$GPGSV,2,1,8,10,11,149,31.9,16,54,321,45.6,18,58,061,32.4,20,29,119,38.0*48
$GPGSV,2,2,8,23,22,121,39.8,26,83,017,36.8,27,35,276,43.0,31,33,191,26.5*49
$GPRMC,182224.70,A,3718.711408,N,00555.833792,W,030.2,329.1,210221,,,A*49
$GPGGA,182225.69,3718.712655,N,00555.843787,W,1,08,1.51,88.84,M,0.0,M,0.0,0000*5D
$GPGSV,2,1,8,10,11,149,33.5,16,54,321,45.6,18,58,061,33.3,20,29,119,38.6*46
$GPGSV,2,2,8,23,22,120,39.2,26,83,018,36.2,27,35,276,43.1,31,33,191,26.3*40
$GPRMC,182225.69,A,3718.712655,N,00555.843787,W,030.5,330.2,210221,,,A*46
$GPGGA,182226.68,3718.722444,N,00555.851143,W,1,08,1.51,69.57,M,0.0,M,0.0,0000*52
$GPGSV,2,1,8,10,11,149,32.4,16,54,321,44.7,18,58,061,31.6,20,29,119,36.3*4A
$GPGSV,2,2,8,23,22,120,37.2,26,83,018,36.8,27,35,276,40.6,31,33,191,28.8*45
$GPRMC,182226.68,A,3718.722444,N,00555.851143,W,028.6,327.5,210221,,,A*43
$GPGGA,182227.70,3718.725809,N,00555.853193,W,1,09,1.05,90.73,M,0.0,M,0.0,0000*57
$GPGSV,3,1,9,10,12,149,29.0,16,54,321,44.7,18,58,061,26.3,20,29,119,35.4*40
$GPGSV,3,2,9,23,22,120,36.4,26,83,018,33.4,27,35,276,39.8,29,15,064,30.3*4F
$GPGSV,3,3,9,31,33,191,30.4*62
$GPRMC,182227.70,A,3718.725809,N,00555.853193,W,029.5,329.7,210221,,,A*48
$GPGGA,182228.69,3718.744592,N,00555.855137,W,1,08,1.10,60.40,M,0.0,M,0.0,0000*5A
$GPGSV,2,1,8,10,12,149,28.9,16,54,321,44.7,20,29,119,33.4,23,22,120,35.3*4D
$GPGSV,2,2,8,26,83,018,33.0,27,35,276,40.0,29,15,064,27.7,31,33,191,30.5*41
$GPRMC,182228.69,A,3718.744592,N,00555.855137,W,029.3,329.9,210221,,,A*47
$GPGGA,182229.70,3718.734461,N,00555.859099,W,1,08,1.10,103.32,M,0.0,M,0.0,0000*61
$GPGSV,2,1,8,10,12,149,27.1,16,54,321,44.6,20,29,119,34.8,23,22,120,35.9*4A
$GPGSV,2,2,8,26,83,018,33.5,27,35,276,40.6,29,15,064,31.8,31,33,191,28.8*4E
$GPRMC,182229.70,A,3718.734461,N,00555.859099,W,029.2,330.0,210221,,,A*4D
$GPGGA,182230.69,3718.749389,N,00555.870549,W,1,06,1.49,91.74,M,0.0,M,0.0,0000*53
$GPGSV,2,1,6,16,54,321,45.1,20,29,119,34.6,23,22,120,35.5,26,83,018,34.7*4C
$GPGSV,2,2,6,27,35,276,41.6,29,15,064,25.8*4E
$GPRMC,182230.69,A,3718.749389,N,00555.870549,W,027.3,327.9,210221,,,A*45
$GPGGA,182231.68,3718.750199,N,00555.877243,W,1,09,1.05,88.98,M,0.0,M,0.0,0000*5F
$GPGSV,3,1,9,10,12,149,26.4,16,54,321,44.6,18,58,061,27.1,20,29,119,31.3*4A
$GPGSV,3,2,9,23,22,120,34.9,26,83,018,36.8,27,35,276,43.2,29,15,064,31.9*45
$GPGSV,3,3,9,31,33,191,27.1*61
$GPRMC,182231.68,A,3718.750199,N,00555.877243,W,028.8,329.6,210221,,,A*41
$GPGGA,182232.71,3718.758854,N,00555.885962,W,1,09,1.05,83.19,M,0.0,M,0.0,0000*53
$GPGSV,3,1,9,10,12,149,26.5,16,54,321,43.0,18,58,061,29.9,20,29,119,27.5*4D
$GPGSV,3,2,9,23,22,120,32.6,26,83,018,36.8,27,35,276,43.7,29,15,064,33.5*47
$GPGSV,3,3,9,31,33,191,27.1*61
$GPRMC,182232.71,A,3718.758854,N,00555.885962,W,028.7,330.6,210221,,,A*48
$GPGGA,182233.70,3718.758170,N,00555.884464,W,1,08,1.10,118.05,M,0.0,M,0.0,0000*6D
$GPGSV,2,1,8,16,54,322,41.7,18,58,061,28.1,20,29,119,26.7,23,22,120,33.4*48
$GPGSV,2,2,8,26,83,018,37.1,27,35,276,44.3,29,15,064,29.8,31,33,191,27.4*45
$GPRMC,182233.70,A,3718.758170,N,00555.884464,W,029.8,330.6,210221,,,A*43
$GPGGA,182234.70,3718.774131,N,00555.890925,W,1,09,1.05,73.80,M,0.0,M,0.0,0000*58
$GPGSV,3,1,9,10,12,149,27.9,16,54,322,42.9,18,58,061,29.3,20,29,119,28.0*4B
$GPGSV,3,2,9,23,22,120,34.4,26,83,018,37.2,27,35,276,44.1,29,15,064,32.2*4F
$GPGSV,3,3,9,31,33,191,28.4*6B
$GPRMC,182234.70,A,3718.774131,N,00555.890925,W,029.5,330.2,210221,,,A*4B
$GPGGA,182235.71,3718.778791,N,00555.897889,W,1,09,1.05,96.95,M,0.0,M,0.0,0000*57
$GPGSV,3,1,9,10,12,149,28.0,16,54,322,43.4,18,58,061,31.4,20,29,119,29.0*4E
$GPGSV,3,2,9,23,23,120,33.1,26,83,018,37.1,27,35,276,43.5,29,15,064,31.7*4A
$GPGSV,3,3,9,31,33,191,26.1*60
$GPRMC,182235.71,A,3718.778791,N,00555.897889,W,028.7,329.8,210221,,,A*4A
$GPGGA,182236.70,3718.784909,N,00555.903182,W,1,09,1.05,97.19,M,0.0,M,0.0,0000*52
$GPGSV,3,1,9,10,12,149,26.0,16,55,322,43.6,18,58,061,30.4,20,29,119,30.1*4B
$GPGSV,3,2,9,23,23,120,35.4,26,83,018,36.3,27,35,276,44.0,29,15,064,29.6*40
$GPGSV,3,3,9,31,33,191,27.8*68
$GPRMC,182236.70,A,3718.784909,N,00555.903182,W,028.5,330.2,210221,,,A*4A
$GPGGA,182237.70,3718.797384,N,00555.907251,W,1,09,1.05,91.36,M,0.0,M,0.0,0000*5C
$GPGSV,3,1,9,10,12,149,28.3,16,55,322,44.4,18,58,061,30.5,20,29,119,31.2*40
$GPGSV,3,2,9,23,23,120,35.7,26,83,018,36.6,27,35,276,43.7,29,15,064,33.6*4D
$GPGSV,3,3,9,31,33,191,28.3*6C
$GPRMC,182237.70,A,3718.797384,N,00555.907251,W,027.8,329.7,210221,,,A*40
$GPGGA,182238.71,3718.792368,N,00555.912793,W,1,08,1.21,90.23,M,0.0,M,0.0,0000*58
$GPGSV,2,1,8,10,12,149,28.1,16,55,322,43.7,18,58,061,34.2,20,29,119,29.8*46
$GPGSV,2,2,8,23,23,120,33.8,26,83,018,36.0,27,35,276,42.8,29,15,064,32.9*42
$GPRMC,182238.71,A,3718.792368,N,00555.912793,W,026.9,329.6,210221,,,A*47
$GPGGA,182239.70,3718.805193,N,00555.916537,W,1,09,1.05,80.21,M,0.0,M,0.0,0000*53
$GPGSV,3,1,9,10,12,149,31.2,16,55,322,45.5,18,58,061,34.5,20,29,119,37.3*4A
$GPGSV,3,2,9,23,23,120,35.9,26,83,018,35.1,27,35,276,43.2,29,15,064,30.2*45
$GPGSV,3,3,9,31,33,191,27.1*61
$GPRMC,182239.70,A,3718.805193,N,00555.916537,W,025.5,330.1,210221,,,A*48
$GPGGA,182240.71,3718.810785,N,00555.914603,W,1,08,1.21,112.17,M,0.0,M,0.0,0000*67
$GPGSV,2,1,8,10,12,149,31.9,16,55,322,46.5,18,58,061,33.0,20,29,119,40.4*47
$GPGSV,2,2,8,23,23,120,41.4,26,83,018,35.2,27,35,276,41.8,29,15,064,34.2*44
$GPRMC,182240.71,A,3718.810785,N,00555.914603,W,020.8,331.6,210221,,,A*4A
$GPGGA,182241.71,3718.814541,N,00555.923100,W,1,08,1.21,82.61,M,0.0,M,0.0,0000*51
$GPGSV,2,1,8,10,12,149,34.3,16,55,322,47.1,18,58,061,36.4,20,29,119,39.7*41
$GPGSV,2,2,8,23,23,120,41.7,26,83,018,38.1,27,35,276,42.4,29,15,064,34.0*44
$GPRMC,182241.71,A,3718.814541,N,00555.923100,W,014.1,329.7,210221,,,A*43
$GPGGA,182242.70,3718.820145,N,00555.924190,W,1,08,1.21,94.39,M,0.0,M,0.0,0000*50
$GPGSV,2,1,8,10,12,149,34.9,16,55,322,47.2,18,58,061,36.9,20,29,119,39.2*40
$GPGSV,2,2,8,23,23,120,41.6,26,83,018,38.3,27,35,276,42.5,29,15,064,35.0*47
$GPRMC,182242.70,A,3718.820145,N,00555.924190,W,007.7,329.7,210221,,,A*4C
$GPGGA,182243.69,3718.822515,N,00555.921480,W,1,08,1.21,87.57,M,0.0,M,0.0,0000*51
$GPGSV,2,1,8,10,12,149,33.9,16,55,322,46.6,18,58,061,35.4,20,29,119,39.2*4C
$GPGSV,2,2,8,23,23,120,41.4,26,83,019,37.5,27,35,276,43.0,29,15,064,32.4*4A
$GPRMC,182243.69,A,3718.822515,N,00555.921480,W,003.1,327.1,210221,,,A*4D
$GPGGA,182244.70,3718.822645,N,00555.923239,W,1,08,1.10,76.89,M,0.0,M,0.0,0000*51
$GPGSV,2,1,8,16,55,322,46.5,18,58,061,35.8,20,29,119,37.5,23,23,120,36.0*4B
$GPGSV,2,2,8,26,83,019,37.8,27,35,276,43.1,29,15,064,29.8,31,33,191,30.1*4B
$GPRMC,182244.70,A,3718.822645,N,00555.923239,W,002.0,329.7,210221,,,A*4A
$GPGGA,182245.70,3718.823051,N,00555.925503,W,1,09,1.05,97.10,M,0.0,M,0.0,0000*50
$GPGSV,3,1,9,10,12,149,28.1,16,55,322,47.2,18,58,061,34.6,20,29,119,36.4*41
$GPGSV,3,2,9,23,23,120,35.7,26,83,019,39.8,27,35,276,43.6,29,15,064,35.3*4F
$GPGSV,3,3,9,31,33,191,32.4*60
$GPRMC,182245.70,A,3718.823051,N,00555.925503,W,001.4,333.9,210221,,,A*43
$GPGGA,182246.71,3718.813058,N,00555.926322,W,1,09,1.05,110.56,M,0.0,M,0.0,0000*62
$GPGSV,3,1,9,10,12,149,32.9,16,55,322,46.8,18,58,061,32.2,20,29,119,36.2*4D
$GPGSV,3,2,9,23,23,120,37.5,26,83,019,38.1,27,36,276,43.2,29,15,064,34.7*45
$GPGSV,3,3,9,31,33,191,32.7*63
$GPRMC,182246.71,A,3718.813058,N,00555.926322,W,000.5,265.0,210221,,,A*46
$GPGGA,182247.70,3718.818762,N,00555.926351,W,1,09,1.05,98.33,M,0.0,M,0.0,0000*51
$GPGSV,3,1,9,10,12,149,35.2,16,55,322,48.1,18,58,061,34.7,20,29,119,36.3*44
$GPGSV,3,2,9,23,23,120,38.3,26,83,019,34.4,27,36,276,44.1,29,15,064,32.4*44
$GPGSV,3,3,9,31,33,191,32.3*67
$GPRMC,182247.70,A,3718.818762,N,00555.926351,W,004.1,330.8,210221,,,A*4E
$GPGGA,182248.71,3718.826615,N,00555.927575,W,1,08,1.10,67.84,M,0.0,M,0.0,0000*5B
$GPGSV,2,1,8,10,12,149,34.0,16,55,322,48.3,20,29,119,38.0,23,23,120,38.9*4A
$GPGSV,2,2,8,26,83,019,36.7,27,36,276,44.7,29,15,064,26.2,31,33,191,31.4*46
$GPRMC,182248.71,A,3718.826615,N,00555.927575,W,006.6,332.4,210221,,,A*46
$GPGGA,182249.71,3718.823031,N,00555.932836,W,1,08,1.21,69.72,M,0.0,M,0.0,0000*54
$GPGSV,2,1,8,10,12,149,32.7,16,55,322,47.4,18,58,061,28.8,20,29,119,36.5*48
$GPGSV,2,2,8,23,23,120,37.7,26,83,019,34.7,27,36,276,42.4,29,15,064,27.9*46
$GPRMC,182249.71,A,3718.823031,N,00555.932836,W,008.8,331.0,210221,,,A*4B
$GPGGA,182250.72,3718.828807,N,00555.933691,W,1,09,1.05,68.01,M,0.0,M,0.0,0000*59
$GPGSV,3,1,9,10,12,149,31.9,16,55,322,47.8,18,58,061,34.7,20,29,119,39.2*43
$GPGSV,3,2,9,23,23,120,35.6,26,83,019,32.8,27,36,276,38.8,29,15,064,31.2*41
$GPGSV,3,3,9,31,33,191,34.9*6B
$GPRMC,182250.72,A,3718.828807,N,00555.933691,W,010.3,331.8,210221,,,A*4E
$GPGGA,182251.71,3718.829333,N,00555.931481,W,1,08,1.21,98.47,M,0.0,M,0.0,0000*5D
$GPGSV,2,1,8,10,12,149,33.8,16,55,322,48.9,18,58,061,30.6,20,29,119,41.6*40
$GPGSV,2,2,8,23,23,120,35.6,26,83,019,35.1,27,36,276,42.1,29,15,064,29.2*42
$GPRMC,182251.71,A,3718.829333,N,00555.931481,W,011.2,337.6,210221,,,A*48
$GPGGA,182252.70,3718.828084,N,00555.928914,W,1,08,1.21,113.90,M,0.0,M,0.0,0000*60
$GPGSV,2,1,8,10,12,149,34.4,16,55,322,48.1,18,58,061,33.2,20,29,119,40.5*46
$GPGSV,2,2,8,23,23,120,40.8,26,83,019,36.0,27,36,276,30.8,29,15,064,35.5*4A
$GPRMC,182252.70,A,3718.828084,N,00555.928914,W,012.6,346.3,210221,,,A*49
$GPGGA,182253.72,3718.824654,N,00555.931649,W,1,09,1.05,118.90,M,0.0,M,0.0,0000*67
$GPGSV,3,1,9,10,12,149,35.3,16,55,322,38.3,18,58,061,39.6,20,29,119,31.9*41
$GPGSV,3,2,9,23,23,120,39.8,26,83,019,36.8,27,36,276,38.3,29,15,064,34.1*4A
$GPGSV,3,3,9,31,33,191,35.8*6B
$GPRMC,182253.72,A,3718.824654,N,00555.931649,W,015.1,359.0,210221,,,A*4F
$GPGGA,182254.71,3718.835512,N,00555.934791,W,1,09,1.05,93.31,M,0.0,M,0.0,0000*5A
$GPGSV,3,1,9,10,12,149,29.5,16,55,322,39.4,18,58,060,42.5,20,29,119,38.8*4A
$GPGSV,3,2,9,23,23,120,38.5,26,83,019,35.2,27,36,276,33.3,29,15,064,35.9*4D
$GPGSV,3,3,9,31,33,191,28.4*6B
$GPRMC,182254.71,A,3718.835512,N,00555.934791,W,017.0,010.6,210221,,,A*40
$GPGGA,182255.72,3718.838449,N,00555.934009,W,1,09,1.05,121.75,M,0.0,M,0.0,0000*64
$GPGSV,3,1,9,10,12,149,31.0,16,55,322,36.2,18,58,060,41.0,20,29,119,38.3*42
$GPGSV,3,2,9,23,23,120,39.1,26,83,019,36.5,27,36,276,36.7,29,15,064,27.6*41
$GPGSV,3,3,9,31,33,191,35.1*62
$GPRMC,182255.72,A,3718.838449,N,00555.934009,W,018.4,014.5,210221,,,A*4A
$GPGGA,182256.72,3718.843472,N,00555.930353,W,1,08,1.52,93.10,M,0.0,M,0.0,0000*53
$GPGSV,2,1,8,10,12,149,28.6,16,55,322,34.3,18,58,060,40.4,20,29,119,35.4*40
$GPGSV,2,2,8,23,23,120,39.0,26,83,019,39.9,27,36,276,34.4,31,33,191,32.8*4E
$GPRMC,182256.72,A,3718.843472,N,00555.930353,W,019.3,013.9,210221,,,A*48
$GPGGA,182257.71,3718.853778,N,00555.927740,W,1,09,1.05,101.83,M,0.0,M,0.0,0000*6A
$GPGSV,3,1,9,10,12,149,32.5,16,55,322,36.9,18,58,060,37.4,20,29,119,37.0*46
$GPGSV,3,2,9,23,23,120,41.7,26,83,019,38.1,27,36,276,39.6,29,15,064,32.9*47
$GPGSV,3,3,9,31,33,191,36.9*69
$GPRMC,182257.71,A,3718.853778,N,00555.927740,W,020.2,011.2,210221,,,A*40
$GPGGA,182258.72,3718.860795,N,00555.925064,W,1,09,1.05,105.56,M,0.0,M,0.0,0000*6A
$GPGSV,3,1,9,10,12,149,31.4,16,55,322,34.0,18,58,060,34.8,20,29,119,37.9*49
$GPGSV,3,2,9,23,23,120,41.1,26,83,019,37.3,27,36,276,33.2,29,15,064,41.3*4C
$GPGSV,3,3,9,31,33,191,37.1*60
$GPRMC,182258.72,A,3718.860795,N,00555.925064,W,020.3,008.2,210221,,,A*45
$GPGGA,182259.71,3718.871248,N,00555.919158,W,1,09,1.05,88.96,M,0.0,M,0.0,0000*54
$GPGSV,3,1,9,10,12,149,29.6,16,55,322,31.7,18,58,060,34.4,20,29,119,39.7*4C
$GPGSV,3,2,9,23,23,120,40.3,26,83,019,39.0,27,36,276,35.6,29,15,064,32.6*41
$GPGSV,3,3,9,31,33,191,36.1*61
$GPRMC,182259.71,A,3718.871248,N,00555.919158,W,020.6,004.6,210221,,,A*4E
$GPGGA,182300.73,3718.869068,N,00555.926732,W,1,09,1.05,92.27,M,0.0,M,0.0,0000*55
$GPGSV,3,1,9,10,12,149,32.7,16,55,322,36.1,18,58,060,29.6,20,29,119,43.9*4B
$GPGSV,3,2,9,23,23,120,41.3,26,83,020,40.1,27,36,276,36.2,29,15,064,40.3*42
$GPGSV,3,3,9,31,33,191,27.9*69
$GPRMC,182300.73,A,3718.869068,N,00555.926732,W,021.6,357.1,210221,,,A*4D
$GPGGA,182301.72,3718.878178,N,00555.926730,W,1,09,1.05,99.33,M,0.0,M,0.0,0000*59
$GPGSV,3,1,9,10,12,149,33.4,16,55,322,40.2,18,58,060,36.9,20,29,119,42.6*44
$GPGSV,3,2,9,23,23,120,42.2,26,83,020,37.9,27,36,276,33.4,29,15,064,35.4*4E
$GPGSV,3,3,9,31,33,191,34.6*64
$GPRMC,182301.72,A,3718.878178,N,00555.926730,W,021.3,353.9,210221,,,A*46
$GPGGA,182302.73,3718.886556,N,00555.928262,W,1,08,1.38,95.66,M,0.0,M,0.0,0000*5D
$GPGSV,2,1,8,10,12,149,33.9,16,55,322,44.4,18,58,060,38.5,20,29,119,39.6*45
$GPGSV,2,2,8,23,23,120,40.9,26,83,020,36.3,29,15,064,40.9,31,33,191,29.8*4C
$GPRMC,182302.73,A,3718.886556,N,00555.928262,W,022.3,345.6,210221,,,A*4A
$GPGGA,182303.72,3718.887881,N,00555.938274,W,1,09,1.05,62.77,M,0.0,M,0.0,0000*5A
$GPGSV,3,1,9,10,12,149,27.0,16,55,322,45.2,18,58,060,32.8,20,29,119,39.9*46
$GPGSV,3,2,9,23,23,120,36.8,26,83,020,34.2,27,36,276,33.9,29,15,064,35.3*45
$GPGSV,3,3,9,31,33,191,34.3*61
$GPRMC,182303.72,A,3718.887881,N,00555.938274,W,022.6,337.5,210221,,,A*49
$GPGGA,182304.71,3718.888761,N,00555.930891,W,1,08,1.10,118.75,M,0.0,M,0.0,0000*62
$GPGSV,2,1,8,10,12,149,27.6,16,55,322,43.5,20,29,119,37.9,23,23,120,36.4*46
$GPGSV,2,2,8,26,83,020,33.4,27,36,276,41.9,29,15,064,29.3,31,33,191,29.4*46
$GPRMC,182304.71,A,3718.888761,N,00555.930891,W,022.6,329.9,210221,,,A*49
$GPGGA,182305.73,3718.899110,N,00555.952674,W,1,09,1.05,84.43,M,0.0,M,0.0,0000*54
$GPGSV,3,1,9,10,12,149,28.7,16,55,322,43.8,18,58,060,31.9,20,29,119,35.3*46
$GPGSV,3,2,9,23,23,120,34.2,26,84,020,32.5,27,36,276,36.7,29,15,064,31.5*42
$GPGSV,3,3,9,31,33,191,31.7*60
$GPRMC,182305.73,A,3718.899110,N,00555.952674,W,023.1,321.8,210221,,,A*44
$GPGGA,182306.72,3718.905023,N,00555.944131,W,1,08,1.10,109.95,M,0.0,M,0.0,0000*68
$GPGSV,2,1,8,16,55,322,40.3,18,58,060,31.3,20,29,119,35.0,23,23,120,29.8*44
$GPGSV,2,2,8,26,84,020,33.4,27,36,276,34.4,29,15,064,36.0,31,33,191,36.6*4F
$GPRMC,182306.72,A,3718.905023,N,00555.944131,W,022.8,314.9,210221,,,A*4D
$GPGGA,182307.71,3718.910241,N,00555.950377,W,1,08,1.08,86.25,M,0.0,M,0.0,0000*59
$GPGSV,2,1,8,10,12,149,29.4,16,55,322,42.3,18,58,060,35.1,20,29,119,33.4*43
$GPGSV,2,2,8,26,84,020,35.0,27,36,276,28.0,29,15,064,37.0,31,33,191,33.5*43
$GPRMC,182307.71,A,3718.910241,N,00555.950377,W,022.6,307.8,210221,,,A*45
$GPGGA,182308.72,3718.909283,N,00555.946100,W,1,07,1.25,121.23,M,0.0,M,0.0,0000*6C
$GPGSV,2,1,7,10,12,149,31.1,16,55,322,45.7,18,58,060,28.8,20,29,119,27.6*41
$GPGSV,2,2,7,26,84,020,36.1,27,36,276,27.5,29,15,064,37.6*62
$GPRMC,182308.72,A,3718.909283,N,00555.946100,W,021.2,301.4,210221,,,A*47
$GPGGA,182309.72,3718.918133,N,00555.960320,W,1,08,1.08,103.71,M,0.0,M,0.0,0000*66
$GPGSV,2,1,8,10,12,149,31.5,16,55,322,43.2,18,58,060,33.7,20,29,119,31.9*44
$GPGSV,2,2,8,26,84,020,35.6,27,36,276,37.1,29,15,064,35.8,31,33,191,40.0*41
$GPRMC,182309.72,A,3718.918133,N,00555.960320,W,022.9,294.5,210221,,,A*4E
$GPGGA,182310.73,3718.917473,N,00555.972871,W,1,07,1.16,103.28,M,0.0,M,0.0,0000*61
$GPGSV,2,1,7,16,55,322,38.9,18,58,060,31.5,23,23,120,29.9,26,84,020,35.1*42
$GPGSV,2,2,7,27,36,276,37.1,29,15,064,34.8,31,33,191,37.1*6A
$GPRMC,182310.73,A,3718.917473,N,00555.972871,W,022.5,291.3,210221,,,A*4A
$GPGGA,182311.72,3718.922139,N,00555.987299,W,1,07,1.16,82.67,M,0.0,M,0.0,0000*59
$GPGSV,2,1,7,16,55,322,38.6,18,58,060,30.8,23,23,120,30.7,26,84,020,35.4*42
$GPGSV,2,2,7,27,36,276,36.0,29,15,064,32.2,31,33,191,35.8*6D
$GPRMC,182311.72,A,3718.922139,N,00555.987299,W,021.9,293.1,210221,,,A*4E
$GPGGA,182312.74,3718.918080,N,00555.987054,W,1,08,1.10,98.79,M,0.0,M,0.0,0000*58
$GPGSV,2,1,8,10,12,149,26.2,16,55,322,37.7,18,58,060,37.6,23,23,120,28.2*46
$GPGSV,2,2,8,26,84,020,36.8,27,36,276,39.4,29,15,064,38.2,31,33,191,38.3*4C
$GPRMC,182312.74,A,3718.918080,N,00555.987054,W,020.3,292.5,210221,,,A*4C
$GPGGA,182313.73,3718.923245,N,00555.984590,W,1,08,1.10,104.57,M,0.0,M,0.0,0000*6B
$GPGSV,2,1,8,16,55,322,42.8,18,58,060,37.7,20,29,119,31.3,23,23,120,29.0*40
$GPGSV,2,2,8,26,84,020,38.2,27,36,276,42.3,29,15,064,34.0,31,33,191,37.4*45
$GPRMC,182313.73,A,3718.923245,N,00555.984590,W,018.8,299.3,210221,,,A*4A
$GPGGA,182314.72,3718.931720,N,00555.993600,W,1,07,1.16,86.01,M,0.0,M,0.0,0000*55
$GPGSV,2,1,7,10,12,149,30.8,16,55,322,45.8,18,58,060,37.3,26,84,020,38.6*47
$GPGSV,2,2,7,27,36,276,44.2,29,15,064,26.9,31,33,191,40.8*66
$GPRMC,182314.72,A,3718.931720,N,00555.993600,W,017.8,308.6,210221,,,A*46
$GPGGA,182315.73,3718.933177,N,00555.998366,W,1,07,1.15,95.21,M,0.0,M,0.0,0000*5E
$GPGSV,2,1,7,16,55,322,46.4,18,58,060,37.7,20,29,119,36.4,26,84,020,36.8*48
$GPGSV,2,2,7,27,36,276,41.0,29,15,064,36.3,31,33,191,40.8*6A
$GPRMC,182315.73,A,3718.933177,N,00555.998366,W,018.6,316.8,210221,,,A*4E
$GPGGA,182316.73,3718.938249,N,00556.008782,W,1,09,1.05,74.81,M,0.0,M,0.0,0000*5F
$GPGSV,3,1,9,10,12,149,30.6,16,55,322,45.8,18,58,060,33.7,20,29,119,36.9*4D
$GPGSV,3,2,9,23,23,120,37.7,26,84,020,34.3,27,36,276,39.2,29,15,064,32.6*4E
$GPGSV,3,3,9,31,33,191,35.5*66
$GPRMC,182316.73,A,3718.938249,N,00556.008782,W,019.7,326.3,210221,,,A*4D
$GPGGA,182317.74,3718.938858,N,00556.008129,W,1,08,1.21,102.17,M,0.0,M,0.0,0000*6C
$GPGSV,2,1,8,10,12,149,30.1,16,55,322,45.2,18,58,060,32.4,20,29,119,38.6*43
$GPGSV,2,2,8,23,23,120,38.2,26,84,021,33.3,27,36,276,42.4,29,15,064,31.3*4E
$GPRMC,182317.74,A,3718.938858,N,00556.008129,W,021.0,325.1,210221,,,A*4B
$GPGGA,182318.73,3718.950345,N,00556.007438,W,1,07,1.26,110.70,M,0.0,M,0.0,0000*6D
$GPGSV,2,1,7,10,12,149,30.5,16,55,322,44.6,20,29,119,35.7,23,23,120,37.5*44
$GPGSV,2,2,7,26,84,021,32.8,27,36,276,41.2,29,15,064,32.5*6F
$GPRMC,182318.73,A,3718.950345,N,00556.007438,W,023.4,329.6,210221,,,A*4D
$GPGGA,182319.72,3718.941434,N,00556.020437,W,1,07,2.63,123.41,M,0.0,M,0.0,0000*66
$GPGSV,2,1,7,10,12,149,28.2,16,55,322,44.6,18,58,060,30.7,20,29,119,37.0*4B
$GPGSV,2,2,7,23,23,120,35.0,26,84,021,31.2,27,36,276,40.0*69
$GPRMC,182319.72,A,3718.941434,N,00556.020437,W,023.9,329.1,210221,,,A*4C
$GPGGA,182320.72,3718.957087,N,00556.022368,W,1,09,1.05,93.46,M,0.0,M,0.0,0000*58
$GPGSV,3,1,9,10,12,149,25.8,16,55,322,45.8,18,58,060,35.3,20,29,119,37.8*45
$GPGSV,3,2,9,23,23,120,34.9,26,84,021,32.2,27,36,276,41.4,29,15,064,32.9*43
$GPGSV,3,3,9,31,33,191,30.3*65
$GPRMC,182320.72,A,3718.957087,N,00556.022368,W,024.6,330.2,210221,,,A*41
$GPGGA,182321.73,3718.964383,N,00556.029363,W,1,09,1.05,94.58,M,0.0,M,0.0,0000*57
$GPGSV,3,1,9,10,12,149,29.8,16,55,322,45.6,18,58,060,33.3,20,29,119,38.2*44
$GPGSV,3,2,9,23,23,120,34.3,26,84,021,32.3,27,36,277,40.7,29,15,064,28.3*4A
$GPGSV,3,3,9,31,33,191,30.1*67
$GPRMC,182321.73,A,3718.964383,N,00556.029363,W,025.1,329.6,210221,,,A*4C
$GPGGA,182322.72,3718.970091,N,00556.028219,W,1,08,1.52,117.81,M,0.0,M,0.0,0000*60
$GPGSV,2,1,8,10,12,149,27.0,16,55,322,43.9,18,58,060,28.7,20,29,119,35.9*43
$GPGSV,2,2,8,23,23,120,33.3,26,84,021,34.2,27,36,277,39.3,31,33,191,29.8*4C
$GPRMC,182322.72,A,3718.970091,N,00556.028219,W,025.7,330.0,210221,,,A*4E
$GPGGA,182323.73,3718.969220,N,00556.035578,W,1,08,1.21,123.93,M,0.0,M,0.0,0000*6C
$GPGSV,2,1,8,10,12,149,26.1,16,55,322,45.8,18,58,060,31.7,20,29,119,37.5*42
$GPGSV,2,2,8,23,23,120,34.2,26,84,021,34.5,27,36,277,39.4,29,15,064,26.9*42
$GPRMC,182323.73,A,3718.969220,N,00556.035578,W,026.1,331.1,210221,,,A*47
$GPGGA,182324.72,3718.976105,N,00556.045079,W,1,06,2.96,117.25,M,0.0,M,0.0,0000*68
$GPGSV,2,1,6,16,55,322,46.0,18,58,060,33.0,20,29,119,36.3,23,23,120,34.7*4D
$GPGSV,2,2,6,26,84,021,30.2,27,36,277,40.7*44
$GPRMC,182324.72,A,3718.976105,N,00556.045079,W,025.2,329.5,210221,,,A*45
$GPGGA,182325.73,3718.991543,N,00556.043438,W,1,09,1.05,88.77,M,0.0,M,0.0,0000*56
$GPGSV,3,1,9,10,12,149,27.2,16,55,322,45.3,18,58,060,30.4,20,29,119,36.7*4A
$GPGSV,3,2,9,23,23,120,35.3,26,84,021,33.6,27,36,277,39.5,29,15,064,27.9*46
$GPGSV,3,3,9,31,33,191,27.0*60
$GPRMC,182325.73,A,3718.991543,N,00556.043438,W,025.6,330.1,210221,,,A*45
$GPGGA,182326.73,3718.999708,N,00556.046319,W,1,09,1.05,123.38,M,0.0,M,0.0,0000*6A
$GPGSV,3,1,9,10,12,149,28.7,16,55,322,44.5,18,58,060,31.0,20,29,119,36.8*4D
$GPGSV,3,2,9,23,23,120,34.4,26,84,021,32.6,27,36,277,40.3,29,15,064,28.2*4D
$GPGSV,3,3,9,31,33,191,28.6*69
$GPRMC,182326.73,A,3718.999708,N,00556.046319,W,025.9,329.9,210221,,,A*4D
$GPGGA,182327.72,3719.001853,N,00556.053443,W,1,09,1.05,97.56,M,0.0,M,0.0,0000*58
$GPGSV,3,1,9,10,12,149,28.4,16,55,322,44.5,18,58,060,36.1,20,29,119,38.6*48
$GPGSV,3,2,9,23,23,120,33.3,26,84,021,32.1,27,36,277,42.7,29,15,064,29.5*4A
$GPGSV,3,3,9,31,33,191,29.3*6D
$GPRMC,182327.72,A,3719.001853,N,00556.053443,W,027.1,330.6,210221,,,A*44
$GPGGA,182328.74,3719.002690,N,00556.062890,W,1,09,1.05,91.93,M,0.0,M,0.0,0000*5C
$GPGSV,3,1,9,10,12,149,26.2,16,55,322,43.6,18,58,060,35.7,20,29,119,38.8*4F
$GPGSV,3,2,9,23,23,120,34.5,26,84,021,30.9,27,36,277,42.4,29,15,064,29.7*40
$GPGSV,3,3,9,31,33,191,29.6*68
$GPRMC,182328.74,A,3719.002690,N,00556.062890,W,026.2,330.8,210221,,,A*43
$GPGGA,182329.73,3719.010785,N,00556.062626,W,1,09,1.05,117.70,M,0.0,M,0.0,0000*6D
$GPGSV,3,1,9,10,12,149,28.5,16,55,322,44.5,18,58,060,35.6,20,29,119,39.4*4E
$GPGSV,3,2,9,23,23,120,33.4,26,84,021,28.9,27,36,277,41.4,29,15,064,31.2*40
$GPGSV,3,3,9,31,33,191,30.5*63
$GPRMC,182329.73,A,3719.010785,N,00556.062626,W,025.8,330.3,210221,,,A*42
$GPGGA,182330.74,3719.017401,N,00556.067694,W,1,09,1.05,108.52,M,0.0,M,0.0,0000*68
$GPGSV,3,1,9,10,12,149,29.1,16,55,322,43.9,18,58,060,35.8,20,29,119,39.5*4F
$GPGSV,3,2,9,23,23,120,33.6,26,84,021,32.3,27,36,277,41.2,29,15,064,29.4*4A
$GPGSV,3,3,9,31,33,191,31.8*6F
$GPRMC,182330.74,A,3719.017401,N,00556.067694,W,024.1,327.1,210221,,,A*45
$GPGGA,182331.74,3719.027360,N,00556.069687,W,1,09,1.05,103.15,M,0.0,M,0.0,0000*6E
$GPGSV,3,1,9,10,12,149,27.9,16,55,322,44.1,18,58,060,36.6,20,29,119,40.1*41
$GPGSV,3,2,9,23,23,120,34.2,26,84,021,31.5,27,36,277,41.3,29,15,064,28.9*41
$GPGSV,3,3,9,31,33,191,30.9*6F
$GPRMC,182331.74,A,3719.027360,N,00556.069687,W,025.2,329.8,210221,,,A*4E
$GPGGA,182332.75,3719.028953,N,00556.075135,W,1,09,1.05,107.33,M,0.0,M,0.0,0000*6A
$GPGSV,3,1,9,10,12,149,29.7,16,55,322,44.7,18,58,060,35.4,20,29,119,39.5*4C
$GPGSV,3,2,9,23,23,120,34.7,26,84,021,33.4,27,36,277,40.3,29,15,064,29.5*4B
$GPGSV,3,3,9,31,33,191,28.3*6C
$GPRMC,182332.75,A,3719.028953,N,00556.075135,W,024.9,328.3,210221,,,A*4A
$GPGGA,182333.74,3719.044751,N,00556.078790,W,1,08,1.52,72.84,M,0.0,M,0.0,0000*54
$GPGSV,2,1,8,10,12,149,29.6,16,55,322,43.9,18,58,060,33.5,20,29,119,39.0*46
$GPGSV,2,2,8,23,23,120,34.2,26,84,022,32.5,27,36,277,41.7,31,33,191,28.4*4E
$GPRMC,182333.74,A,3719.044751,N,00556.078790,W,025.7,330.8,210221,,,A*45
$GPGGA,182334.73,3719.043409,N,00556.088150,W,1,09,1.05,103.42,M,0.0,M,0.0,0000*66
$GPGSV,3,1,9,10,12,149,29.0,16,55,322,45.2,18,58,060,33.1,20,29,119,38.2*4A
$GPGSV,3,2,9,23,23,120,35.0,26,84,022,34.1,27,36,277,41.6,29,15,064,30.1*44
$GPGSV,3,3,9,31,33,191,28.2*6D
$GPRMC,182334.73,A,3719.043409,N,00556.088150,W,026.0,332.2,210221,,,A*45
$GPGGA,182335.74,3719.051002,N,00556.089029,W,1,07,1.42,94.57,M,0.0,M,0.0,0000*54
$GPGSV,2,1,7,16,55,322,44.2,18,58,060,33.8,20,29,119,38.2,23,23,120,35.4*49
$GPGSV,2,2,7,26,84,022,32.6,27,36,277,41.9,29,15,064,30.3*6C
$GPRMC,182335.74,A,3719.051002,N,00556.089029,W,025.2,330.3,210221,,,A*43
$GPGGA,182336.74,3719.067988,N,00556.087693,W,1,07,1.42,69.63,M,0.0,M,0.0,0000*55
$GPGSV,2,1,7,16,55,322,45.5,18,58,060,34.5,20,29,119,38.5,23,23,120,35.8*4E
$GPGSV,2,2,7,26,84,022,31.5,27,36,277,41.5,29,15,064,29.9*62
$GPRMC,182336.74,A,3719.067988,N,00556.087693,W,024.7,328.6,210221,,,A*4F
$GPGGA,182337.73,3719.062639,N,00556.097122,W,1,08,1.10,105.25,M,0.0,M,0.0,0000*6E
$GPGSV,2,1,8,16,55,322,44.2,18,58,060,34.4,20,29,119,38.8,23,23,120,33.6*43
$GPGSV,2,2,8,26,84,022,33.1,27,36,277,41.5,29,15,064,30.4,31,33,191,30.9*41
$GPRMC,182337.73,A,3719.062639,N,00556.097122,W,025.5,330.6,210221,,,A*4F
$GPGGA,182338.74,3719.062367,N,00556.103144,W,1,08,1.10,131.75,M,0.0,M,0.0,0000*66
$GPGSV,2,1,8,16,55,322,45.3,18,58,060,33.5,20,29,119,39.6,23,23,120,35.6*4C
$GPGSV,2,2,8,26,84,022,33.5,27,36,277,42.6,29,15,064,28.1,31,33,191,29.4*4C
$GPRMC,182338.74,A,3719.062367,N,00556.103144,W,024.4,329.4,210221,,,A*4F
$GPGGA,182339.73,3719.070723,N,00556.103722,W,1,09,1.05,109.19,M,0.0,M,0.0,0000*65
$GPGSV,3,1,9,10,12,149,28.1,16,55,322,45.6,18,58,060,39.8,20,29,119,38.5*4A
$GPGSV,3,2,9,23,23,120,35.2,26,84,022,30.2,27,36,277,42.4,29,15,064,26.6*40
$GPGSV,3,3,9,31,33,191,31.0*67
$GPRMC,182339.73,A,3719.070723,N,00556.103722,W,023.3,330.8,210221,,,A*4C
$GPGGA,182340.75,3719.071647,N,00556.112874,W,1,08,1.10,127.23,M,0.0,M,0.0,0000*63
$GPGSV,2,1,8,16,55,322,45.9,18,58,060,35.3,20,29,119,37.9,23,23,120,36.6*44
$GPGSV,2,2,8,26,84,022,33.3,27,36,277,40.0,29,15,064,30.3,31,33,191,36.1*4E
$GPRMC,182340.75,A,3719.071647,N,00556.112874,W,023.1,328.7,210221,,,A*4E
$GPGGA,182341.74,3719.078561,N,00556.115038,W,1,08,1.52,115.53,M,0.0,M,0.0,0000*6A
$GPGSV,2,1,8,10,12,149,27.3,16,55,322,44.5,18,58,060,31.6,20,29,119,38.8*4E
$GPGSV,2,2,8,23,23,120,36.1,26,84,022,35.6,27,36,277,40.0,31,33,191,38.0*48
$GPRMC,182341.74,A,3719.078561,N,00556.115038,W,021.7,326.0,210221,,,A*4A
$GPGGA,182342.73,3719.085304,N,00556.120267,W,1,09,1.05,119.97,M,0.0,M,0.0,0000*60
$GPGSV,3,1,9,10,12,149,27.5,16,55,322,44.6,18,58,060,33.6,20,29,119,36.0*4F
$GPGSV,3,2,9,23,23,120,31.7,26,84,022,38.6,27,36,277,44.9,29,15,064,28.6*48
$GPGSV,3,3,9,31,33,191,39.1*6E
$GPRMC,182342.73,A,3719.085304,N,00556.120267,W,020.5,327.3,210221,,,A*46
$GPGGA,182343.74,3719.086631,N,00556.121806,W,1,09,1.05,117.75,M,0.0,M,0.0,0000*68
$GPGSV,3,1,9,10,12,149,33.2,16,55,322,43.8,18,58,060,32.5,20,29,119,41.9*4F
$GPGSV,3,2,9,23,23,120,37.7,26,84,022,34.2,27,36,277,39.5,29,15,064,33.7*4B
$GPGSV,3,3,9,31,33,191,35.3*60
$GPRMC,182343.74,A,3719.086631,N,00556.121806,W,016.6,325.9,210221,,,A*42
$GPGGA,182344.74,3719.097755,N,00556.124733,W,1,09,1.05,92.88,M,0.0,M,0.0,0000*5E
$GPGSV,3,1,9,10,12,149,36.4,16,55,322,44.9,18,58,060,36.1,20,29,119,36.0*43
$GPGSV,3,2,9,23,23,120,36.6,26,84,022,27.2,27,36,277,42.4,29,15,064,29.7*4F
$GPGSV,3,3,9,31,33,191,38.1*6F
$GPRMC,182344.74,A,3719.097755,N,00556.124733,W,016.3,338.0,210221,,,A*4A
$GPGGA,182345.73,3719.098262,N,00556.127643,W,1,09,1.05,118.55,M,0.0,M,0.0,0000*60
$GPGSV,3,1,9,10,12,149,33.3,16,55,322,44.9,18,58,060,34.1,20,29,119,35.0*40
$GPGSV,3,2,9,23,23,120,27.8,26,84,022,29.7,27,36,277,42.6,29,15,064,31.6*40
$GPGSV,3,3,9,31,33,191,32.9*6D
$GPRMC,182345.73,A,3719.098262,N,00556.127643,W,017.6,348.5,210221,,,A*41
$GPGGA,182346.72,3719.106168,N,00556.128710,W,1,09,1.05,97.94,M,0.0,M,0.0,0000*5E
$GPGSV,3,1,9,10,12,149,32.1,16,55,322,42.4,18,58,060,40.6,20,29,119,30.0*49
$GPGSV,3,2,9,23,23,120,38.9,26,84,022,39.1,27,36,277,42.2,29,15,064,38.5*46
$GPGSV,3,3,9,31,33,191,35.6*65
$GPRMC,182346.72,A,3719.106168,N,00556.128710,W,017.8,350.9,210221,,,A*4F
$GPGGA,182347.74,3719.114113,N,00556.126680,W,1,09,1.05,117.13,M,0.0,M,0.0,0000*66
$GPGSV,3,1,9,10,12,149,33.6,16,55,322,43.9,18,58,060,35.4,20,29,119,27.2*47
$GPGSV,3,2,9,23,23,120,39.6,26,84,022,31.2,27,36,277,35.7,29,15,064,39.1*43
$GPGSV,3,3,9,31,33,191,35.9*6A
$GPRMC,182347.74,A,3719.114113,N,00556.126680,W,017.6,347.0,210221,,,A*40
$GPGGA,182348.75,3719.112712,N,00556.131715,W,1,08,1.21,96.32,M,0.0,M,0.0,0000*5E
$GPGSV,2,1,8,10,12,149,26.5,16,55,322,46.7,18,58,060,37.6,20,29,119,37.1*49
$GPGSV,2,2,8,23,23,120,40.3,26,84,022,38.5,27,36,277,29.3,29,15,064,39.9*47
$GPRMC,182348.75,A,3719.112712,N,00556.131715,W,018.8,341.1,210221,,,A*42
$GPGGA,182349.76,3719.119251,N,00556.133876,W,1,08,1.21,108.35,M,0.0,M,0.0,0000*6C
$GPGSV,2,1,8,10,12,149,27.2,16,55,322,45.9,18,58,060,33.9,20,29,119,39.6*40
$GPGSV,2,2,8,23,23,120,37.8,26,84,022,36.7,27,36,277,42.2,29,15,064,32.0*4E
$GPRMC,182349.76,A,3719.119251,N,00556.133876,W,019.7,332.3,210221,,,A*49
$GPGGA,182350.75,3719.126498,N,00556.139601,W,1,07,1.61,85.28,M,0.0,M,0.0,0000*5F
$GPGSV,2,1,7,10,12,149,31.6,16,55,322,45.3,20,29,119,38.6,23,23,120,37.5*4E
$GPGSV,2,2,7,26,84,023,36.6,27,36,277,43.2,31,33,191,34.6*67
$GPRMC,182350.75,A,3719.126498,N,00556.139601,W,020.3,323.8,210221,,,A*4C
$GPGGA,182351.75,3719.135114,N,00556.142056,W,1,08,1.52,84.97,M,0.0,M,0.0,0000*5F
$GPGSV,2,1,8,10,12,149,29.7,16,55,322,44.9,18,58,060,38.0,20,29,119,38.8*47
$GPGSV,2,2,8,23,23,120,31.0,26,84,023,36.2,27,36,277,44.6,31,33,191,38.9*43
$GPRMC,182351.75,A,3719.135114,N,00556.142056,W,020.7,318.4,210221,,,A*46
$GPGGA,182352.76,3719.133130,N,00556.146777,W,1,08,1.08,116.67,M,0.0,M,0.0,0000*65
$GPGSV,2,1,8,10,12,149,29.3,16,55,322,43.7,18,58,060,38.0,20,29,119,37.9*44
$GPGSV,2,2,8,26,84,023,36.1,27,36,277,43.4,29,15,064,32.8,31,33,191,39.6*4E
$GPRMC,182352.76,A,3719.133130,N,00556.146777,W,021.2,317.0,210221,,,A*49
$GPGGA,182353.75,3719.140610,N,00556.153580,W,1,08,1.10,101.52,M,0.0,M,0.0,0000*61
$GPGSV,2,1,8,16,55,322,45.7,18,58,060,38.4,20,29,119,38.7,23,23,120,29.2*4B
$GPGSV,2,2,8,26,84,023,34.7,27,36,277,43.7,29,15,064,34.2,31,33,191,39.2*41
$GPRMC,182353.75,A,3719.140610,N,00556.153580,W,021.3,318.1,210221,,,A*4B
$GPGGA,182354.74,3719.142733,N,00556.156694,W,1,09,1.05,89.48,M,0.0,M,0.0,0000*59
$GPGSV,3,1,9,10,12,149,27.8,16,55,322,45.6,18,58,060,38.3,20,29,119,37.1*4D
$GPGSV,3,2,9,23,23,120,33.8,26,84,023,35.9,27,36,277,45.5,29,15,064,31.6*43
$GPGSV,3,3,9,31,33,191,38.1*6F
$GPRMC,182354.74,A,3719.142733,N,00556.156694,W,022.0,321.4,210221,,,A*43
$GPGGA,182355.76,3719.150415,N,00556.164789,W,1,09,1.05,73.62,M,0.0,M,0.0,0000*5F
$GPGSV,3,1,9,10,12,149,32.8,16,55,322,46.1,18,58,060,33.5,20,29,119,37.4*45
$GPGSV,3,2,9,23,23,120,34.9,26,84,023,30.0,27,36,277,42.2,29,15,064,31.0*4F
$GPGSV,3,3,9,31,33,191,37.1*60
$GPRMC,182355.76,A,3719.150415,N,00556.164789,W,022.7,327.1,210221,,,A*4C
$GPGGA,182356.75,3719.161742,N,00556.164786,W,1,09,1.05,67.91,M,0.0,M,0.0,0000*5A
$GPGSV,3,1,9,10,12,149,33.2,16,55,322,45.7,18,58,060,34.1,20,29,119,38.1*42
$GPGSV,3,2,9,23,23,120,36.5,26,84,023,32.0,27,36,277,41.7,29,15,064,27.8*4A
$GPGSV,3,3,9,31,33,191,36.3*63
$GPRMC,182356.75,A,3719.161742,N,00556.164786,W,022.0,324.9,210221,,,A*4C
$GPGGA,182357.74,3719.154377,N,00556.171632,W,1,09,1.05,119.75,M,0.0,M,0.0,0000*66
$GPGSV,3,1,9,10,12,149,32.4,16,55,322,44.5,18,58,060,35.7,20,29,119,37.4*4B
$GPGSV,3,2,9,23,23,120,34.7,26,84,023,34.0,27,36,277,42.0,29,15,064,27.7*47
$GPGSV,3,3,9,31,33,191,38.1*6F
$GPRMC,182357.74,A,3719.154377,N,00556.171632,W,022.6,324.5,210221,,,A*48
$GPGGA,182358.75,3719.159313,N,00556.178875,W,1,09,1.05,112.65,M,0.0,M,0.0,0000*69
$GPGSV,3,1,9,10,12,149,33.6,16,55,322,42.5,18,58,060,36.0,20,29,119,37.6*48
$GPGSV,3,2,9,23,23,120,34.9,26,84,023,30.3,27,36,277,44.8,29,15,064,26.0*46
$GPGSV,3,3,9,31,33,191,41.4*64
$GPRMC,182358.75,A,3719.159313,N,00556.178875,W,023.8,325.6,210221,,,A*40
$GPGGA,182359.74,3719.166132,N,00556.181539,W,1,09,1.05,125.13,M,0.0,M,0.0,0000*62
$GPGSV,3,1,9,10,12,149,32.0,16,55,322,43.4,18,58,060,37.2,20,29,119,36.5*4E
$GPGSV,3,2,9,23,23,120,34.1,26,84,023,29.4,27,36,277,43.7,29,15,064,27.4*4C
$GPGSV,3,3,9,31,33,191,39.8*67
$GPRMC,182359.74,A,3719.166132,N,00556.181539,W,023.0,320.4,210221,,,A*41
$GPGGA,182400.76,3719.176844,N,00556.182830,W,1,09,1.05,81.97,M,0.0,M,0.0,0000*56
$GPGSV,3,1,9,10,12,149,28.9,16,55,322,42.5,18,58,060,38.3,20,29,119,36.2*45
$GPGSV,3,2,9,23,23,120,33.4,26,84,023,28.3,27,36,277,45.3,29,15,064,28.1*40
$GPGSV,3,3,9,31,33,191,41.2*62
$GPRMC,182400.76,A,3719.176844,N,00556.182830,W,023.0,318.2,210221,,,A*4B
$GPGGA,182401.75,3719.176453,N,00556.190981,W,1,09,1.05,117.29,M,0.0,M,0.0,0000*6D
$GPGSV,3,1,9,10,12,149,30.3,16,55,322,43.4,18,58,060,38.7,20,29,119,34.8*4A
$GPGSV,3,2,9,23,23,120,32.5,26,84,023,28.2,27,36,277,44.5,29,15,064,34.3*49
$GPGSV,3,3,9,31,33,191,42.1*62
$GPRMC,182401.75,A,3719.176453,N,00556.190981,W,023.2,318.8,210221,,,A*43
$GPGGA,182402.74,3719.175859,N,00556.198772,W,1,09,1.05,134.67,M,0.0,M,0.0,0000*6B
$GPGSV,3,1,9,10,12,149,29.7,16,55,322,43.5,18,58,060,37.7,20,29,119,37.0*43
$GPGSV,3,2,9,23,23,120,32.6,26,84,023,30.9,27,36,277,44.6,29,15,064,35.2*4B
$GPGSV,3,3,9,31,33,191,40.4*65
$GPRMC,182402.74,A,3719.175859,N,00556.198772,W,022.9,317.4,210221,,,A*47
$GPGGA,182403.76,3719.186265,N,00556.202851,W,1,09,1.05,87.93,M,0.0,M,0.0,0000*5D
$GPGSV,3,1,9,10,12,149,26.7,16,55,322,42.9,18,58,060,34.5,20,29,119,38.7*48
$GPGSV,3,2,9,23,23,120,34.3,26,84,023,31.1,27,36,277,43.3,29,15,064,34.5*45
$GPGSV,3,3,9,31,33,191,37.7*66
$GPRMC,182403.76,A,3719.186265,N,00556.202851,W,023.6,316.3,210221,,,A*4B
$GPGGA,182404.75,3719.190939,N,00556.207287,W,1,07,1.42,136.05,M,0.0,M,0.0,0000*61
$GPGSV,2,1,7,16,55,322,42.3,18,58,060,28.9,20,29,119,37.1,23,23,120,33.9*42
$GPGSV,2,2,7,26,84,023,31.4,27,36,277,41.8,29,15,064,30.9*67
$GPRMC,182404.75,A,3719.190939,N,00556.207287,W,023.5,311.8,210221,,,A*41
$GPGGA,182405.76,3719.195718,N,00556.216608,W,1,08,1.08,105.29,M,0.0,M,0.0,0000*67
$GPGSV,2,1,8,10,12,149,28.5,16,55,322,42.8,18,58,060,34.9,20,29,119,34.1*43
$GPGSV,2,2,8,26,84,023,32.1,27,36,277,39.7,29,15,064,32.1,31,33,191,34.9*4F
$GPRMC,182405.76,A,3719.195718,N,00556.216608,W,024.1,310.5,210221,,,A*47
$GPGGA,182406.75,3719.198734,N,00556.225962,W,1,08,1.08,119.98,M,0.0,M,0.0,0000*60
$GPGSV,2,1,8,10,12,149,31.4,16,55,322,41.4,18,58,060,39.7,20,29,119,36.5*40
$GPGSV,2,2,8,23,23,120,31.6,27,36,277,40.1,29,15,064,27.5,31,32,191,38.3*4E
$GPRMC,182406.75,A,3719.198734,N,00556.225962,W,023.7,309.5,210221,,,A*4E
$GPGGA,182407.75,3719.187381,N,00556.237353,W,1,09,1.06,195.21,M,0.0,M,0.0,0000*67
$GPGSV,3,1,9,10,12,149,28.8,16,55,322,42.2,18,58,060,37.4,20,29,119,35.5*4F
$GPGSV,3,2,9,23,23,120,26.2,26,84,024,29.0,27,36,277,40.9,29,15,064,30.9*49
