# GalileoPVT v0.572 (23-Oct-2019) log file started 2021/02/24 19:40:51
# Device type Xiaomi M2010J19CG running Android API version 29
# 
# Raw,ElapsedRealtimeMillis,TimeNanos,LeapSecond,TimeUncertaintyNanos,FullBiasNanos,BiasNanos,BiasUncertaintyNanos,DriftNanosPerSecond,DriftUncertaintyNanosPerSecond,HardwareClockDiscontinuityCount,Svid,TimeOffsetNanos,State,ReceivedSvTimeNanos,ReceivedSvTimeUncertaintyNanos,Cn0DbHz,PseudorangeRateMetersPerSecond,PseudorangeRateUncertaintyMetersPerSecond,AccumulatedDeltaRangeState,AccumulatedDeltaRangeMeters,AccumulatedDeltaRangeUncertaintyMeters,CarrierFrequencyHz,CarrierCycles,CarrierPhase,CarrierPhaseUncertainty,MultipathIndicator,SnrInDb,ConstellationType,AgcDb,CarrierFrequencyHz
# Nav,ElapsedRealtimeMillis,Svid,Type,Status,MessageId,Sub-messageId,Data(Bytes)
# GalPseudorange,ElapsedRealtimeMillis,svID,state,RxTimeNanos,RxTimeSeconds,TxTimeSeconds,pseudorange,TxToWSeconds
# CalculatedPVT,ElapsedRealtimeMillis,Type,GalSatsUsed,GpsSatsUsed,LatitudeDegrees,LongitudeDegrees,AltitudeMetres,VelNMS,VelEMS,VelDMS,PDOP,TimeUTC
# AndroidLocation,ElapsedRealtimeMillis,LatitudeDegrees,LongitudeDegrees,AltitudeMetres
# DeviceEnvironment,ElapsedRealtimeMillis,RotX,RotY,RotZ,AccelX,AccelY,AccelZ,AmbientPressMB,AmbientTempC,BattTempC
# GalAtmosCoeffs,ElapsedRealtimeMillis,a0,a1,a2
# GalEph,ElapsedRealtimeMillis,svID,svHealth,IODNAV,toc,af0,af1,af2,tgd,toe,e,i0,iDot,m0,omega,omega0,omegaDot,rootOfA,deltaN,cic,cis,crc,crs,cus,cuc
# GpsAtmosCoeffs,ElapsedRealtimeMillis,a0,a1,a2,a3,b0,b1,b2,b3
# GpsEph,ElapsedRealtimeMillis,svID,week,l2Code,l2Flag,svHealth,IODc,IODe,toc,af0,af1,af2,tgd,toe,e,i0,iDot,m0,omega,omega0,omegaDot,rootOfA,deltaN,cic,cis,crc,crs,cus,cuc
# 
GalAtmosCoeffs,27361650,53.75,0.09375,-0.00146484375
GalUtcModel,27361650,279396.772384643,-1.77635683940025E-15,430080,18
GalEph,27361650,33,0,29,324600.0,-4.659829428419471E-4,-2.8421709430404007E-13,0.0,-3.958120942115784E-9,324600.0,4.0286220610141754E-4,0.9938599271695124,9.000374901741315E-11,2.4455644175171116,-0.9979887120871196,-2.040735288701808,-5.9034601885270705E-9,5440.602819442749,2.8958349088618484E-9,-6.891787052154541E-8,-4.470348358154297E-8,384.9375,61.78125,-1.2405216693878174E-6,2.8796494007110596E-6,
GalEph,27361650,1,0,29,324600.0,-0.0010530372965149581,-7.972289495228324E-12,0.0,2.3283064365386963E-10,324600.0,2.3703253827989101E-4,0.9788190783034989,-7.389593520516975E-10,3.073375260655845,0.44550315219449654,2.1640876546172585,-5.365937798561965E-9,5440.6072635650635,3.0033393868548695E-9,9.313225746154785E-9,-1.1362135410308838E-7,143.28125,2.5,9.564682841300964E-6,-1.1175870895385742E-8,
GalEph,27361650,2,0,29,324600.0,2.0078651141375303E-4,2.7284841053187847E-12,0.0,-2.0954757928848267E-9,324600.0,4.3523090425878763E-4,0.9788277387785281,-6.632419124021277E-10,0.005716656681696914,0.3670657038399321,2.164058979959987,-5.383438527537572E-9,5440.604494094849,3.055841573781694E-9,-3.166496753692627E-8,7.450580596923828E-9,150.375,-23.46875,9.277835488319397E-6,-1.0617077350616455E-6,
GalEph,27361650,3,0,29,324600.0,-4.0228950092568994E-4,-4.291678123991005E-12,0.0,3.4924596548080444E-9,324600.0,2.1877896506339312E-4,0.9551607846806073,5.739524788531068E-10,2.164479753235454,0.29657107556999157,0.06596340336623538,-5.330222025142356E-9,5440.624589920044,2.881191441759809E-9,5.774199962615967E-8,-5.4016709327697754E-8,76.90625,-42.125,1.208484172821045E-5,-1.8291175365447998E-6,
GalEph,27361650,36,0,13,322800.0,4.362416220828891E-4,-5.101696842757519E-12,0.0,6.51925802230835E-9,322800.0,3.607776015996933E-4,0.9938685247390643,8.036049019411887E-11,-0.07043704049975016,-1.0666573318621912,-2.0406925012738255,-5.8159565436490305E-9,5440.600387573242,2.877619864417848E-9,5.029141902923584E-8,1.6763806343078613E-8,368.59375,71.9375,-4.898756742477417E-7,3.2335519790649414E-6,
GalEph,27361650,4,0,29,324600.0,-7.165991701185703E-4,-7.887024366937112E-12,0.0,-3.4924596548080444E-9,324600.0,1.076927874237299E-4,0.9552025363625896,6.332406627296568E-10,0.2719548617258778,-1.728373226688133,0.06603873486980916,-5.328793394205571E-9,5440.627548217773,2.9001208016722014E-9,1.1175870895385742E-8,5.4016709327697754E-8,56.21875,-60.5,1.2895092368125916E-5,-2.7641654014587402E-6,
GalEph,27361650,5,0,29,324600.0,-3.018800634890795E-4,3.0411229090532288E-12,0.0,3.958120942115784E-9,324600.0,1.9228900782763958E-5,0.955174268396544,5.418082827754593E-10,-1.7044905726340147,-1.3269093097731266,0.06595460683982474,-5.270933841265806E-9,5440.621032714844,2.899049328469613E-9,3.725290298461914E-9,5.029141902923584E-8,73.0,-50.46875,1.2405216693878174E-5,-2.289190888404846E-6,
GalEph,27361650,7,0,29,324600.0,-5.050955223850906E-4,-4.902744876744691E-12,0.0,5.820766091346741E-9,324600.0,1.924935495480895E-4,0.9552043679360248,5.910960500945189E-10,1.5479199277753395,-0.6571344654995924,0.06599044248109447,-5.332722129281728E-9,5440.625032424927,2.9429797297757314E-9,-8.568167686462402E-8,5.587935447692871E-9,61.0,-36.0625,1.2876465916633606E-5,-1.8309801816940308E-6,
GalEph,27361650,8,0,13,322800.0,0.006042115099262446,-5.6985527407960035E-12,0.0,-4.190951585769653E-9,322800.0,1.9604829140007496E-4,0.9611329107464867,5.543088034723222E-10,1.4600053918163218,-0.010144571773562296,0.06075853101955313,-5.322364554990042E-9,5440.622087478638,2.9004779594063973E-9,-2.421438694000244E-8,-4.6566128730773926E-8,71.59375,-34.3125,1.2360513210296631E-5,-1.780688762664795E-6,
GalEph,27361650,9,0,29,324600.0,0.005754532292485237,-1.2647660696529783E-11,0.0,1.6298145055770874E-9,324600.0,2.543153241276741E-4,0.961163036618493,5.646663777640087E-10,-2.0058456434080374,-0.2511186979988813,0.06076348884892376,-5.264505002050277E-9,5440.622688293457,2.8758340757468676E-9,3.166496753692627E-8,5.587935447692871E-9,74.25,-54.34375,1.2446194887161255E-5,-2.551823854446411E-6,
GalEph,27361650,11,0,29,324600.0,0.006279095716308802,-4.7279513637477066E-11,1.734723475976807E-18,-1.4202669262886047E-8,324600.0,3.7638272624462843E-4,0.9906816747368271,9.10752222200014E-11,-0.10415963265535848,-0.04018233076107857,-2.037092309619964,-5.982749205518602E-9,5440.607830047607,3.014054118880752E-9,-5.774199962615967E-8,3.91155481338501E-8,383.0625,73.28125,-1.5012919902801514E-6,3.2763928174972534E-6,
GalEph,27361650,12,0,13,322800.0,0.0053398506715893745,-1.892885848064907E-11,0.0,-1.0943040251731873E-8,322800.0,4.700470017269254E-4,0.9906950779922693,1.4072014727325704E-10,0.934915792001115,-0.4960426840202866,-2.0370920258138563,-5.97739183950566E-9,5440.606716156006,2.9904817084238104E-9,-3.91155481338501E-8,3.725290298461914E-8,385.6875,73.0625,-1.5329569578170776E-6,3.382563591003418E-6,
GalEph,27361650,13,0,29,324600.0,4.126307903788984E-4,6.252776074688882E-13,0.0,2.3283064365386963E-10,324600.0,3.733722260221839E-4,0.9938636502960241,8.928943354902097E-11,-2.225887876936007,-1.043304630122714,-2.040696732032911,-5.876673358462364E-9,5440.6018409729,2.9572660391435746E-9,5.4016709327697754E-8,-4.284083843231201E-8,371.25,47.53125,-7.748603820800781E-7,2.1848827600479126E-6,
GalEph,27361650,15,0,29,324600.0,8.276753360405564E-4,-1.9184653865522705E-12,0.0,6.752088665962219E-9,324600.0,4.136288771405816E-4,0.9938219688341097,1.1286184400596251E-10,-1.3182753881699218,-1.1625788851399053,-2.040731559723624,-5.830600010751069E-9,5440.604354858398,2.8583333467712595E-9,3.166496753692627E-8,2.2351741790771484E-8,365.84375,60.0625,-4.5262277126312256E-7,2.8721988201141357E-6,
GalEph,27361650,19,0,29,324600.0,2.1200126502662897E-4,9.549694368615746E-12,0.0,-3.4924596548080444E-9,324600.0,1.211527269333601E-4,0.9608966611800296,6.628847546679317E-10,1.683642591454774,-2.273940411454091,0.06599908540110679,-5.230575017301649E-9,5440.624893188477,2.805116844376043E-9,5.9604644775390625E-8,2.60770320892334E-8,51.5,-49.0625,1.3336539268493652E-5,-2.086162567138672E-6,
GalEph,27361650,21,0,29,324600.0,-6.502812611870468E-4,-2.1174173525650986E-12,0.0,2.561137080192566E-9,324600.0,2.3425440303981304E-4,0.9783870493363297,-6.493127607684806E-10,-2.745521058566638,0.7414339772783426,2.1612622916724082,-5.405939464791926E-9,5440.612632751465,3.1001291328220083E-9,1.1548399925231934E-7,1.1175870895385742E-8,158.75,-2.375,8.89413058757782E-6,-1.0244548320770264E-7,
GalEph,27361650,24,0,13,322800.0,-7.610588800162077E-4,-2.020783540501725E-11,0.0,-4.6566128730773926E-9,322800.0,7.032514549791813E-4,0.9763411393845396,-7.346734592413446E-10,1.0459699308117574,0.686333574513971,2.1661827420232016,-5.403082202918357E-9,5440.604267120361,3.1108438648478907E-9,-4.470348358154297E-8,-9.313225746154785E-9,141.09375,-20.9375,9.704381227493286E-6,-8.568167686462402E-7,
GalEph,27361650,25,0,3,321600.0,-5.271274712868035E-4,-8.384404281969182E-13,0.0,3.725290298461914E-9,321600.0,1.992679899558425E-4,0.9783962730348195,-7.053865250372657E-10,0.9016701213797743,-0.12879808870594942,2.1612720742056046,-5.387724420347926E-9,5440.611408233643,3.065841990339184E-9,-2.7939677238464355E-8,-5.587935447692871E-9,150.4375,-23.375,9.182840585708618E-6,-9.387731552124023E-7,
GalEph,27361650,26,0,29,324600.0,0.00211041874717921,-4.376943252282217E-11,0.0,6.752088665962219E-9,324600.0,3.07462178170681E-4,0.9870875322492231,6.143113028172643E-11,-2.6425312483533654,-1.4423572294080909,-2.0353671941962674,-5.963819845606209E-9,5440.614496231079,2.992267497094791E-9,-2.2351741790771484E-8,-6.705522537231445E-8,382.21875,48.96875,-1.2312084436416626E-6,2.173706889152527E-6,
GalEph,27361650,27,0,29,324600.0,2.298085018992424E-5,-7.986500349943526E-12,0.0,2.561137080192566E-9,324600.0,2.802757080644369E-4,0.9783595362360129,-6.007393089178131E-10,-1.351844887411453,0.13909592162916806,2.1612622185265047,-5.369866533638122E-9,5440.615129470825,3.069056409946949E-9,1.4901161193847656E-8,4.0978193283081055E-8,159.84375,-7.0,8.925795555114746E-6,-2.980232238769531E-7,
GalEph,27361650,30,0,29,324600.0,0.0031548007391393185,-3.058175934711471E-11,0.0,1.862645149230957E-9,324600.0,5.226307548582554E-4,0.9763236282551307,-6.29669085387696E-10,-1.144606819502662,0.7486525446577915,2.166108485764416,-5.392367470892475E-9,5440.6064739227295,3.0515556809713408E-9,-2.0489096641540527E-8,4.6566128730773926E-8,159.03125,-8.71875,8.931383490562439E-6,-3.725290298461914E-7,
GalEph,27361650,31,0,29,324600.0,-4.78597532492131E-4,-3.410605131648481E-13,0.0,5.3551048040390015E-9,324600.0,1.8197228200733662E-4,0.978363764069262,-7.393165097858937E-10,3.116168322335774,-0.40245039768589014,2.1612162199933382,-5.3366508643578855E-9,5440.613063812256,3.077985353301851E-9,-2.421438694000244E-8,-4.6566128730773926E-8,140.5,-8.15625,9.724870324134827E-6,-3.9301812648773193E-7,
GPSAtmosCoeffs,27361653,9.313225746154785E-9,0.0,-5.9604644775390625E-8,0.0,90112.0,0.0,-196608.0,0.0
GPSEph,27361653,1,2146,1,0,0,67,67,324000.0,7.543843239545822E-4,-8.071765478234738E-12,0.0,4.6566128730773926E-9,324000.0,0.010429343790747225,0.9830558280382741,8.821796034643272E-11,-2.2092096131222316,0.8195903010543686,-1.8100694596527285,-8.027120076056986E-9,5153.687646865845,4.095527738026494E-9,6.705522537231445E-8,-9.872019290924072E-8,369.71875,-10.90625,1.1175870895385742E-6,-5.420297384262085E-7,
GPSEph,27361653,2,2146,1,0,0,45,45,324000.0,-5.802051164209843E-4,-3.865352482534945E-12,0.0,-1.7695128917694092E-8,324000.0,0.020390492398291826,0.9618555498530204,2.5001041393725872E-11,-1.9622707705111047,-1.541238867219493,-1.892014344803257,-8.267130073436755E-9,5153.621814727783,4.599120143242972E-9,3.0547380447387695E-7,2.4586915969848633E-7,377.25,4.40625,1.3783574104309082E-7,6.277114152908325E-7,
GPSEph,27361653,3,2146,1,0,0,1,1,324000.0,-9.18055884540081E-5,-1.0231815394945443E-11,0.0,1.862645149230957E-9,324000.0,0.0032914247130975127,0.9684699642499296,-6.143113028172643E-11,2.9442781851416093,0.8418054742683597,-0.771186878320382,-7.824968798502001E-9,5153.654491424561,4.020524613845317E-9,2.7939677238464355E-8,-1.862645149230957E-9,228.71875,-117.84375,8.048489689826965E-6,-6.081536412239075E-6,
GPSEph,27361653,4,2146,1,0,0,837,837,324000.0,-1.8244097009301186E-4,-2.5011104298755527E-12,0.0,-4.190951585769653E-9,324000.0,0.0011329706758260727,0.9607552335747165,6.164542492224408E-10,-0.5071857558996719,-2.995860650284044,0.3086015930550485,-7.872827934884278E-9,5153.588747024536,4.422684222550107E-9,-1.30385160446167E-8,-1.1175870895385742E-8,183.25,1.5,1.0069459676742554E-5,1.2479722499847412E-7,
GPSEph,27361653,5,2146,1,0,0,1,1,324000.0,-3.458745777606964E-5,-1.0231815394945443E-12,0.0,-1.1175870895385742E-8,324000.0,0.0060001572128385305,0.9553834905514865,-1.6214961132502208E-10,0.5884923025979845,0.881008660792722,-0.806804515537938,-8.118195298276987E-9,5153.83229637146,4.366610458281321E-9,-1.2293457984924316E-7,5.9604644775390625E-8,214.71875,-132.9375,8.411705493927002E-6,-6.798654794692993E-6,
GPSEph,27361653,6,2146,1,0,0,79,79,324000.0,-1.735985279083252E-6,1.3642420526593924E-12,0.0,3.725290298461914E-9,324000.0,0.0023338370956480503,0.9825414031361264,-3.9287350761569224E-12,-1.888559839309237,-1.0606441504633353,-1.818328030123909,-8.26570144249997E-9,5153.711639404297,4.2819640752768495E-9,3.725290298461914E-9,1.30385160446167E-8,366.3125,-9.5,1.3709068298339844E-6,-4.377216100692749E-7,
GPSEph,27361653,7,2146,1,0,0,1,1,324000.0,7.003080099821091E-5,1.2960299500264227E-11,0.0,-1.1175870895385742E-8,324000.0,0.01447878172621131,0.9516148365662067,4.071598169835356E-11,-2.8288877669646686,-2.3506589047329913,1.331383913895492,-8.161054226380517E-9,5153.592437744141,5.229860701833256E-9,8.754432201385498E-8,-3.1478703022003174E-7,276.0,3.3125,5.1800161600112915E-6,-7.450580596923828E-9,
GPSEph,27361653,8,2146,1,0,0,133,133,324000.0,-1.150183379650116E-5,-1.3642420526593924E-12,0.0,5.122274160385132E-9,324000.0,0.006230308208614588,0.9683956114385508,2.5358199127921958E-11,0.009091342439475824,-0.0205161708780099,-2.883345006572999,-8.017833974967888E-9,5153.561368942261,4.203746531487907E-9,5.9604644775390625E-8,0.0,225.15625,109.03125,8.130446076393127E-6,5.552545189857483E-6,
GPSEph,27361653,9,2146,1,0,0,7,7,324000.0,-3.258907236158848E-4,-3.410605131648481E-12,0.0,1.3969838619232178E-9,324000.0,0.0019246834563091397,0.9536029919751454,5.843100531447933E-10,0.4323166017331688,1.8162597580063593,0.2585277885143835,-7.991404302637378E-9,5153.56210899353,4.59019119988807E-9,-1.862645149230957E-8,-1.862645149230957E-9,174.5625,0.53125,1.025572419166565E-5,-8.568167686462402E-8,
GPSEph,27361653,10,2146,1,0,0,41,41,324000.0,-6.848806515336037E-5,-8.071765478234738E-12,0.0,2.3283064365386963E-9,324000.0,0.006492306478321552,0.9683634916092024,-1.3607709672870795E-10,2.0240439317712227,-2.584603460891358,-0.774110233369854,-7.909615181506474E-9,5153.681484222412,4.054454598593945E-9,-1.30385160446167E-7,-1.1175870895385742E-8,225.28125,-145.5625,8.234754204750061E-6,-7.428228855133057E-6,
GPSEph,27361653,12,2146,1,0,0,3,3,324000.0,-5.654525011777878E-6,-5.229594535194337E-12,0.0,-1.257285475730896E-8,324000.0,0.008430419606156647,0.9747320684745632,-6.446697102239314E-10,2.7850384784315088,1.176844105080718,2.4413664658327168,-7.555314709183958E-9,5153.793630599976,4.038025342820924E-9,1.4901161193847656E-8,-2.0116567611694336E-7,175.90625,26.9375,1.0631978511810303E-5,1.2647360563278198E-6,
GPSEph,27361653,13,2146,1,0,0,51,51,324000.0,1.0094465687870979E-4,4.320099833421409E-12,0.0,-1.1175870895385742E-8,324000.0,0.004915653029456735,0.9684069490536652,6.318120317928724E-10,-0.6557968346504699,1.0199033287817254,0.40565545955529614,-7.902829184556748E-9,5153.679428100586,4.43054169270242E-9,-1.30385160446167E-8,9.499490261077881E-8,197.8125,9.375,9.758397936820984E-6,5.811452865600586E-7,
GPSEph,27361653,14,2146,1,0,0,347,347,324000.0,9.865453466773033E-5,1.5916157281026244E-12,0.0,-7.916241884231567E-9,324000.0,4.112577298656106E-4,0.9582145866722893,-5.153786104449491E-10,-2.6819030244830184,2.1780887988268285,2.4156801903190965,-7.90354350002514E-9,5153.745723724365,4.5276885964037554E-9,-3.725290298461914E-9,2.7939677238464355E-8,189.4375,11.90625,9.86829400062561E-6,6.631016731262207E-7,
GPSEph,27361653,15,2146,1,0,0,1,1,323984.0,-1.6718916594982147E-4,2.6147972675971687E-12,0.0,-1.0710209608078003E-8,323984.0,0.013051927089691162,0.9292608368152473,5.860958418157737E-10,-0.9961555148128092,0.9678950169639244,0.1619377972449726,-8.275344701323264E-9,5153.5718421936035,5.127713589853177E-9,1.471489667892456E-7,3.03611159324646E-7,153.71875,-9.25,1.0732561349868774E-5,-1.8998980522155762E-7,
GPSEph,27361653,16,2146,1,0,0,35,35,324000.0,-2.8502847999334335E-4,-5.6843418860808015E-12,0.0,-1.0244548320770264E-8,324000.0,0.01221917208749801,0.9748646220188075,-7.211014653418934E-10,0.8897150378025568,0.6567646149395463,2.4601532671212563,-7.838540792401453E-9,5153.655694961548,4.186245802512299E-9,-1.4156103134155273E-7,1.3224780559539795E-7,179.15625,16.90625,1.0808929800987244E-5,1.2665987014770508E-6,
GPSEph,27361653,17,2146,1,0,0,49,49,324000.0,3.997175954282284E-4,6.366462912410498E-12,0.0,-1.1175870895385742E-8,324000.0,0.013482009759172797,0.9830377141866166,1.132190017401586E-10,-0.0901881798311254,-1.5755391364662423,-2.806775305229023,-8.0531925906533E-9,5153.555646896362,3.974808423868217E-9,-2.1979212760925293E-7,6.891787052154541E-8,254.28125,108.15625,7.3481351137161255E-6,5.705282092094421E-6,
GPSEph,27361653,18,2146,1,0,0,349,349,324000.0,3.486531786620617E-4,1.4779288903810084E-12,0.0,-8.381903171539307E-9,324000.0,0.0011906754225492477,0.9667336048378762,1.2500520696862936E-11,-2.078332230673923,3.0339792454365364,-1.7969394319572294,-8.446423256003187E-9,5153.681234359741,4.591976988559051E-9,-3.725290298461914E-8,6.705522537231445E-8,373.90625,-10.75,5.252659320831299E-7,-5.904585123062134E-7,
GPSEph,27361653,19,2146,1,0,0,13,13,324000.0,-3.418466076254845E-5,5.002220859751105E-12,0.0,-1.5832483768463135E-8,324000.0,0.009042355930432677,0.9814641614646867,5.857386840815775E-11,2.460332914924308,1.7856088125171639,-2.761537280266559,-7.728893368003256E-9,5153.624969482422,3.93444959990406E-9,1.5087425708770752E-7,9.313225746154785E-9,261.46875,117.53125,6.530433893203735E-6,6.107613444328308E-6,
GPSEph,27361653,20,2146,1,0,0,109,109,324000.0,5.245343782007694E-4,-2.2737367544323206E-13,0.0,-8.381903171539307E-9,324000.0,0.005844941828399897,0.9370918358306464,-1.4250593594423747E-10,-2.827577950576987,2.8646055979785556,-0.9139653348733396,-8.256058183676676E-9,5153.682949066162,4.796628370253407E-9,-5.4016709327697754E-8,4.0978193283081055E-8,237.125,-145.40625,6.6943466663360596E-6,-7.282942533493042E-6,
GPSEph,27361653,21,2146,1,0,0,3,3,324000.0,9.830202907323837E-5,3.183231456205249E-12,0.0,-1.0244548320770264E-8,324000.0,0.024292709189467132,0.9559666711404416,-6.250260348431468E-11,0.17918442082464245,-1.1850651663323462,-1.8913507914950267,-8.912156941394882E-9,5153.711563110352,4.897346851296702E-9,-1.695007085800171E-7,-3.8370490074157715E-7,350.96875,7.5,1.7024576663970947E-6,2.980232238769531E-7,
GPSEph,27361653,22,2146,1,0,0,19,19,324000.0,-6.727525033056736E-4,7.73070496506989E-12,0.0,-1.816079020500183E-8,324000.0,0.006994837196543813,0.933819716722323,-3.928735076156923E-11,-1.033137418228957,-1.030000848721104,-0.8674048319672184,-8.39427822681056E-9,5153.6023025512695,4.916990526677487E-9,-1.30385160446167E-7,4.470348358154297E-8,230.5625,-122.125,7.0892274379730225E-6,-6.338581442832947E-6,
GPSEph,27361653,23,2146,1,0,0,61,61,324000.0,1.1836551129817963E-4,-2.2737367544323206E-13,0.0,-8.381903171539307E-9,324000.0,0.0010586068965494633,0.9633093437122271,-9.500395729615832E-11,-2.520711687039664,2.4548828370266875,-0.7971036599840802,-7.96926052311722E-9,5153.654340744019,4.183745698372927E-9,3.725290298461914E-9,1.1175870895385742E-8,225.125,-140.375,7.996335625648499E-6,-7.051974534988403E-6,
GPSEph,27361653,24,2146,1,0,0,15,15,323984.0,1.8780119717121124E-6,-5.684341886080801E-13,0.0,2.7939677238464355E-9,323984.0,0.010922201676294208,0.935027908579792,2.1429464051765033E-10,-1.8653824024702463,0.7318819282885898,1.2545956920892616,-8.417493479533305E-9,5153.6026973724365,5.6427350425639296E-9,1.3969838619232178E-7,-8.754432201385498E-8,272.59375,12.375,4.712492227554321E-6,5.271285772323608E-7,
GPSEph,27361653,25,2146,1,0,0,11,11,324000.0,8.70521180331707E-5,7.617018127348274E-12,0.0,5.587935447692871E-9,324000.0,0.009859914192929864,0.962005254648826,-6.400266596793823E-10,2.4199230082380647,0.9458974923130125,2.369044054548277,-7.68567728216553E-9,5153.665699005127,4.3837540295227336E-9,-3.166496753692627E-8,-2.0302832126617432E-7,173.125,11.5625,1.0576099157333374E-5,4.0046870708465576E-7,
GPSEph,27361653,26,2146,1,0,0,55,55,324000.0,4.961201921105385E-5,5.4569682106375694E-12,0.0,6.984919309616089E-9,324000.0,0.005751138203777373,0.9429288760410862,-6.850285341880889E-10,1.7777693578352667,0.2834060065977398,2.3286836778794435,-8.148553705683655E-9,5153.762380599976,4.980207445630194E-9,-7.636845111846924E-8,1.0058283805847168E-7,173.125,-4.34375,1.0292977094650269E-5,2.60770320892334E-8,
GPSEph,27361653,27,2146,1,0,0,25,25,324000.0,-8.266652002930641E-5,-7.275957614183426E-12,0.0,1.862645149230957E-9,324000.0,0.009116276516579092,0.9769361081673775,3.893019302737314E-11,-0.025541619248106193,0.5782491594042412,-2.8668633355423876,-8.007119242942005E-9,5153.679334640503,4.0983849999000625E-9,1.862645149230957E-8,1.1362135410308838E-7,230.8125,109.0625,7.927417755126953E-6,5.733221769332886E-6,
GPSEph,27361653,28,2146,1,0,0,1,1,324000.0,6.108698435127735E-4,-5.4569682106375694E-12,0.0,-1.1175870895385742E-8,324000.0,0.01784816780127585,0.9739381662396341,-5.353794435599297E-10,0.7047372200025334,-1.3497580947510195,2.4637344803388754,-8.059264272134634E-9,5153.669998168945,4.258034507085712E-9,-1.9371509552001953E-7,-1.9185245037078857E-7,194.625,11.53125,1.033395528793335E-5,5.066394805908203E-7,
GPSEph,27361653,29,2146,1,0,0,47,47,324000.0,-3.0099833384156227E-4,-7.048583938740194E-12,0.0,-1.0244548320770264E-8,324000.0,0.0015372856287285686,0.9848438694202318,1.4143446274164923E-10,0.10032825898326626,2.1406560533170125,-2.794504516615709,-7.823897325299413E-9,5153.684700012207,3.8176590208219404E-9,-3.725290298461914E-9,-5.9604644775390625E-8,245.53125,135.0625,7.625669240951538E-6,6.882473826408386E-6,
GPSEph,27361653,30,2146,1,0,0,7,7,323984.0,-3.8966722786426544E-4,-5.6843418860808015E-12,0.0,3.725290298461914E-9,323984.0,0.004886597744189203,0.9368429437261483,-2.0000833114980698E-11,-2.9004521233587934,-2.8419110089549715,1.3499369686704077,-8.444280309598011E-9,5153.733539581299,5.602733376333968E-9,-9.499490261077881E-8,-6.705522537231445E-8,271.46875,5.46875,5.163252353668213E-6,2.905726432800293E-7,
GPSEph,27361653,31,2146,1,0,0,5,5,324000.0,-1.020464114844799E-4,-2.2737367544323206E-12,0.0,-1.30385160446167E-8,324000.0,0.009964821627363563,0.9559467315670213,5.0002082787451745E-12,2.9568913946009827,0.24857496141347077,1.3480711951363082,-8.094265730085849E-9,5153.733228683472,5.167715256083138E-9,-1.4528632164001465E-7,-6.332993507385254E-8,279.34375,5.28125,5.168840289115906E-6,2.4586915969848633E-7,
GPSEph,27361653,32,2146,1,0,0,45,45,324000.0,1.9768252968788147E-5,1.1368683772161603E-12,0.0,4.6566128730773926E-10,324000.0,0.004617495695129037,0.9576110978545578,5.582375385484791E-10,0.7180239130580591,-2.429192102538762,0.26815843716669924,-7.942473693052513E-9,5153.6425857543945,4.5644758430259524E-9,9.313225746154785E-9,4.842877388000488E-8,178.59375,-3.625,1.0369345545768738E-5,-2.7939677238464355E-7,
Raw,27362432,23536641000000,18,,-1298203734023938443,0.292938232421875,1001.5385923907161,9.17061405716027,9.667824733854593,18,8,0.0,16399,326470583338166,10,37.8,-492.8860168457031,0.0731000006198883,16,-0.0,1902.9177342976868,1.57542003E9,,,,0,,1,0.0,1.57542003E9
Raw,27362432,23536641000000,18,,-1298203734023938443,0.292938232421875,1001.5385923907161,9.17061405716027,9.667824733854593,18,10,0.0,16399,326470586210758,24,28.6,-547.0166015625,1.1694999933242798,16,-0.0,1902.9177342976868,1.57542003E9,,,,0,,1,0.0,1.57542003E9
Raw,27362432,23536641000000,18,,-1298203734023938443,0.292938232421875,1001.5385923907161,9.17061405716027,9.667824733854593,18,16,0.0,16399,326470596474413,11,36.9,-202.3562774658203,0.06720000505447388,16,-0.0,1902.9177342976868,1.57542003E9,,,,0,,1,0.0,1.57542003E9
Raw,27362432,23536641000000,18,,-1298203734023938443,0.292938232421875,1001.5385923907161,9.17061405716027,9.667824733854593,18,18,0.0,16399,326470593250932,16,33.5,437.25360107421875,0.09389999508857727,16,-0.0,1902.9177342976868,1.57542003E9,,,,0,,1,0.0,1.57542003E9
Raw,27362432,23536641000000,18,,-1298203734023938443,0.292938232421875,1001.5385923907161,9.17061405716027,9.667824733854593,18,20,0.0,16399,326470590754682,12,35.6,-266.36737060546875,0.06350000202655792,16,-0.0,1902.9177342976868,1.57542003E9,,,,0,,1,0.0,1.57542003E9
Raw,27362432,23536641000000,18,,-1298203734023938443,0.292938232421875,1001.5385923907161,9.17061405716027,9.667824733854593,18,23,0.0,16399,326470589269339,10,38.3,-336.918212890625,0.05209999904036522,16,-0.0,1902.9177342976868,1.57542003E9,,,,0,,1,0.0,1.57542003E9
Raw,27362432,23536641000000,18,,-1298203734023938443,0.292938232421875,1001.5385923907161,9.17061405716027,9.667824733854593,18,26,0.0,16399,326470597036958,9,39.0,143.59083557128906,0.06000000238418579,16,-0.0,1902.9177342976868,1.57542003E9,,,,0,,1,0.0,1.57542003E9
Raw,27362432,23536641000000,18,,-1298203734023938443,0.292938232421875,1001.5385923907161,9.17061405716027,9.667824733854593,18,27,0.0,16399,326470593236555,24,28.6,-304.5890197753906,1.1800000667572021,16,-0.0,1902.9177342976868,1.57542003E9,,,,0,,1,0.0,1.57542003E9
Raw,27362432,23536641000000,18,,-1298203734023938443,0.292938232421875,1001.5385923907161,9.17061405716027,9.667824733854593,18,31,0.0,16399,326470584953504,19,31.5,657.4247436523438,0.1996999979019165,16,-0.0,1902.9177342976868,1.57542003E9,,,,0,,1,0.0,1.57542003E9
GalPseudorange,27362434,24,23567,326470664938443,326470.66493844305,326470.58622039104,2.3599078301902913E7
Raw,27362432,23536641000000,18,,-1298203734023938443,0.292938232421875,1001.5385923907161,9.17061405716027,9.667824733854593,18,24,0.0,23567,326470586220391,11,37.8,-102.12234497070312,0.07620000839233398,16,-0.0,1902.9177342976868,1.57542003E9,,,,0,,6,0.0,1.57542003E9
GalPseudorange,27362434,25,23567,326470664938443,326470.66493844305,326470.575404162,2.6841702192594886E7
Raw,27362432,23536641000000,18,,-1298203734023938443,0.292938232421875,1001.5385923907161,9.17061405716027,9.667824733854593,18,25,0.0,23567,326470575404162,14,34.9,-493.6543884277344,0.09800000488758087,16,-0.0,1902.9177342976868,1.57542003E9,,,,0,,6,0.0,1.57542003E9
GalPseudorange,27362434,33,23567,326470664938443,326470.66493844305,326470.578722318,2.5846944049538665E7
Raw,27362432,23536641000000,18,,-1298203734023938443,0.292938232421875,1001.5385923907161,9.17061405716027,9.667824733854593,18,33,0.0,23567,326470578722318,24,30.2,452.57550048828125,1.19350004196167,16,-0.0,1902.9177342976868,1.57542003E9,,,,0,,6,0.0,1.57542003E9
AndroidLocation,27362454,37.304658,-5.92549921,101.9990234375
Raw,27363414,23537634000000,18,,-1298203734023202958,-0.6732387542724609,1001.1863196268678,10.322047299327057,7.863164615243102,19,10,0.0,16399,326471578477106,24,28.6,-549.0377197265625,1.1875,16,-0.0,1902.9177342976868,1.57542003E9,,,,0,,1,0.0,1.57542003E9
Raw,27363414,23537634000000,18,,-1298203734023202958,-0.6732387542724609,1001.1863196268678,10.322047299327057,7.863164615243102,19,18,0.0,16399,326471585513958,11,37.2,436.5713195800781,0.050700001418590546,16,-0.0,1902.9177342976868,1.57542003E9,,,,0,,1,0.0,1.57542003E9
Raw,27363414,23537634000000,18,,-1298203734023202958,-0.6732387542724609,1001.1863196268678,10.322047299327057,7.863164615243102,19,20,0.0,16399,326471583020074,14,33.8,-266.9539489746094,0.09800000488758087,16,-0.0,1902.9177342976868,1.57542003E9,,,,0,,1,0.0,1.57542003E9
Raw,27363414,23537634000000,18,,-1298203734023202958,-0.6732387542724609,1001.1863196268678,10.322047299327057,7.863164615243102,19,23,0.0,16399,326471581535000,19,31.0,-336.8478698730469,0.19519999623298645,16,-0.0,1902.9177342976868,1.57542003E9,,,,0,,1,0.0,1.57542003E9
Raw,27363414,23537634000000,18,,-1298203734023202958,-0.6732387542724609,1001.1863196268678,10.322047299327057,7.863164615243102,19,26,0.0,16399,326471589300984,9,39.3,143.1246337890625,0.04800000041723251,16,-0.0,1902.9177342976868,1.57542003E9,,,,0,,1,0.0,1.57542003E9
Raw,27363414,23537634000000,18,,-1298203734023202958,-0.6732387542724609,1001.1863196268678,10.322047299327057,7.863164615243102,19,27,0.0,16399,326471585502135,17,32.2,-305.1766052246094,0.10490000247955322,16,-0.0,1902.9177342976868,1.57542003E9,,,,0,,1,0.0,1.57542003E9
Raw,27363414,23537634000000,18,,-1298203734023202958,-0.6732387542724609,1001.1863196268678,10.322047299327057,7.863164615243102,19,29,0.0,16399,326471573222077,35,25.9,526.6282348632812,0.7910000085830688,16,0.0,0.0,1.57542003E9,,,,0,,1,0.0,1.57542003E9
GalPseudorange,27363415,11,23567,326471657202958,326471.657202958,326471.57874619,2.3520747328257598E7
Raw,27363414,23537634000000,18,,-1298203734023202958,-0.6732387542724609,1001.1863196268678,10.322047299327057,7.863164615243102,19,11,0.0,23567,326471578746190,17,33.1,-407.86419677734375,0.13040000200271606,16,-0.0,1902.9177342976868,1.57542003E9,,,,0,,6,0.0,1.57542003E9
GalPseudorange,27363415,12,23567,326471657202958,326471.657202958,326471.58501191204,2.1642331116575543E7
Raw,27363414,23537634000000,18,,-1298203734023202958,-0.6732387542724609,1001.1863196268678,10.322047299327057,7.863164615243102,19,12,0.0,23567,326471585011912,24,29.4,45.953033447265625,1.1980000734329224,16,-0.0,1902.9177342976868,1.57542003E9,,,,0,,6,0.0,1.57542003E9
GalPseudorange,27363416,24,23567,326471657202958,326471.657202958,326471.578485234,2.3598979969925947E7
Raw,27363414,23537634000000,18,,-1298203734023202958,-0.6732387542724609,1001.1863196268678,10.322047299327057,7.863164615243102,19,24,0.0,23567,326471578485234,13,35.6,-102.7505874633789,0.08810000121593475,16,-0.0,1902.9177342976868,1.57542003E9,,,,0,,6,0.0,1.57542003E9
GalPseudorange,27363416,25,23567,326471657202958,326471.657202958,326471.56767032004,2.684120960784853E7
Raw,27363414,23537634000000,18,,-1298203734023202958,-0.6732387542724609,1001.1863196268678,10.322047299327057,7.863164615243102,19,25,0.0,23567,326471567670320,16,33.5,-495.3744812011719,0.10889999568462372,16,-0.0,1902.9177342976868,1.57542003E9,,,,0,,6,0.0,1.57542003E9
GalPseudorange,27363417,33,23567,326471657202958,326471.657202958,326471.57098535,2.584738862873602E7
Raw,27363414,23537634000000,18,,-1298203734023202958,-0.6732387542724609,1001.1863196268678,10.322047299327057,7.863164615243102,19,33,0.0,23567,326471570985350,11,37.9,451.8475646972656,0.07620000839233398,16,-0.0,1902.9177342976868,1.57542003E9,,,,0,,6,0.0,1.57542003E9
CalculatedPVT,27363419,Galileo,5,0,37.304593608579545,-5.925498358449191,79.4356168715749,0.921619907623304,-0.9026534569976656,0.15400563036385595,2.7696728495179914,326453.657202958
AndroidLocation,27363421,37.30466353,-5.92550147,101.67779541015625
CalculatedPVT,27363424,GPS,0,7,37.304648594220055,-5.925654389775102,98.10026966361329,0.09736220728153427,-0.3986155461208984,1.0297237596233066,2.2623275945864223,326453.657202958
Raw,27364431,23538627000000,18,,-1298203734022497885,-0.34641265869140625,1001.7001768574119,7.65998599822984,11.485644330375276,20,8,0.0,16399,326472567900912,19,31.3,-495.24530029296875,0.17419999837875366,16,-0.0,1902.9177342976868,1.57542003E9,,,,0,,1,0.0,1.57542003E9
Raw,27364431,23538627000000,18,,-1298203734022497885,-0.34641265869140625,1001.7001768574119,7.65998599822984,11.485644330375276,20,10,0.0,16399,326472570773927,31,26.6,-545.866943359375,0.7264999747276306,16,0.0,0.0,1.57542003E9,,,,0,,1,0.0,1.57542003E9
Raw,27364431,23538627000000,18,,-1298203734022497885,-0.34641265869140625,1001.7001768574119,7.65998599822984,11.485644330375276,20,16,0.0,16399,326472581035241,14,34.4,-202.87838745117188,0.0949999988079071,16,-0.0,1902.9177342976868,1.57542003E9,,,,0,,1,0.0,1.57542003E9
Raw,27364431,23538627000000,18,,-1298203734022497885,-0.34641265869140625,1001.7001768574119,7.65998599822984,11.485644330375276,20,18,0.0,16399,326472577807490,14,33.6,438.1593933105469,0.08900000154972076,16,-0.0,1902.9177342976868,1.57542003E9,,,,0,,1,0.0,1.57542003E9
Raw,27364431,23538627000000,18,,-1298203734022497885,-0.34641265869140625,1001.7001768574119,7.65998599822984,11.485644330375276,20,20,0.0,16399,326472575315967,24,29.1,-264.17626953125,1.183000087738037,16,-0.0,1902.9177342976868,1.57542003E9,,,,0,,1,0.0,1.57542003E9
Raw,27364431,23538627000000,18,,-1298203734022497885,-0.34641265869140625,1001.7001768574119,7.65998599822984,11.485644330375276,20,23,0.0,16399,326472573830963,17,31.8,-335.02484130859375,0.1168999969959259,16,-0.0,1902.9177342976868,1.57542003E9,,,,0,,1,0.0,1.57542003E9
Raw,27364431,23538627000000,18,,-1298203734022497885,-0.34641265869140625,1001.7001768574119,7.65998599822984,11.485644330375276,20,26,0.0,16399,326472581595426,8,39.7,144.257080078125,0.06199999898672104,16,-0.0,1902.9177342976868,1.57542003E9,,,,0,,1,0.0,1.57542003E9
Raw,27364431,23538627000000,18,,-1298203734022497885,-0.34641265869140625,1001.7001768574119,7.65998599822984,11.485644330375276,20,27,0.0,16399,326472577798065,8,40.0,-305.4162292480469,0.0560000017285347,16,-0.0,1902.9177342976868,1.57542003E9,,,,0,,1,0.0,1.57542003E9
Raw,27364431,23538627000000,18,,-1298203734022497885,-0.34641265869140625,1001.7001768574119,7.65998599822984,11.485644330375276,20,29,0.0,16399,326472565515411,19,31.4,527.4939575195312,0.1712000072002411,16,-0.0,1902.9177342976868,1.57542003E9,,,,0,,1,0.0,1.57542003E9
Raw,27364431,23538627000000,18,,-1298203734022497885,-0.34641265869140625,1001.7001768574119,7.65998599822984,11.485644330375276,20,31,0.0,16399,326472569508548,10,37.9,658.2344360351562,0.05209999904036522,16,-0.0,1902.9177342976868,1.57542003E9,,,,0,,1,0.0,1.57542003E9
GalPseudorange,27364433,12,23567,326472649497885,326472.649497885,326472.57730673405,2.1642362596768346E7
Raw,27364431,23538627000000,18,,-1298203734022497885,-0.34641265869140625,1001.7001768574119,7.65998599822984,11.485644330375276,20,12,0.0,23567,326472577306734,21,31.1,46.637245178222656,0.2881999909877777,16,-0.0,1902.9177342976868,1.57542003E9,,,,0,,6,0.0,1.57542003E9
GalPseudorange,27364434,24,23567,326472649497885,326472.649497885,326472.570780467,2.359888823413129E7
Raw,27364431,23538627000000,18,,-1298203734022497885,-0.34641265869140625,1001.7001768574119,7.65998599822984,11.485644330375276,20,24,0.0,23567,326472570780467,19,31.4,-102.48604583740234,0.19670000672340393,16,-0.0,1902.9177342976868,1.57542003E9,,,,0,,6,0.0,1.57542003E9
GalPseudorange,27364435,25,23567,326472649497885,326472.649497885,326472.55996689905,2.6840714353218857E7
Raw,27364431,23538627000000,18,,-1298203734022497885,-0.34641265869140625,1001.7001768574119,7.65998599822984,11.485644330375276,20,25,0.0,23567,326472559966899,14,34.8,-494.9613952636719,0.09800000488758087,16,-0.0,1902.9177342976868,1.57542003E9,,,,0,,6,0.0,1.57542003E9
GalPseudorange,27364435,31,23567,326472649497885,326472.649497885,326472.56728909304,2.4645575817050748E7
Raw,27364431,23538627000000,18,,-1298203734022497885,-0.34641265869140625,1001.7001768574119,7.65998599822984,11.485644330375276,20,31,0.0,23567,326472567289093,21,30.5,373.8991394042969,0.28519999980926514,16,-0.0,1902.9177342976868,1.57542003E9,,,,0,,6,0.0,1.57542003E9
GalPseudorange,27364435,33,23567,326472649497885,326472.649497885,326472.56327881303,2.584782751916239E7
Raw,27364431,23538627000000,18,,-1298203734022497885,-0.34641265869140625,1001.7001768574119,7.65998599822984,11.485644330375276,20,33,0.0,23567,326472563278813,16,33.4,452.63134765625,0.10889999568462372,16,-0.0,1902.9177342976868,1.57542003E9,,,,0,,6,0.0,1.57542003E9
CalculatedPVT,27364437,Galileo,5,0,37.304652859570155,-5.925418324421028,68.37531166593544,1.8429901510332978,-1.3594563987126467,-1.181126357407491,2.8910118211807907,326454.649497885
CalculatedPVT,27364442,GPS,0,10,37.3047862629365,-5.925555431144354,81.251312274253,1.1618962110980866,-1.9918894169435364,0.055670206483143136,1.4938495609299032,326454.649497885
AndroidLocation,27364442,37.30467527,-5.9255248,102.15093994140625
Raw,27365414,23539638000000,18,,-1298203734021882826,0.14110898971557617,1001.6264859586954,11.135590447864866,10.407675760435454,21,8,0.0,16399,326473578287513,19,31.5,-498.1201171875,0.1907000094652176,16,-0.0,1902.9177342976868,1.57542003E9,,,,0,,1,0.0,1.57542003E9
Raw,27365414,23539638000000,18,,-1298203734021882826,0.14110898971557617,1001.6264859586954,11.135590447864866,10.407675760435454,21,16,0.0,16399,326473591420797,12,36.2,-204.8925323486328,0.06499999761581421,16,-0.0,1902.9177342976868,1.57542003E9,,,,0,,1,0.0,1.57542003E9
Raw,27365414,23539638000000,18,,-1298203734021882826,0.14110898971557617,1001.6264859586954,11.135590447864866,10.407675760435454,21,18,0.0,16399,326473588190913,7,41.4,436.8342590332031,0.039500001817941666,16,-0.0,1902.9177342976868,1.57542003E9,,,,0,,1,0.0,1.57542003E9
Raw,27365414,23539638000000,18,,-1298203734021882826,0.14110898971557617,1001.6264859586954,11.135590447864866,10.407675760435454,21,20,0.0,16399,326473585701769,31,27.4,-265.5548095703125,0.6589999794960022,16,0.0,0.0,1.57542003E9,,,,0,,1,0.0,1.57542003E9
Raw,27365414,23539638000000,18,,-1298203734021882826,0.14110898971557617,1001.6264859586954,11.135590447864866,10.407675760435454,21,23,0.0,16399,326473584217078,27,27.6,-334.8788146972656,0.6875,16,0.0,0.0,1.57542003E9,,,,0,,1,0.0,1.57542003E9
Raw,27365414,23539638000000,18,,-1298203734021882826,0.14110898971557617,1001.6264859586954,11.135590447864866,10.407675760435454,21,26,0.0,16399,326473591979803,17,31.9,143.04833984375,0.11389999836683273,16,-0.0,1902.9177342976868,1.57542003E9,,,,0,,1,0.0,1.57542003E9
Raw,27365414,23539638000000,18,,-1298203734021882826,0.14110898971557617,1001.6264859586954,11.135590447864866,10.407675760435454,21,27,0.0,16399,326473588184004,5,44.2,-308.4021911621094,0.03189999982714653,16,-0.0,1902.9177342976868,1.57542003E9,,,,0,,1,0.0,1.57542003E9
Raw,27365414,23539638000000,18,,-1298203734021882826,0.14110898971557617,1001.6264859586954,11.135590447864866,10.407675760435454,21,29,0.0,16399,326473575898487,24,28.7,527.654541015625,1.183000087738037,16,-0.0,1902.9177342976868,1.57542003E9,,,,0,,1,0.0,1.57542003E9
Raw,27365414,23539638000000,18,,-1298203734021882826,0.14110898971557617,1001.6264859586954,11.135590447864866,10.407675760435454,21,31,0.0,16399,326473579891307,19,30.6,657.174560546875,0.19220000505447388,16,-0.0,1902.9177342976868,1.57542003E9,,,,0,,1,0.0,1.57542003E9
GalPseudorange,27365415,12,23567,326473659882826,326473.65988282603,326473.58769153303,2.1642405175299633E7
Raw,27365414,23539638000000,18,,-1298203734021882826,0.14110898971557617,1001.6264859586954,11.135590447864866,10.407675760435454,21,12,0.0,23567,326473587691533,24,29.3,44.295196533203125,1.1950000524520874,16,-0.0,1902.9177342976868,1.57542003E9,,,,0,,6,0.0,1.57542003E9
GalPseudorange,27365415,25,23567,326473659882826,326473.65988282603,326473.570353483,2.684022180337294E7
Raw,27365414,23539638000000,18,,-1298203734021882826,0.14110898971557617,1001.6264859586954,11.135590447864866,10.407675760435454,21,25,0.0,23567,326473570353483,14,34.9,-498.82745361328125,0.09650000184774399,16,-0.0,1902.9177342976868,1.57542003E9,,,,0,,6,0.0,1.57542003E9
GalPseudorange,27365415,31,23567,326473659882826,326473.65988282603,326473.57767277403,2.4645953561914157E7
Raw,27365414,23539638000000,18,,-1298203734021882826,0.14110898971557617,1001.6264859586954,11.135590447864866,10.407675760435454,21,31,0.0,23567,326473577672774,16,33.8,373.0522155761719,0.10589999705553055,16,-0.0,1902.9177342976868,1.57542003E9,,,,0,,6,0.0,1.57542003E9
GalPseudorange,27365416,33,23567,326473659882826,326473.65988282603,326473.57366220903,2.5848290700291853E7
Raw,27365414,23539638000000,18,,-1298203734021882826,0.14110898971557617,1001.6264859586954,11.135590447864866,10.407675760435454,21,33,0.0,23567,326473573662209,27,28.5,450.5012512207031,0.6330000162124634,16,0.0,0.0,1.57542003E9,,,,0,,6,0.0,1.57542003E9
CalculatedPVT,27365418,Galileo,4,0,37.30467467461007,-5.925466832724691,97.71124065108597,3.2001215250445663,-2.7189693350536324,-1.3700045845404356,3.3542846537839894,326455.65988282603
AndroidLocation,27365424,37.30469284,-5.92556546,101.85772705078125
Raw,27366410,23540629000000,18,,-1298203734021384664,-0.6249294281005859,1001.5079751610756,4.170335334850199,10.128665721557365,22,8,0.0,16399,326474568791040,13,34.9,-499.70709228515625,0.06709999591112137,16,-0.0,1902.9177342976868,1.57542003E9,,,,0,,1,0.0,1.57542003E9
Raw,27366410,23540629000000,18,,-1298203734021384664,-0.6249294281005859,1001.5079751610756,4.170335334850199,10.128665721557365,22,10,0.0,16399,326474571664454,31,27.5,-543.8783569335938,0.6679999828338623,16,0.0,0.0,1.57542003E9,,,,0,,1,0.0,1.57542003E9
Raw,27366410,23540629000000,18,,-1298203734021384664,-0.6249294281005859,1001.5079751610756,4.170335334850199,10.128665721557365,22,16,0.0,16399,326474581923367,6,41.7,-205.6614227294922,0.05640000104904175,16,-0.0,1902.9177342976868,1.57542003E9,,,,0,,1,0.0,1.57542003E9
Raw,27366410,23540629000000,18,,-1298203734021384664,-0.6249294281005859,1001.5079751610756,4.170335334850199,10.128665721557365,22,18,0.0,16399,326474578691345,8,40.2,436.5435791015625,0.057500001043081284,16,-0.0,1902.9177342976868,1.57542003E9,,,,0,,1,0.0,1.57542003E9
Raw,27366410,23540629000000,18,,-1298203734021384664,-0.6249294281005859,1001.5079751610756,4.170335334850199,10.128665721557365,22,20,0.0,16399,326474576204495,10,38.0,-263.63299560546875,0.06260000169277191,16,-0.0,1902.9177342976868,1.57542003E9,,,,0,,1,0.0,1.57542003E9
Raw,27366410,23540629000000,18,,-1298203734021384664,-0.6249294281005859,1001.5079751610756,4.170335334850199,10.128665721557365,22,23,0.0,16399,326474574720101,13,34.6,-333.99615478515625,0.07609999924898148,16,-0.0,1902.9177342976868,1.57542003E9,,,,0,,1,0.0,1.57542003E9
Raw,27366410,23540629000000,18,,-1298203734021384664,-0.6249294281005859,1001.5079751610756,4.170335334850199,10.128665721557365,22,26,0.0,16399,326474582481242,12,36.1,143.10305786132812,0.08150000125169754,16,-0.0,1902.9177342976868,1.57542003E9,,,,0,,1,0.0,1.57542003E9
Raw,27366410,23540629000000,18,,-1298203734021384664,-0.6249294281005859,1001.5079751610756,4.170335334850199,10.128665721557365,22,27,0.0,16399,326474578686883,6,42.8,-309.3436279296875,0.048900000751018524,16,-0.0,1902.9177342976868,1.57542003E9,,,,0,,1,0.0,1.57542003E9
Raw,27366410,23540629000000,18,,-1298203734021384664,-0.6249294281005859,1001.5079751610756,4.170335334850199,10.128665721557365,22,29,0.0,16399,326474566398549,24,29.0,527.9752807617188,0.6735000014305115,16,-0.0,1902.9177342976868,1.57542003E9,,,,0,,1,0.0,1.57542003E9
Raw,27366410,23540629000000,18,,-1298203734021384664,-0.6249294281005859,1001.5079751610756,4.170335334850199,10.128665721557365,22,31,0.0,16399,326474570390955,12,36.5,657.9409790039062,0.06350000202655792,16,-0.0,1902.9177342976868,1.57542003E9,,,,0,,1,0.0,1.57542003E9
GalPseudorange,27366412,11,23567,326474650384664,326474.650384664,326474.571932009,2.3519514278421894E7
Raw,27366410,23540629000000,18,,-1298203734021384664,-0.6249294281005859,1001.5079751610756,4.170335334850199,10.128665721557365,22,11,0.0,23567,326474571932009,9,39.7,-409.961181640625,0.06300000101327896,16,-0.0,1902.9177342976868,1.57542003E9,,,,0,,6,0.0,1.57542003E9
GalPseudorange,27366412,12,23567,326474650384664,326474.650384664,326474.578193286,2.1642430652617533E7
Raw,27366410,23540629000000,18,,-1298203734021384664,-0.6249294281005859,1001.5079751610756,4.170335334850199,10.128665721557365,22,12,0.0,23567,326474578193286,11,37.7,44.756839752197266,0.07620000839233398,16,-0.0,1902.9177342976868,1.57542003E9,,,,0,,6,0.0,1.57542003E9
GalPseudorange,27366412,24,23567,326474650384664,326474.650384664,326474.57166799,2.3598665185448144E7
Raw,27366410,23540629000000,18,,-1298203734021384664,-0.6249294281005859,1001.5079751610756,4.170335334850199,10.128665721557365,22,24,0.0,23567,326474571667990,13,35.4,-104.86580657958984,0.0835999995470047,16,-0.0,1902.9177342976868,1.57542003E9,,,,0,,6,0.0,1.57542003E9
GalPseudorange,27366412,25,23567,326474650384664,326474.650384664,326474.56085703603,2.6839707650157455E7
Raw,27366410,23540629000000,18,,-1298203734021384664,-0.6249294281005859,1001.5079751610756,4.170335334850199,10.128665721557365,22,25,0.0,23567,326474560857036,17,32.6,-500.37933349609375,0.1273999959230423,16,-0.0,1902.9177342976868,1.57542003E9,,,,0,,6,0.0,1.57542003E9
GalPseudorange,27366413,31,23567,326474650384664,326474.650384664,326474.568173384,2.464632170915781E7
Raw,27366410,23540629000000,18,,-1298203734021384664,-0.6249294281005859,1001.5079751610756,4.170335334850199,10.128665721557365,22,31,0.0,23567,326474568173384,19,31.9,373.8595275878906,0.19370000064373016,16,-0.0,1902.9177342976868,1.57542003E9,,,,0,,6,0.0,1.57542003E9
GalPseudorange,27366413,33,23567,326474650384664,326474.650384664,326474.5641626,2.5848724495254647E7
Raw,27366410,23540629000000,18,,-1298203734021384664,-0.6249294281005859,1001.5079751610756,4.170335334850199,10.128665721557365,22,33,0.0,23567,326474564162600,13,35.9,451.8680725097656,0.08509999513626099,16,-0.0,1902.9177342976868,1.57542003E9,,,,0,,6,0.0,1.57542003E9
AndroidLocation,27366419,37.30472367,-5.92560847,100.97882080078125
Raw,27367410,23541644000000,18,,-1298203734020449743,-0.09206008911132812,1001.5277657657862,3.851091347407174,9.654250915703019,23,8,0.0,16399,326475582857798,11,36.7,-498.2957763671875,0.07620000839233398,16,-0.0,1902.9177342976868,1.57542003E9,,,,0,,1,0.0,1.57542003E9
Raw,27367410,23541644000000,18,,-1298203734020449743,-0.09206008911132812,1001.5277657657862,3.851091347407174,9.654250915703019,23,10,0.0,16399,326475585731272,13,35.0,-541.7974853515625,0.06260000169277191,16,-0.0,1902.9177342976868,1.57542003E9,,,,0,,1,0.0,1.57542003E9
Raw,27367410,23541644000000,18,,-1298203734020449743,-0.09206008911132812,1001.5277657657862,3.851091347407174,9.654250915703019,23,16,0.0,16399,326475595989161,10,38.3,-204.97756958007812,0.06109999865293503,16,-0.0,1902.9177342976868,1.57542003E9,,,,0,,1,0.0,1.57542003E9
Raw,27367410,23541644000000,18,,-1298203734020449743,-0.09206008911132812,1001.5277657657862,3.851091347407174,9.654250915703019,23,18,0.0,16399,326475592754991,24,28.6,436.8334655761719,1.1785000562667847,16,-0.0,1902.9177342976868,1.57542003E9,,,,0,,1,0.0,1.57542003E9
Raw,27367410,23541644000000,18,,-1298203734020449743,-0.09206008911132812,1001.5277657657862,3.851091347407174,9.654250915703019,23,20,0.0,16399,326475590270499,10,38.1,-261.9066467285156,0.053599998354911804,16,-0.0,1902.9177342976868,1.57542003E9,,,,0,,1,0.0,1.57542003E9
Raw,27367410,23541644000000,18,,-1298203734020449743,-0.09206008911132812,1001.5277657657862,3.851091347407174,9.654250915703019,23,23,0.0,16399,326475588786319,16,33.0,-332.4796447753906,0.08639999479055405,16,-0.0,1902.9177342976868,1.57542003E9,,,,0,,1,0.0,1.57542003E9
Raw,27367410,23541644000000,18,,-1298203734020449743,-0.09206008911132812,1001.5277657657862,3.851091347407174,9.654250915703019,23,26,0.0,16399,326475596545889,7,41.0,144.56890869140625,0.051500000059604645,16,-0.0,1902.9177342976868,1.57542003E9,,,,0,,1,0.0,1.57542003E9
Raw,27367410,23541644000000,18,,-1298203734020449743,-0.09206008911132812,1001.5277657657862,3.851091347407174,9.654250915703019,23,27,0.0,16399,326475592753029,6,42.9,-308.71636962890625,0.039900001138448715,16,-0.0,1902.9177342976868,1.57542003E9,,,,0,,1,0.0,1.57542003E9
Raw,27367410,23541644000000,18,,-1298203734020449743,-0.09206008911132812,1001.5277657657862,3.851091347407174,9.654250915703019,23,29,0.0,16399,326475580462002,19,31.1,529.0499877929688,0.19370000064373016,16,-0.0,1902.9177342976868,1.57542003E9,,,,0,,1,0.0,1.57542003E9
GalPseudorange,27367412,11,23567,326475664449743,326475.664449743,326475.585998498,2.3519091564347368E7
Raw,27367410,23541644000000,18,,-1298203734020449743,-0.09206008911132812,1001.5277657657862,3.851091347407174,9.654250915703019,23,11,0.0,23567,326475585998498,16,33.8,-407.90594482421875,0.10589999705553055,16,-0.0,1902.9177342976868,1.57542003E9,,,,0,,6,0.0,1.57542003E9
GalPseudorange,27367412,12,23567,326475664449743,326475.664449743,326475.59225821204,2.164247651178975E7
Raw,27367410,23541644000000,18,,-1298203734020449743,-0.09206008911132812,1001.5277657657862,3.851091347407174,9.654250915703019,23,12,0.0,23567,326475592258212,13,36.1,45.81520080566406,0.09109999984502792,16,-0.0,1902.9177342976868,1.57542003E9,,,,0,,6,0.0,1.57542003E9
GalPseudorange,27367413,24,23567,326475664449743,326475.664449743,326475.585733441,2.3598553661106568E7
Raw,27367410,23541644000000,18,,-1298203734020449743,-0.09206008911132812,1001.5277657657862,3.851091347407174,9.654250915703019,23,24,0.0,23567,326475585733441,14,34.4,-103.88553619384766,0.0949999988079071,16,-0.0,1902.9177342976868,1.57542003E9,,,,0,,6,0.0,1.57542003E9
GalPseudorange,27367413,25,23567,326475664449743,326475.664449743,326475.57492376,2.6839214489553917E7
Raw,27367410,23541644000000,18,,-1298203734020449743,-0.09206008911132812,1001.5277657657862,3.851091347407174,9.654250915703019,23,25,0.0,23567,326475574923760,21,31.1,-500.33709716796875,0.28369998931884766,16,-0.0,1902.9177342976868,1.57542003E9,,,,0,,6,0.0,1.57542003E9
GalPseudorange,27367413,33,23567,326475664449743,326475.664449743,326475.578226144,2.584918467494666E7
Raw,27367410,23541644000000,18,,-1298203734020449743,-0.09206008911132812,1001.5277657657862,3.851091347407174,9.654250915703019,23,33,0.0,23567,326475578226144,11,37.8,451.447998046875,0.07620000839233398,16,-0.0,1902.9177342976868,1.57542003E9,,,,0,,6,0.0,1.57542003E9
CalculatedPVT,27367416,Galileo,5,0,37.30453908310795,-5.925493130844322,91.23386082798243,4.872625982512343,-4.432914748523787,-0.03185490043582595,2.770271485239678,326457.664449743
CalculatedPVT,27367421,GPS,0,9,37.30478984463749,-5.925562011344933,81.86838459898718,4.752740994234447,-4.58043095849351,-0.08274941989273366,1.6442713593680647,326457.664449743
AndroidLocation,27367426,37.30477681,-5.92565552,98.37396240234375
Raw,27368428,23542638000000,18,,-1298203734020185202,-0.1515369415283203,1001.1990088969469,7.850472761254294,7.858077216911978,24,8,0.0,16399,326476576594838,14,34.3,-495.7337646484375,0.08749999850988388,16,-0.0,1902.9177342976868,1.57542003E9,,,,0,,1,0.0,1.57542003E9
Raw,27368428,23542638000000,18,,-1298203734020185202,-0.1515369415283203,1001.1990088969469,7.850472761254294,7.858077216911978,24,10,0.0,16399,326476579468602,31,26.6,-540.08203125,0.7400000095367432,16,0.0,0.0,1.57542003E9,,,,0,,1,0.0,1.57542003E9
Raw,27368428,23542638000000,18,,-1298203734020185202,-0.1515369415283203,1001.1990088969469,7.850472761254294,7.858077216911978,24,16,0.0,16399,326476589725274,10,37.9,-202.81358337402344,0.05209999904036522,16,-0.0,1902.9177342976868,1.57542003E9,,,,0,,1,0.0,1.57542003E9
Raw,27368428,23542638000000,18,,-1298203734020185202,-0.1515369415283203,1001.1990088969469,7.850472761254294,7.858077216911978,24,18,0.0,16399,326476586489011,11,37.4,438.8803405761719,0.05220000445842743,16,-0.0,1902.9177342976868,1.57542003E9,,,,0,,1,0.0,1.57542003E9
Raw,27368428,23542638000000,18,,-1298203734020185202,-0.1515369415283203,1001.1990088969469,7.850472761254294,7.858077216911978,24,20,0.0,16399,326476584006769,11,36.6,-259.7522888183594,0.07919999957084656,16,-0.0,1902.9177342976868,1.57542003E9,,,,0,,1,0.0,1.57542003E9
Raw,27368428,23542638000000,18,,-1298203734020185202,-0.1515369415283203,1001.1990088969469,7.850472761254294,7.858077216911978,24,23,0.0,16399,326476582522847,14,34.2,-330.0355529785156,0.09650000184774399,16,-0.0,1902.9177342976868,1.57542003E9,,,,0,,1,0.0,1.57542003E9
Raw,27368428,23542638000000,18,,-1298203734020185202,-0.1515369415283203,1001.1990088969469,7.850472761254294,7.858077216911978,24,26,0.0,16399,326476590280842,6,42.9,147.1140594482422,0.03689999878406525,16,-0.0,1902.9177342976868,1.57542003E9,,,,0,,1,0.0,1.57542003E9
Raw,27368428,23542638000000,18,,-1298203734020185202,-0.1515369415283203,1001.1990088969469,7.850472761254294,7.858077216911978,24,27,0.0,16399,326476586489492,5,44.0,-306.37139892578125,0.02890000119805336,16,-0.0,1902.9177342976868,1.57542003E9,,,,0,,1,0.0,1.57542003E9
Raw,27368428,23542638000000,18,,-1298203734020185202,-0.1515369415283203,1001.1990088969469,7.850472761254294,7.858077216911978,24,31,0.0,16399,326476578187110,16,32.9,663.8943481445312,0.10140000283718109,16,-0.0,1902.9177342976868,1.57542003E9,,,,0,,1,0.0,1.57542003E9
GalPseudorange,27368436,11,23567,326476658185202,326476.65818520205,326476.579735307,2.351868685889755E7
Raw,27368428,23542638000000,18,,-1298203734020185202,-0.1515369415283203,1001.1990088969469,7.850472761254294,7.858077216911978,24,11,0.0,23567,326476579735307,12,37.2,-405.00653076171875,0.08300000429153442,16,-0.0,1902.9177342976868,1.57542003E9,,,,0,,6,0.0,1.57542003E9
GalPseudorange,27368436,12,23567,326476658185202,326476.65818520205,326476.58599350305,2.1642526890568364E7
Raw,27368428,23542638000000,18,,-1298203734020185202,-0.1515369415283203,1001.1990088969469,7.850472761254294,7.858077216911978,24,12,0.0,23567,326476585993503,14,34.6,47.984066009521484,0.10099999606609344,16,-0.0,1902.9177342976868,1.57542003E9,,,,0,,6,0.0,1.57542003E9
GalPseudorange,27368437,24,23567,326476658185202,326476.65818520205,326476.579469243,2.3598450844423648E7
Raw,27368428,23542638000000,18,,-1298203734020185202,-0.1515369415283203,1001.1990088969469,7.850472761254294,7.858077216911978,24,24,0.0,23567,326476579469243,27,28.5,-101.83566284179688,0.6360000371932983,16,0.0,0.0,1.57542003E9,,,,0,,6,0.0,1.57542003E9
GalPseudorange,27368437,31,23567,326476658185202,326476.65818520205,326476.57597144303,2.4647064896481127E7
Raw,27368428,23542638000000,18,,-1298203734020185202,-0.1515369415283203,1001.1990088969469,7.850472761254294,7.858077216911978,24,31,0.0,23567,326476575971443,21,30.5,379.43048095703125,0.28519999980926514,16,-0.0,1902.9177342976868,1.57542003E9,,,,0,,6,0.0,1.57542003E9
GalPseudorange,27368438,33,23567,326476658185202,326476.65818520205,326476.571960135,2.584962478688827E7
Raw,27368428,23542638000000,18,,-1298203734020185202,-0.1515369415283203,1001.1990088969469,7.850472761254294,7.858077216911978,24,33,0.0,23567,326476571960135,24,30.2,453.29547119140625,1.1950000524520874,16,-0.0,1902.9177342976868,1.57542003E9,,,,0,,6,0.0,1.57542003E9
CalculatedPVT,27368442,Galileo,5,0,37.304800427172104,-5.925723638427141,73.46030360041186,6.451558768826719,-5.058331089929192,-0.43980257586684335,2.950363253106032,326458.65818520205
AndroidLocation,27368455,37.30483235,-5.92570454,97.12432861328125
Raw,27369411,23543628000000,18,,-1298203734019276498,-0.6455440521240234,1000.9758407250047,15.145777314443732,6.966223762564034,25,8,0.0,16399,326477565687834,16,32.7,-495.6471862792969,0.08190000057220459,16,-0.0,1902.9177342976868,1.57542003E9,,,,0,,1,0.0,1.57542003E9
Raw,27369411,23543628000000,18,,-1298203734019276498,-0.6455440521240234,1000.9758407250047,15.145777314443732,6.966223762564034,25,10,0.0,16399,326477568561509,21,30.2,-537.9609375,0.26269999146461487,16,-0.0,1902.9177342976868,1.57542003E9,,,,0,,1,0.0,1.57542003E9
Raw,27369411,23543628000000,18,,-1298203734019276498,-0.6455440521240234,1000.9758407250047,15.145777314443732,6.966223762564034,25,16,0.0,16399,326477578817235,9,39.0,-203.0559844970703,0.061500001698732376,16,-0.0,1902.9177342976868,1.57542003E9,,,,0,,1,0.0,1.57542003E9
Raw,27369411,23543628000000,18,,-1298203734019276498,-0.6455440521240234,1000.9758407250047,15.145777314443732,6.966223762564034,25,18,0.0,16399,326477575578840,12,36.4,438.3650207519531,0.07099999487400055,16,-0.0,1902.9177342976868,1.57542003E9,,,,0,,1,0.0,1.57542003E9
Raw,27369411,23543628000000,18,,-1298203734019276498,-0.6455440521240234,1000.9758407250047,15.145777314443732,6.966223762564034,25,20,0.0,16399,326477573098954,10,38.4,-259.1579895019531,0.05810000002384186,16,-0.0,1902.9177342976868,1.57542003E9,,,,0,,1,0.0,1.57542003E9
Raw,27369411,23543628000000,18,,-1298203734019276498,-0.6455440521240234,1000.9758407250047,15.145777314443732,6.966223762564034,25,23,0.0,16399,326477571615255,13,34.9,-329.49639892578125,0.07159999758005142,16,-0.0,1902.9177342976868,1.57542003E9,,,,0,,1,0.0,1.57542003E9
Raw,27369411,23543628000000,18,,-1298203734019276498,-0.6455440521240234,1000.9758407250047,15.145777314443732,6.966223762564034,25,26,0.0,16399,326477579371667,5,43.9,147.47152709960938,0.04839999973773956,16,-0.0,1902.9177342976868,1.57542003E9,,,,0,,1,0.0,1.57542003E9
Raw,27369411,23543628000000,18,,-1298203734019276498,-0.6455440521240234,1000.9758407250047,15.145777314443732,6.966223762564034,25,27,0.0,16399,326477575581807,7,40.9,-306.522216796875,0.05000000074505806,16,-0.0,1902.9177342976868,1.57542003E9,,,,0,,1,0.0,1.57542003E9
GalPseudorange,27369412,11,23567,326477647276498,326477.647276498,326477.568827914,2.35182938276434E7
Raw,27369411,23543628000000,18,,-1298203734019276498,-0.6455440521240234,1000.9758407250047,15.145777314443732,6.966223762564034,25,11,0.0,23567,326477568827914,19,32.2,-403.9991149902344,0.19370000064373016,16,-0.0,1902.9177342976868,1.57542003E9,,,,0,,6,0.0,1.57542003E9
GalPseudorange,27369413,12,23567,326477647276498,326477.647276498,326477.575084651,2.164257126647208E7
Raw,27369411,23543628000000,18,,-1298203734019276498,-0.6455440521240234,1000.9758407250047,15.145777314443732,6.966223762564034,25,12,0.0,23567,326477575084651,16,33.5,48.22138595581055,0.10889999568462372,16,-0.0,1902.9177342976868,1.57542003E9,,,,0,,6,0.0,1.57542003E9
GalPseudorange,27369413,33,23567,326477647276498,326477.647276498,326477.56104991405,2.5850079557012785E7
Raw,27369411,23543628000000,18,,-1298203734019276498,-0.6455440521240234,1000.9758407250047,15.145777314443732,6.966223762564034,25,33,0.0,23567,326477561049914,19,31.9,452.14666748046875,0.19519999623298645,16,-0.0,1902.9177342976868,1.57542003E9,,,,0,,6,0.0,1.57542003E9
AndroidLocation,27369439,37.30489523,-5.92574444,96.72412109375
Raw,27370431,23544641000000,18,,-1298203734019141491,-0.6366338729858398,1001.2806160375476,15.932584781084445,8.268260537130628,26,8,0.0,16399,326478578554491,31,26.6,-496.6569519042969,0.7384999990463257,16,0.0,0.0,1.57542003E9,,,,0,,1,0.0,1.57542003E9
Raw,27370431,23544641000000,18,,-1298203734019141491,-0.6366338729858398,1001.2806160375476,15.932584781084445,8.268260537130628,26,10,0.0,16399,326478581428248,31,27.3,-537.0182495117188,0.6829999685287476,16,0.0,0.0,1.57542003E9,,,,0,,1,0.0,1.57542003E9
Raw,27370431,23544641000000,18,,-1298203734019141491,-0.6366338729858398,1001.2806160375476,15.932584781084445,8.268260537130628,26,16,0.0,16399,326478591682913,13,35.2,-204.4010467529297,0.07159999758005142,16,-0.0,1902.9177342976868,1.57542003E9,,,,0,,1,0.0,1.57542003E9
Raw,27370431,23544641000000,18,,-1298203734019141491,-0.6366338729858398,1001.2806160375476,15.932584781084445,8.268260537130628,26,18,0.0,16399,326478588442470,24,29.4,437.09759521484375,1.1725000143051147,16,-0.0,1902.9177342976868,1.57542003E9,,,,0,,1,0.0,1.57542003E9
Raw,27370431,23544641000000,18,,-1298203734019141491,-0.6366338729858398,1001.2806160375476,15.932584781084445,8.268260537130628,26,20,0.0,16399,326478585964780,9,39.3,-259.07073974609375,0.041999999433755875,16,-0.0,1902.9177342976868,1.57542003E9,,,,0,,1,0.0,1.57542003E9
Raw,27370431,23544641000000,18,,-1298203734019141491,-0.6366338729858398,1001.2806160375476,15.932584781084445,8.268260537130628,26,23,0.0,16399,326478584481293,10,37.8,-329.3143005371094,0.07459999620914459,16,-0.0,1902.9177342976868,1.57542003E9,,,,0,,1,0.0,1.57542003E9
