?Y3??2,20,57,000,,18,54,000,43,26,52,000,45,23,50,000,*71
$GPGSV,3,2,12,31,42,000,47,10,36,000,,25,29,000,38,16,23,000,*79
$GPGSV,3,3,12,29,22,000,,27,10,000,,32,02,000,,15,-4,000,*6B
$GPRMC,181929.580,V,,,,,,,210221,,*2A
$GPGGA,181930.580,,,,,0,00,,,M,0.0,M,,0000*59
$GPGSA,A,1,,,,,,,,,,,,,,,*1E
$GPRMC,181930.580,V,,,,,,,210221,,*22
$GPGGA,181931.580,,,,,0,00,,,M,0.0,M,,0000*58
$GPGSA,A,1,,,,,,,,,,,,,,,*1E
$GPRMC,181931.580,V,,,,,,,210221,,*23
$GPGGA,181932.580,,,,,0,00,,,M,0.0,M,,0000*5B
$GPGSA,A,1,,,,,,,,,,,,,,,*1E
$GPRMC,181932.580,V,,,,,,,210221,,*20
$GPGGA,181933.580,,,,,0,00,,,M,0.0,M,,0000*5A
$GPGSA,A,1,,,,,,,,,,,,,,,*1E
$GPRMC,181933.580,V,,,,,,,210221,,*21
$GPGGA,181934.580,,,,,0,00,,,M,0.0,M,,0000*5D
$GPGSA,A,1,,,,,,,,,,,,,,,*1E
$GPGSV,3,1,12,20,57,000,,18,54,000,43,26,52,000,45,23,50,000,*71
$GPGSV,3,2,12,31,42,000,47,10,36,000,,25,29,000,38,16,23,000,*79
$GPGSV,3,3,12,29,22,000,,27,10,000,,32,02,000,,15,-4,000,*6B
$GPRMC,181934.580,V,,,,,,,210221,,*26
$GPGGA,181935.578,3718.3161,N,00555.5746,W,1,03,2.3,-49.5,M,49.5,M,,0000*51
$GPGSA,A,2,18,25,31,,,,,,,,,,2.5,2.3,1.0*38
$GPRMC,181935.578,A,3718.3161,N,00555.5746,W,0.17,301.88,210221,,*17
$GPGGA,181936.580,,,,,0,00,,,M,0.0,M,,0000*5F
$GPGSA,A,1,,,,,,,,,,,,,,,*1E
$GPRMC,181936.580,V,,,,,,,210221,,*24
$GPGGA,181937.582,3718.3149,N,00555.5749,W,0,03,,-49.5,M,49.5,M,,0000*7D
$GPGSA,A,1,18,25,31,,,,,,,,,,,,*12
$GPRMC,181937.582,A,3718.3149,N,00555.5749,W,,,210221,,*11
$GPGGA,181938.582,,,,,0,00,,,M,0.0,M,,0000*53
$GPGSA,A,1,,,,,,,,,,,,,,,*1E
$GPRMC,181938.582,V,,,,,,,210221,,*28
$GPGGA,181939.582,3718.3143,N,00555.5724,W,1,03,2.3,-49.5,M,49.5,M,,0000*5C
$GPGSA,A,2,18,25,31,,,,,,,,,,2.5,2.3,1.0*38
$GPGSV,3,1,12,18,58,062,45,31,34,191,47,25,02,123,38,26,82,011,45*77
$GPGSV,3,2,12,16,53,320,46,27,34,275,43,20,28,120,34,23,21,121,38*7B
$GPGSV,3,3,12,29,15,062,45,10,10,149,43,08,01,261,,04,00,276,30*73
$GPRMC,181939.582,A,3718.3143,N,00555.5724,W,0.50,121.13,210221,,*1B
$GPGGA,181940.582,,,,,0,00,,,M,0.0,M,,0000*5C
$GPGSA,A,1,,,,,,,,,,,,,,,*1E
$GPRMC,181940.582,V,,,,,,,210221,,*27
$GPGGA,181941.582,3718.3148,N,00555.5736,W,1,03,2.3,-49.5,M,49.5,M,,0000*5B
$GPGSA,A,2,18,25,31,,,,,,,,,,2.5,2.3,1.0*38
$GPRMC,181941.582,A,3718.3148,N,00555.5736,W,0.20,306.31,210221,,*1C
$GPGGA,181942.582,,,,,0,00,,,M,0.0,M,,0000*5E
$GPGSA,A,1,,,,,,,,,,,,,,,*1E
$GPRMC,181942.582,V,,,,,,,210221,,*25
$GPGGA,181943.582,3718.3140,N,00555.5720,W,1,03,2.3,-49.5,M,49.5,M,,0000*56
$GPGSA,A,2,18,25,31,,,,,,,,,,2.5,2.3,1.0*38
$GPRMC,181943.582,A,3718.3140,N,00555.5720,W,0.19,303.40,210221,,*18
$GPGGA,181944.582,,,,,0,00,,,M,0.0,M,,0000*58
$GPGSA,A,1,,,,,,,,,,,,,,,*1E
$GPGSV,3,1,12,18,58,062,45,31,34,191,47,25,02,123,37,26,82,011,45*78
$GPGSV,3,2,12,16,53,320,46,27,34,275,43,20,28,120,34,23,21,121,38*7B
$GPGSV,3,3,12,29,15,062,45,10,10,149,43,08,01,261,,04,00,276,29*7B
$GPRMC,181944.582,V,,,,,,,210221,,*23
$GPGGA,181945.582,3718.3139,N,00555.5729,W,1,03,2.3,-49.5,M,49.5,M,,0000*57
$GPGSA,A,2,18,25,31,,,,,,,,,,2.5,2.3,1.0*38
$GPRMC,181945.582,A,3718.3139,N,00555.5729,W,0.17,301.88,210221,,*11
$GPGGA,181946.582,,,,,0,00,,,M,0.0,M,,0000*5A
$GPGSA,A,1,,,,,,,,,,,,,,,*1E
$GPRMC,181946.582,V,,,,,,,210221,,*21
$GPGGA,181947.582,3718.3142,N,00555.5731,W,1,03,2.3,-49.5,M,49.5,M,,0000*50
$GPGSA,A,2,18,25,31,,,,,,,,,,2.5,2.3,1.0*38
$GPRMC,181947.582,A,3718.3142,N,00555.5731,W,0.22,305.45,210221,,*15
$GPGGA,181948.582,,,,,0,00,,,M,0.0,M,,0000*54
$GPGSA,A,1,,,,,,,,,,,,,,,*1E
$GPRMC,181948.582,V,,,,,,,210221,,*2F
$GPGGA,181949.582,3718.3140,N,00555.5718,W,1,03,2.3,-49.5,M,49.5,M,,0000*57
$GPGSA,A,2,18,25,31,,,,,,,,,,2.5,2.3,1.0*38
$GPGSV,3,1,12,18,58,062,45,31,34,191,47,25,02,123,37,26,82,011,46*7B
$GPGSV,3,2,12,16,53,320,46,27,34,275,43,20,28,120,34,23,21,121,39*7A
$GPGSV,3,3,12,29,15,062,45,10,10,149,42,08,01,261,,04,00,276,21*72
$GPRMC,181949.582,A,3718.3140,N,00555.5718,W,0.19,304.39,210221,,*10
$GPGGA,181950.582,,,,,0,00,,,M,0.0,M,,0000*5D
$GPGSA,A,1,,,,,,,,,,,,,,,*1E
$GPRMC,181950.582,V,,,,,,,210221,,*26
$GPGGA,181951.582,3718.3138,N,00555.5716,W,1,03,2.3,-49.5,M,49.5,M,,0000*5F
$GPGSA,A,2,18,25,31,,,,,,,,,,2.5,2.3,1.0*38
$GPRMC,181951.582,A,3718.3138,N,00555.5716,W,0.22,306.72,210221,,*1D
$GPGGA,181952.582,,,,,0,00,,,M,0.0,M,,0000*5F
$GPGSA,A,1,,,,,,,,,,,,,,,*1E
$GPRMC,181952.582,V,,,,,,,210221,,*24
$GPGGA,181953.582,3718.3137,N,00555.5711,W,1,03,2.3,-49.5,M,49.5,M,,0000*55
$GPGSA,A,2,18,25,31,,,,,,,,,,2.5,2.3,1.0*38
$GPRMC,181953.582,A,3718.3137,N,00555.5711,W,0.19,309.70,210221,,*12
$GPGGA,181954.582,,,,,0,00,,,M,0.0,M,,0000*59
$GPGSA,A,1,,,,,,,,,,,,,,,*1E
$GPGSV,3,1,12,18,58,062,45,31,34,191,47,25,02,123,36,26,82,011,46*7A
$GPGSV,3,2,12,16,53,320,46,27,34,275,44,20,28,120,35,23,21,121,39*7C
$GPGSV,3,3,12,29,15,062,45,10,10,149,43,08,01,261,,04,00,276,21*73
$GPRMC,181954.582,V,,,,,,,210221,,*22
$GPGGA,181955.582,3718.3135,N,00555.5707,W,1,03,2.3,-49.5,M,49.5,M,,0000*56
$GPGSA,A,2,18,25,31,,,,,,,,,,2.5,2.3,1.0*38
$GPRMC,181955.582,A,3718.3135,N,00555.5707,W,0.17,301.88,210221,,*10
$GPGGA,181956.581,,,,,0,00,,,M,0.0,M,,0000*58
$GPGSA,A,1,,,,,,,,,,,,,,,*1E
$GPRMC,181956.581,V,,,,,,,210221,,*23
$GPGGA,181957.581,3718.3133,N,00555.5704,W,1,03,2.3,-49.5,M,49.5,M,,0000*52
$GPGSA,A,2,18,25,31,,,,,,,,,,2.5,2.3,1.0*38
$GPRMC,181957.581,A,3718.3133,N,00555.5704,W,0.17,294.91,210221,,*11
$GPGGA,181958.581,,,,,0,00,,,M,0.0,M,,0000*56
$GPGSA,A,1,,,,,,,,,,,,,,,*1E
$GPRMC,181958.581,V,,,,,,,210221,,*2D
$GPGGA,181959.581,3718.2926,N,00555.5444,W,1,04,2.0,4.5,M,49.5,M,,0000*46
$GPGSA,A,3,18,25,31,26,,,,,,,,,2.2,2.0,1.0*39
$GPGSV,3,1,12,18,58,062,45,31,34,191,47,25,02,123,35,26,82,011,46*79
$GPGSV,3,2,12,16,53,320,46,27,34,275,44,20,28,120,35,23,21,121,39*7C
$GPGSV,3,3,12,29,15,062,45,10,10,149,43,08,01,261,,04,00,276,21*73
$GPRMC,181959.581,A,3718.2926,N,00555.5444,W,0.17,294.64,210221,,*1F
$GPGGA,182000.581,3718.2969,N,00555.5477,W,1,03,4.2,-12.3,M,49.5,M,,0000*54
$GPGSA,A,2,18,31,26,,,,,,,,,,4.4,4.2,1.0*3B
$GPRMC,182000.581,A,3718.2969,N,00555.5477,W,0.10,109.66,210221,,*10
$GPGGA,182108.000,3718.2783,N,00555.5288,W,1,09,1.1,55.3,M,49.5,M,,0000*7F
$GPGSA,A,3,18,31,26,29,20,16,27,23,10,,,,2.0,1.1,1.7*32
$GPRMC,182108.000,A,3718.2783,N,00555.5288,W,0.06,102.43,210221,,*12
$GPGGA,182109.000,3718.2783,N,00555.5288,W,1,09,1.1,55.3,M,49.5,M,,0000*7E
$GPGSA,A,3,18,31,26,29,20,16,27,23,10,,,,2.0,1.1,1.7*32
$GPGSV,3,1,12,26,83,015,46,18,58,061,44,16,54,321,46,27,35,275,43*72
$GPGSV,3,2,12,31,33,191,48,20,28,119,37,23,22,120,37,29,15,063,45*74
$GPGSV,3,3,12,10,11,149,44,25,01,123,34,08,01,262,32,04,00,275,*7C
$GPRMC,182109.000,A,3718.2783,N,00555.5288,W,0.05,110.19,210221,,*1C
$GPGGA,182110.000,3718.2783,N,00555.5288,W,1,09,1.1,55.4,M,49.5,M,,0000*71
$GPGSA,A,3,18,31,26,29,20,16,27,23,10,,,,2.0,1.1,1.7*32
$GPRMC,182110.000,A,3718.2783,N,00555.5288,W,0.05,105.40,210221,,*1C
$GPGGA,182111.000,3718.2783,N,00555.5288,W,1,09,1.1,55.4,M,49.5,M,,0000*70
$GPGSA,A,3,18,31,26,29,20,16,27,23,10,,,,2.0,1.1,1.7*32
$GPRMC,182111.000,A,3718.2783,N,00555.5288,W,0.06,104.23,210221,,*1A
$GPGGA,182112.000,3718.2783,N,00555.5288,W,1,09,1.1,55.5,M,49.5,M,,0000*72
$GPGSA,A,3,18,31,26,29,20,16,27,23,10,,,,2.0,1.1,1.7*32
$GPRMC,182112.000,A,3718.2783,N,00555.5288,W,0.05,108.02,210221,,*15
$GPGGA,182113.000,3718.2783,N,00555.5288,W,1,09,1.1,55.5,M,49.5,M,,0000*73
$GPGSA,A,3,18,31,26,29,20,16,27,23,10,,,,2.0,1.1,1.7*32
$GPRMC,182113.000,A,3718.2783,N,00555.5288,W,0.07,351.72,210221,,*1F
$GPGGA,182114.000,3718.2785,N,00555.5290,W,1,09,1.1,55.6,M,49.5,M,,0000*78
$GPGSA,A,3,18,31,26,29,20,16,27,23,10,,,,2.0,1.1,1.7*32
$GPGSV,3,1,12,26,83,016,46,18,58,060,44,16,54,321,46,27,35,275,43*70
$GPGSV,3,2,12,31,33,191,48,20,28,119,37,23,22,120,39,29,15,063,45*7A
$GPGSV,3,3,12,10,11,149,44,25,01,123,34,08,01,262,32,04,00,275,*7C
$GPRMC,182114.000,A,3718.2785,N,00555.5290,W,1.62,320.91,210221,,*1E
$GPGGA,182115.000,3718.2790,N,00555.5297,W,1,09,1.1,55.6,M,49.5,M,,0000*7A
$GPGSA,A,3,18,31,26,29,20,16,27,23,10,,,,2.0,1.1,1.7*32
$GPRMC,182115.000,A,3718.2790,N,00555.5297,W,3.70,311.50,210221,,*12
$GPGGA,182116.000,3718.2798,N,00555.5310,W,1,09,1.1,55.6,M,49.5,M,,0000*7F
$GPGSA,A,3,18,31,26,29,20,16,27,23,10,,,,2.0,1.1,1.7*32
$GPRMC,182116.000,A,3718.2798,N,00555.5310,W,5.37,306.10,210221,,*10
$GPGGA,182117.000,3718.2808,N,00555.5329,W,1,09,1.1,55.6,M,49.5,M,,0000*72
$GPGSA,A,3,18,31,26,29,20,16,27,23,10,,,,2.0,1.1,1.7*32
$GPRMC,182117.000,A,3718.2808,N,00555.5329,W,7.36,303.99,210221,,*1A
$GPGGA,182118.000,3718.2822,N,00555.5352,W,1,09,1.1,55.7,M,49.5,M,,0000*78
$GPGSA,A,3,18,31,26,29,20,16,27,23,10,,,,2.0,1.1,1.7*32
$GPRMC,182118.000,A,3718.2822,N,00555.5352,W,8.95,309.21,210221,,*1E
$GPGGA,182119.000,3718.2841,N,00555.5377,W,1,09,1.1,55.7,M,49.5,M,,0000*7B
$GPGSA,A,3,18,31,26,29,20,16,27,23,10,,,,2.0,1.1,1.7*32
$GPGSV,3,1,12,26,83,016,47,18,58,060,45,16,54,321,46,27,35,275,44*77
$GPGSV,3,2,12,31,33,191,47,20,28,119,43,23,22,120,39,29,15,063,43*70
$GPGSV,3,3,12,10,11,149,43,25,01,123,35,08,01,262,32,04,00,275,*7A
$GPRMC,182119.000,A,3718.2841,N,00555.5377,W,10.76,316.36,210221,,*21
$GPGGA,182120.000,3718.2866,N,00555.5403,W,1,09,1.1,55.7,M,49.5,M,,0000*70
$GPGSA,A,3,18,31,26,29,20,16,27,23,10,,,,2.0,1.1,1.7*32
$GPRMC,182120.000,A,3718.2866,N,00555.5403,W,12.13,323.52,210221,,*2F
$GPGGA,182121.000,3718.2896,N,00555.5428,W,1,09,1.1,55.7,M,49.5,M,,0000*77
$GPGSA,A,3,18,31,26,29,20,16,27,23,10,,,,2.0,1.1,1.7*32
$GPRMC,182121.000,A,3718.2896,N,00555.5428,W,13.09,328.21,210221,,*2D
$GPGGA,182122.000,3718.2930,N,00555.5455,W,1,09,1.1,55.7,M,49.5,M,,0000*73
$GPGSA,A,3,18,31,26,29,20,16,27,23,10,,,,2.0,1.1,1.7*32
$GPRMC,182122.000,A,3718.2930,N,00555.5455,W,15.55,329.05,210221,,*21
$GPGGA,182123.000,3718.2971,N,00555.5485,W,1,09,1.1,55.5,M,49.5,M,,0000*78
$GPGSA,A,3,18,31,26,29,20,16,27,23,10,,,,2.0,1.1,1.7*32
$GPRMC,182123.000,A,3718.2971,N,00555.5485,W,18.30,330.09,210221,,*22
$GPGGA,182124.000,3718.3019,N,00555.5519,W,1,09,1.1,55.4,M,49.5,M,,0000*7C
$GPGSA,A,3,18,31,26,29,20,16,27,23,10,,,,2.0,1.1,1.7*32
$GPGSV,3,1,12,26,83,016,47,18,58,060,46,16,54,321,46,27,35,275,43*73
$GPGSV,3,2,12,31,33,191,47,20,28,119,43,23,22,120,42,29,15,063,43*7C
$GPGSV,3,3,12,10,11,149,42,25,01,123,34,08,01,262,32,04,00,275,*7A
$GPRMC,182124.000,A,3718.3019,N,00555.5519,W,20.34,330.13,210221,,*23
$GPGGA,182125.000,3718.3070,N,00555.5557,W,1,09,1.1,55.1,M,49.5,M,,0000*7D
$GPGSA,A,3,18,31,26,29,20,16,27,23,10,,,,2.0,1.1,1.7*32
$GPRMC,182125.000,A,3718.3070,N,00555.5557,W,21.85,330.17,210221,,*28
$GPGGA,182126.000,3718.3125,N,00555.5596,W,1,09,1.1,54.8,M,49.5,M,,0000*7A
$GPGSA,A,3,18,31,26,29,20,16,27,23,10,,,,2.0,1.1,1.7*32
$GPRMC,182126.000,A,3718.3125,N,00555.5596,W,23.08,330.12,210221,,*25
$GPGGA,182127.000,3718.3182,N,00555.5638,W,1,09,1.1,54.4,M,49.5,M,,0000*7D
$GPGSA,A,3,18,31,26,29,20,16,27,23,10,,,,2.0,1.1,1.7*32
$GPRMC,182127.000,A,3718.3182,N,00555.5638,W,23.94,329.82,210221,,*2A
$GPGGA,182128.000,3718.3241,N,00555.5681,W,1,09,1.1,53.9,M,49.5,M,,0000*76
$GPGSA,A,3,18,31,26,29,20,16,27,23,10,,,,2.0,1.1,1.7*32
$GPRMC,182128.000,A,3718.3241,N,00555.5681,W,24.66,329.89,210221,,*2A
$GPGGA,182129.000,3718.3303,N,00555.5726,W,1,09,1.1,53.4,M,49.5,M,,0000*71
$GPGSA,A,3,18,31,26,29,20,16,27,23,10,,,,2.0,1.1,1.7*32
$GPGSV,3,1,12,26,83,016,47,18,58,060,46,16,54,321,45,27,35,275,42*71
$GPGSV,3,2,12,31,33,191,47,20,28,119,42,23,22,120,43,29,15,063,41*7E
$GPGSV,3,3,12,10,11,149,44,25,01,123,,08,01,262,33,04,00,275,*7A
$GPRMC,182129.000,A,3718.3303,N,00555.5726,W,25.66,330.07,210221,,*2F
$GPGGA,182130.000,3718.3366,N,00555.5772,W,1,09,1.1,52.9,M,49.5,M,,0000*77
$GPGSA,A,3,18,31,26,29,20,16,27,23,10,,,,2.0,1.1,1.7*32
$GPRMC,182130.000,A,3718.3366,N,00555.5772,W,26.50,329.94,210221,,*21
$GPGGA,182131.000,3718.3431,N,00555.5819,W,1,09,1.1,52.4,M,49.5,M,,0000*7C
$GPGSA,A,3,18,31,26,29,20,16,27,23,10,,,,2.0,1.1,1.7*32
$GPRMC,182131.000,A,3718.3431,N,00555.5819,W,26.93,330.07,210221,,*2A
$GPGGA,182132.000,3718.3497,N,00555.5866,W,1,09,1.1,51.9,M,49.5,M,,0000*75
$GPGSA,A,3,18,31,26,29,20,16,27,23,10,,,,2.0,1.1,1.7*32
$GPRMC,182132.000,A,3718.3497,N,00555.5866,W,27.30,330.07,210221,,*25
$GPGGA,182133.000,3718.3564,N,00555.5915,W,1,09,1.1,51.4,M,49.5,M,,0000*71
$GPGSA,A,3,18,31,26,29,20,16,27,23,10,,,,2.0,1.1,1.7*32
$GPRMC,182133.000,A,3718.3564,N,00555.5915,W,27.52,329.80,210221,,*2F
$GPGGA,182134.000,3718.3631,N,00555.5964,W,1,09,1.1,51.0,M,49.5,M,,0000*77
$GPGSA,A,3,18,31,26,29,20,16,27,23,10,,,,2.0,1.1,1.7*32
$GPGSV,3,1,12,26,83,016,47,18,58,060,47,16,54,321,45,27,35,275,42*70
$GPGSV,3,2,12,31,33,191,47,20,28,119,41,23,22,120,43,29,15,063,41*7D
$GPGSV,3,3,12,10,11,149,45,25,01,123,,08,01,262,33,04,00,275,*7B
$GPRMC,182134.000,A,3718.3631,N,00555.5964,W,27.64,329.86,210221,,*2E
$GPGGA,182135.000,3718.3698,N,00555.6012,W,1,09,1.1,50.6,M,49.5,M,,0000*79
$GPGSA,A,3,18,31,26,29,20,16,27,23,10,,,,2.0,1.1,1.7*32
$GPRMC,182135.000,A,3718.3698,N,00555.6012,W,27.64,330.10,210221,,*20
$GPGGA,182136.000,3718.3765,N,00555.6061,W,1,09,1.1,50.4,M,49.5,M,,0000*7F
$GPGSA,A,3,18,31,26,29,20,16,27,23,10,,,,2.0,1.1,1.7*32
$GPRMC,182136.000,A,3718.3765,N,00555.6061,W,27.58,330.34,210221,,*2D
$GPGGA,182137.000,3718.3832,N,00555.6109,W,1,09,1.1,50.1,M,49.5,M,,0000*79
$GPGSA,A,3,18,31,26,29,20,16,27,23,10,,,,2.0,1.1,1.7*32
$GPRMC,182137.000,A,3718.3832,N,00555.6109,W,27.46,330.29,210221,,*2D
$GPGGA,182138.000,3718.3899,N,00555.6157,W,1,09,1.1,50.0,M,49.5,M,,0000*7D
$GPGSA,A,3,18,31,26,29,20,16,27,23,10,,,,2.0,1.1,1.7*32
$GPRMC,182138.000,A,3718.3899,N,00555.6157,W,27.46,330.06,210221,,*25
$GPGGA,182139.000,3718.3965,N,00555.6205,W,1,09,1.1,49.9,M,49.5,M,,0000*7B
$GPGSA,A,3,18,31,26,29,20,16,27,23,10,,,,2.0,1.1,1.7*32
$GPGSV,3,1,12,26,83,016,47,18,58,060,47,16,54,321,46,27,35,275,43*72
$GPGSV,3,2,12,31,33,191,47,20,28,119,42,23,22,120,43,29,15,063,42*7D
$GPGSV,3,3,12,10,11,149,42,25,01,123,19,08,01,262,24,04,00,275,*72
$GPRMC,182139.000,A,3718.3965,N,00555.6205,W,27.29,329.88,210221,,*25
$GPGGA,182140.000,3718.4030,N,00555.6252,W,1,09,1.1,49.8,M,49.5,M,,0000*78
$GPGSA,A,3,18,31,26,29,20,16,27,23,10,,,,2.0,1.1,1.7*32
$GPRMC,182140.000,A,3718.4030,N,00555.6252,W,26.87,330.04,210221,,*2E
$GPGGA,182141.000,3718.4095,N,00555.6299,W,1,09,1.1,49.9,M,49.5,M,,0000*70
$GPGSA,A,3,18,31,26,29,20,16,27,23,10,,,,2.0,1.1,1.7*32
$GPRMC,182141.000,A,3718.4095,N,00555.6299,W,26.41,330.17,210221,,*2F
$GPGGA,182142.000,3718.4159,N,00555.6345,W,1,09,1.1,50.0,M,49.5,M,,0000*73
$GPGSA,A,3,18,31,26,29,20,16,27,23,10,,,,2.0,1.1,1.7*32
$GPRMC,182142.000,A,3718.4159,N,00555.6345,W,26.07,330.04,210221,,*2D
$GPGGA,182143.000,3718.4222,N,00555.6390,W,1,09,1.1,50.2,M,49.5,M,,0000*77
$GPGSA,A,3,18,31,26,29,20,16,27,23,10,,,,2.0,1.1,1.7*32
$GPRMC,182143.000,A,3718.4222,N,00555.6390,W,25.89,330.25,210221,,*2D
$GPGGA,182144.000,3718.4284,N,00555.6436,W,1,09,1.1,50.4,M,49.5,M,,0000*71
$GPGSA,A,3,18,31,26,29,20,16,27,23,10,,,,2.0,1.1,1.7*32
$GPGSV,3,1,12,26,83,018,47,18,58,060,47,16,54,321,46,27,35,276,43*7F
$GPGSV,3,2,12,31,33,191,46,20,28,119,44,23,22,120,42,29,15,063,43*7A
$GPGSV,3,3,12,10,11,149,43,08,01,262,31,25,01,123,26,04,00,275,*7B
$GPRMC,182144.000,A,3718.4284,N,00555.6436,W,25.71,329.71,210221,,*23
$GPGGA,182145.000,3718.4346,N,00555.6481,W,1,09,1.1,50.7,M,49.5,M,,0000*70
$GPGSA,A,3,18,31,26,29,20,16,27,23,10,,,,2.0,1.1,1.7*32
$GPRMC,182145.000,A,3718.4346,N,00555.6481,W,25.64,329.72,210221,,*26
$GPGGA,182146.000,3718.4408,N,00555.6526,W,1,09,1.1,51.0,M,49.5,M,,0000*74
$GPGSA,A,3,18,31,26,29,20,16,27,23,10,,,,2.0,1.1,1.7*32
$GPRMC,182146.000,A,3718.4408,N,00555.6526,W,25.48,329.99,210221,,*2F
$GPGGA,182147.000,3718.4469,N,00555.6570,W,1,09,1.1,51.3,M,49.5,M,,0000*72
$GPGSA,A,3,18,31,26,29,20,16,27,23,10,,,,2.0,1.1,1.7*32
$GPRMC,182147.000,A,3718.4469,N,00555.6570,W,24.89,330.17,210221,,*28
$GPGGA,182148.000,3718.4529,N,00555.6613,W,1,09,1.1,51.7,M,49.5,M,,0000*7A
$GPGSA,A,3,18,31,26,29,20,16,27,23,10,,,,2.0,1.1,1.7*32
$GPRMC,182148.000,A,3718.4529,N,00555.6613,W,24.64,330.11,210221,,*21
$GPGGA,182149.000,3718.4588,N,00555.6656,W,1,09,1.1,52.0,M,49.5,M,,0000*75
$GPGSA,A,3,18,31,26,29,20,16,27,23,10,,,,2.0,1.1,1.7*32
$GPGSV,3,1,12,26,83,018,47,18,58,060,46,16,54,321,46,27,35,276,43*7E
$GPGSV,3,2,12,31,33,191,46,20,28,119,43,23,22,120,42,29,15,063,42*7C
$GPGSV,3,3,12,10,11,149,45,08,01,262,32,25,01,123,25,04,00,275,*7D
$GPRMC,182149.000,A,3718.4588,N,00555.6656,W,24.22,329.93,210221,,*2A
$GPGGA,182150.000,3718.4646,N,00555.6698,W,1,09,1.1,52.4,M,49.5,M,,0000*7A
$GPGSA,A,3,18,31,26,29,20,16,27,23,10,,,,2.0,1.1,1.7*32
$GPRMC,182150.000,A,3718.4646,N,00555.6698,W,23.42,330.02,210221,,*20
$GPGGA,182151.000,3718.4702,N,00555.6739,W,1,09,1.1,52.8,M,49.5,M,,0000*7C
$GPGSA,A,3,18,31,26,29,20,16,27,23,10,,,,2.0,1.1,1.7*32
$GPRMC,182151.000,A,3718.4702,N,00555.6739,W,22.95,330.09,210221,,*2A
$GPGGA,182152.000,3718.4757,N,00555.6778,W,1,09,1.1,53.2,M,49.5,M,,0000*71
$GPGSA,A,3,18,31,26,29,20,16,27,23,10,,,,2.0,1.1,1.7*32
$GPRMC,182152.000,A,3718.4757,N,00555.6778,W,22.71,330.20,210221,,*2D
$GPGGA,182153.000,3718.4812,N,00555.6818,W,1,09,1.1,53.6,M,49.5,M,,0000*73
$GPGSA,A,3,18,31,26,29,20,16,27,23,10,,,,2.0,1.1,1.7*32
$GPRMC,182153.000,A,3718.4812,N,00555.6818,W,22.57,329.35,210221,,*23
$GPGGA,182154.000,3718.4865,N,00555.6860,W,1,09,1.1,53.9,M,49.5,M,,0000*74
$GPGSA,A,3,18,31,26,29,20,16,27,23,10,,,,2.0,1.1,1.7*32
$GPGSV,3,1,12,26,83,018,47,18,58,060,46,16,54,321,46,27,35,276,44*79
$GPGSV,3,2,12,31,33,190,47,20,28,119,43,23,22,120,42,29,15,063,42*7C
$GPGSV,3,3,12,10,11,149,45,08,01,262,32,25,01,123,32,04,00,275,*7B
$GPRMC,182154.000,A,3718.4865,N,00555.6860,W,22.50,326.77,210221,,*25
$GPGGA,182155.000,3718.4916,N,00555.6907,W,1,09,1.1,54.2,M,49.5,M,,0000*7C
$GPGSA,A,3,18,31,26,29,20,16,27,23,10,,,,2.0,1.1,1.7*32
$GPRMC,182155.000,A,3718.4916,N,00555.6907,W,22.48,321.47,210221,,*2C
$GPGGA,182156.000,3718.4963,N,00555.6958,W,1,09,1.1,54.5,M,49.5,M,,0000*70
$GPGSA,A,3,18,31,26,29,20,16,27,23,10,,,,2.0,1.1,1.7*32
$GPRMC,182156.000,A,3718.4963,N,00555.6958,W,21.90,315.82,210221,,*2F
$GPGGA,182157.000,3718.5004,N,00555.7012,W,1,09,1.1,54.8,M,49.5,M,,0000*73
$GPGSA,A,3,18,31,26,29,20,16,27,23,10,,,,2.0,1.1,1.7*32
$GPRMC,182157.000,A,3718.5004,N,00555.7012,W,20.79,311.74,210221,,*2A
$GPGGA,182158.000,3718.5041,N,00555.7066,W,1,09,1.1,55.0,M,49.5,M,,0000*77
$GPGSA,A,3,18,31,26,29,20,16,27,23,10,,,,2.0,1.1,1.7*32
$GPRMC,182158.000,A,3718.5041,N,00555.7066,W,19.59,309.91,210221,,*2D
$GPGGA,182159.000,3718.5076,N,00555.7115,W,1,09,1.1,55.3,M,49.5,M,,0000*74
$GPGSA,A,3,18,31,26,29,20,16,27,23,10,,,,2.0,1.1,1.7*32
$GPGSV,3,1,12,26,83,018,47,18,58,060,45,16,54,321,46,27,35,276,44*7A
$GPGSV,3,2,12,31,33,190,46,20,28,119,43,23,22,120,42,29,15,063,38*70
$GPGSV,3,3,12,10,11,149,44,08,01,262,32,25,01,123,34,04,00,275,*7C
$GPRMC,182159.000,A,3718.5076,N,00555.7115,W,18.40,315.29,210221,,*2A
$GPGGA,182200.000,3718.5116,N,00555.7152,W,1,09,1.1,55.4,M,49.5,M,,0000*78
$GPGSA,A,3,18,31,26,29,20,16,27,23,10,,,,2.0,1.1,1.7*32
$GPRMC,182200.000,A,3718.5116,N,00555.7152,W,17.45,332.09,210221,,*2C
$GPGGA,182201.000,3718.5163,N,00555.7172,W,1,09,1.1,55.5,M,49.5,M,,0000*78
$GPGSA,A,3,18,31,26,29,20,16,27,23,10,,,,2.0,1.1,1.7*32
$GPRMC,182201.000,A,3718.5163,N,00555.7172,W,18.56,349.35,210221,,*23
$GPGGA,182202.000,3718.5218,N,00555.7180,W,1,09,1.1,55.5,M,49.5,M,,0000*79
$GPGSA,A,3,18,31,26,29,20,16,27,23,10,,,,2.0,1.1,1.7*32
$GPRMC,182202.000,A,3718.5218,N,00555.7180,W,20.59,355.97,210221,,*23
$GPGGA,182203.000,3718.5276,N,00555.7186,W,1,09,1.1,55.7,M,49.5,M,,0000*74
$GPGSA,A,3,18,31,26,29,20,16,27,23,10,,,,2.0,1.1,1.7*32
$GPRMC,182203.000,A,3718.5276,N,00555.7186,W,21.36,355.14,210221,,*2F
$GPGGA,182204.000,3718.5335,N,00555.7197,W,1,09,1.1,55.9,M,49.5,M,,0000*7B
$GPGSA,A,3,18,31,26,29,20,16,27,23,10,,,,2.0,1.1,1.7*32
$GPGSV,3,1,12,26,83,018,47,18,58,060,46,16,54,321,46,27,35,276,44*79
$GPGSV,3,2,12,31,33,190,46,20,28,119,44,23,22,120,41,29,15,063,42*79
$GPGSV,3,3,12,10,11,149,41,08,01,262,32,25,01,123,33,04,00,275,*7E
$GPRMC,182204.000,A,3718.5335,N,00555.7197,W,21.58,346.78,210221,,*2E
$GPGGA,182205.000,3718.5392,N,00555.7222,W,1,09,1.1,56.1,M,49.5,M,,0000*71
$GPGSA,A,3,18,31,26,29,20,16,27,23,10,,,,2.0,1.1,1.7*32
$GPRMC,182205.000,A,3718.5392,N,00555.7222,W,21.69,335.76,210221,,*27
$GPGGA,182206.000,3718.5444,N,00555.7259,W,1,09,1.1,56.3,M,49.5,M,,0000*70
$GPGSA,A,3,18,31,26,29,20,16,27,23,10,,,,2.0,1.1,1.7*32
$GPRMC,182206.000,A,3718.5444,N,00555.7259,W,21.40,325.04,210221,,*2B
$GPGGA,182207.000,3718.5489,N,00555.7306,W,1,09,1.1,56.5,M,49.5,M,,0000*7D
$GPGSA,A,3,18,31,26,29,20,16,27,23,10,,,,2.0,1.1,1.7*32
$GPRMC,182207.000,A,3718.5489,N,00555.7306,W,21.14,316.16,210221,,*22
$GPGGA,182208.000,3718.5530,N,00555.7359,W,1,09,1.1,56.7,M,49.5,M,,0000*79
$GPGSA,A,3,18,31,26,29,20,16,27,23,10,,,,2.0,1.1,1.7*32
$GPRMC,182208.000,A,3718.5530,N,00555.7359,W,21.20,312.03,210221,,*23
$GPGGA,182209.000,3718.5571,N,00555.7413,W,1,09,1.1,56.8,M,49.5,M,,0000*7B
$GPGSA,A,3,18,31,26,29,20,16,27,23,10,,,,2.0,1.1,1.7*32
$GPGSV,3,1,12,26,83,018,47,18,58,060,46,16,54,321,46,27,35,276,44*79
$GPGSV,3,2,12,31,33,190,46,20,28,119,44,23,22,120,41,29,15,063,42*79
$GPGSV,3,3,12,10,11,149,43,08,01,262,24,25,01,123,31,04,00,275,*79
$GPRMC,182209.000,A,3718.5571,N,00555.7413,W,20.93,315.73,210221,,*27
$GPGGA,182210.000,3718.5617,N,00555.7458,W,1,09,1.1,56.9,M,49.5,M,,0000*7E
$GPGSA,A,3,18,31,26,29,20,16,27,23,10,,,,2.0,1.1,1.7*32
$GPRMC,182210.000,A,3718.5617,N,00555.7458,W,21.14,327.66,210221,,*28
$GPGGA,182211.000,3718.5671,N,00555.7491,W,1,09,1.1,57.1,M,49.5,M,,0000*73
$GPGSA,A,3,18,31,26,29,20,16,27,23,10,,,,2.0,1.1,1.7*32
$GPRMC,182211.000,A,3718.5671,N,00555.7491,W,21.98,339.80,210221,,*2F
$GPGGA,182212.000,3718.5731,N,00555.7516,W,1,09,1.1,57.2,M,49.5,M,,0000*78
$GPGSA,A,3,18,31,26,29,20,16,27,23,10,,,,2.0,1.1,1.7*32
$GPRMC,182212.000,A,3718.5731,N,00555.7516,W,23.19,343.64,210221,,*2B
$GPGGA,182213.000,3718.5794,N,00555.7543,W,1,09,1.1,57.4,M,49.5,M,,0000*70
$GPGSA,A,3,18,31,26,29,20,16,27,23,10,,,,2.0,1.1,1.7*32
$GPRMC,182213.000,A,3718.5794,N,00555.7543,W,24.82,338.93,210221,,*24
$GPGGA,182214.000,3718.5859,N,00555.7579,W,1,09,1.1,57.5,M,49.5,M,,0000*71
$GPGSA,A,3,18,31,26,29,20,16,27,23,10,,,,2.0,1.1,1.7*32
$GPGSV,3,1,12,26,83,019,47,18,58,060,46,16,54,321,46,27,35,276,44*78
$GPGSV,3,2,12,31,32,190,46,20,28,119,44,23,22,120,41,29,15,063,42*78
$GPGSV,3,3,12,10,11,149,44,08,01,262,16,25,01,123,37,04,00,275,*79
$GPRMC,182214.000,A,3718.5859,N,00555.7579,W,25.92,332.62,210221,,*20
$GPGGA,182215.000,3718.5924,N,00555.7624,W,1,09,1.1,57.6,M,49.5,M,,0000*73
$GPGSA,A,3,18,31,26,29,20,16,27,23,10,,,,2.0,1.1,1.7*32
$GPRMC,182215.000,A,3718.5924,N,00555.7624,W,27.11,329.91,210221,,*2E
$GPGGA,182216.000,3718.5990,N,00555.7673,W,1,09,1.1,57.8,M,49.5,M,,0000*73
$GPGSA,A,3,18,31,26,29,20,16,27,23,10,,,,2.0,1.1,1.7*32
$GPRMC,182216.000,A,3718.5990,N,00555.7673,W,27.98,329.67,210221,,*28
$GPGGA,182217.000,3718.6058,N,00555.7723,W,1,09,1.1,57.9,M,49.5,M,,0000*79
$GPGSA,A,3,18,31,26,29,20,16,27,23,10,,,,2.0,1.1,1.7*32
$GPRMC,182217.000,A,3718.6058,N,00555.7723,W,28.67,329.99,210221,,*2D
$GPGGA,182218.000,3718.6129,N,00555.7773,W,1,09,1.1,58.1,M,49.5,M,,0000*73
$GPGSA,A,3,18,31,26,29,20,16,27,23,10,,,,2.0,1.1,1.7*32
$GPRMC,182218.000,A,3718.6129,N,00555.7773,W,29.24,330.35,210221,,*28
$GPGGA,182219.000,3718.6200,N,00555.7824,W,1,09,1.1,58.2,M,49.5,M,,0000*74
$GPGSA,A,3,18,31,26,29,20,16,27,23,10,,,,2.0,1.1,1.7*32
$GPGSV,3,1,12,26,83,020,47,18,57,060,46,16,54,321,46,27,35,276,44*7D
$GPGSV,3,2,12,31,32,190,46,20,28,119,44,23,22,120,41,29,15,063,38*75
$GPGSV,3,3,12,10,11,149,44,08,01,262,35,25,01,123,37,04,00,275,*78
$GPRMC,182219.000,A,3718.6200,N,00555.7824,W,29.58,330.14,210221,,*24
$GPGGA,182220.000,3718.6272,N,00555.7877,W,1,09,1.1,58.4,M,49.5,M,,0000*7B
$GPGSA,A,3,18,31,26,29,20,16,27,23,10,,,,2.0,1.1,1.7*32
$GPRMC,182220.000,A,3718.6272,N,00555.7877,W,29.85,329.46,210221,,*22
$GPGGA,182221.000,3718.6344,N,00555.7930,W,1,09,1.1,58.5,M,49.5,M,,0000*7D
$GPGSA,A,3,18,31,26,29,20,16,27,23,10,,,,2.0,1.1,1.7*32
$GPRMC,182221.000,A,3718.6344,N,00555.7930,W,30.00,329.74,210221,,*21
$GPGGA,182222.000,3718.6416,N,00555.7983,W,1,09,1.1,58.7,M,49.5,M,,0000*74
$GPGSA,A,3,18,31,26,29,20,16,27,23,10,,,,2.0,1.1,1.7*32
$GPRMC,182222.000,A,3718.6416,N,00555.7983,W,30.01,329.79,210221,,*26
$GPGGA,182223.000,3718.6489,N,00555.8035,W,1,09,1.1,58.8,M,49.5,M,,0000*77
$GPGSA,A,3,18,31,26,29,20,16,27,23,10,,,,2.0,1.1,1.7*32
$GPRMC,182223.000,A,3718.6489,N,00555.8035,W,30.03,330.16,210221,,*29
$GPGGA,182224.000,3718.6562,N,00555.8088,W,1,09,1.1,59.0,M,49.5,M,,0000*7B
$GPGSA,A,3,18,31,26,29,20,16,27,23,10,,,,2.0,1.1,1.7*32
$GPGSV,3,1,12,26,83,020,47,18,57,060,46,16,54,321,46,27,35,276,44*7D
$GPGSV,3,2,12,31,32,190,46,20,28,119,44,23,22,120,41,29,15,063,39*74
$GPGSV,3,3,12,10,11,149,45,08,01,262,34,25,01,123,36,04,00,275,*79
$GPRMC,182224.000,A,3718.6562,N,00555.8088,W,30.07,330.31,210221,,*2D
$GPGGA,182225.000,3718.6635,N,00555.8140,W,1,09,1.1,59.1,M,49.5,M,,0000*7F
$GPGSA,A,3,18,31,26,29,20,16,27,23,10,,,,2.0,1.1,1.7*32
$GPRMC,182225.000,A,3718.6635,N,00555.8140,W,30.08,330.31,210221,,*27
$GPGGA,182226.000,3718.6708,N,00555.8192,W,1,09,1.1,59.2,M,49.5,M,,0000*7F
$GPGSA,A,3,18,31,26,29,20,16,27,23,10,,,,2.0,1.1,1.7*32
$GPRMC,182226.000,A,3718.6708,N,00555.8192,W,30.10,330.27,210221,,*2A
$GPGGA,182227.000,3718.6781,N,00555.8245,W,1,09,1.1,59.2,M,49.5,M,,0000*76
$GPGSA,A,3,18,31,26,29,20,16,27,23,10,,,,2.0,1.1,1.7*32
$GPRMC,182227.000,A,3718.6781,N,00555.8245,W,30.16,329.99,210221,,*28
$GPGGA,182228.000,3718.6854,N,00555.8298,W,1,09,1.1,59.3,M,49.5,M,,0000*7F
$GPGSA,A,3,18,31,26,29,20,16,27,23,10,,,,2.0,1.1,1.7*32
$GPRMC,182228.000,A,3718.6854,N,00555.8298,W,29.96,329.78,210221,,*2F
$GPGGA,182229.000,3718.6926,N,00555.8351,W,1,09,1.1,59.3,M,49.5,M,,0000*7E
$GPGSA,A,3,18,31,26,29,20,16,27,23,10,,,,2.0,1.1,1.7*32
$GPGSV,3,1,12,26,83,020,47,18,57,060,47,16,54,321,46,27,35,276,44*7C
$GPGSV,3,2,12,31,32,190,46,20,28,119,44,23,22,120,41,29,15,063,39*74
$GPGSV,3,3,12,10,11,149,44,08,01,262,35,25,01,123,28,04,00,275,*76
$GPRMC,182229.000,A,3718.6926,N,00555.8351,W,29.76,329.28,210221,,*25
$GPGGA,182230.000,3718.6998,N,00555.8404,W,1,09,1.1,59.2,M,49.5,M,,0000*75
$GPGSA,A,3,18,31,26,29,20,16,27,23,10,,,,2.0,1.1,1.7*32
$GPRMC,182230.000,A,3718.6998,N,00555.8404,W,30.08,329.35,210221,,*22
$GPGGA,182231.000,3718.7070,N,00555.8458,W,1,09,1.1,59.2,M,49.5,M,,0000*73
$GPGSA,A,3,18,31,26,29,20,16,27,23,10,,,,2.0,1.1,1.7*32
$GPRMC,182231.000,A,3718.7070,N,00555.8458,W,30.30,329.64,210221,,*2B
$GPGGA,182232.000,3718.7144,N,00555.8511,W,1,09,1.1,59.0,M,49.5,M,,0000*78
$GPGSA,A,3,18,31,26,29,20,16,27,23,10,,,,2.0,1.1,1.7*32
$GPRMC,182232.000,A,3718.7144,N,00555.8511,W,30.19,330.09,210221,,*2A
$GPGGA,182233.000,3718.7216,N,00555.8563,W,1,09,1.1,58.9,M,49.5,M,,0000*70
$GPGSA,A,3,18,31,26,29,20,16,27,23,10,,,,2.0,1.1,1.7*32
$GPRMC,182233.000,A,3718.7216,N,00555.8563,W,29.84,330.31,210221,,*2D
$GPGGA,182234.000,3718.7288,N,00555.8615,W,1,09,1.1,58.8,M,49.5,M,,0000*73
$GPGSA,A,3,18,31,26,29,20,16,27,23,10,,,,2.0,1.1,1.7*32
$GPGSV,3,1,12,26,83,020,47,18,57,060,47,16,54,321,46,27,35,276,44*7C
$GPGSV,3,2,12,31,32,190,47,20,28,119,43,23,22,120,42,29,15,063,39*71
$GPGSV,3,3,12,10,11,149,42,08,01,262,35,25,01,123,26,04,00,275,*7E
$GPRMC,182234.000,A,3718.7288,N,00555.8615,W,29.46,330.38,210221,,*28
$GPGGA,182235.000,3718.7359,N,00555.8666,W,1,09,1.1,58.6,M,49.5,M,,0000*75
$GPGSA,A,3,18,31,26,29,20,16,27,23,10,,,,2.0,1.1,1.7*32
$GPRMC,182235.000,A,3718.7359,N,00555.8666,W,29.13,330.02,210221,,*29
$GPGGA,182236.000,3718.7429,N,00555.8717,W,1,09,1.1,58.3,M,49.5,M,,0000*74
$GPGSA,A,3,18,31,26,29,20,16,27,23,10,,,,2.0,1.1,1.7*32
$GPRMC,182236.000,A,3718.7429,N,00555.8717,W,28.86,329.65,210221,,*29
$GPGGA,182237.000,3718.7499,N,00555.8768,W,1,09,1.1,58.1,M,49.5,M,,0000*74
$GPGSA,A,3,18,31,26,29,20,16,27,23,10,,,,2.0,1.1,1.7*32
$GPRMC,182237.000,A,3718.7499,N,00555.8768,W,28.69,329.68,210221,,*27
$GPGGA,182238.000,3718.7568,N,00555.8818,W,1,09,1.1,57.8,M,49.5,M,,0000*7A
$GPGSA,A,3,18,31,26,29,20,16,27,23,10,,,,2.0,1.1,1.7*32
$GPRMC,182238.000,A,3718.7568,N,00555.8818,W,28.56,330.02,210221,,*27
$GPGGA,182239.000,3718.7637,N,00555.8868,W,1,09,1.1,57.6,M,49.5,M,,0000*7B
$GPGSA,A,3,18,31,26,29,20,16,27,23,10,,,,2.0,1.1,1.7*32
$GPGSV,3,1,12,26,83,020,47,18,57,060,46,16,54,321,46,27,35,276,43*7A
$GPGSV,3,2,12,31,32,190,47,20,28,119,43,23,22,120,42,29,15,063,39*71
$GPGSV,3,3,12,10,11,149,41,08,01,262,35,25,01,123,26,04,00,275,*7D
$GPRMC,182239.000,A,3718.7637,N,00555.8868,W,28.57,329.73,210221,,*27
$GPGGA,182240.000,3718.7706,N,00555.8918,W,1,09,1.1,57.3,M,49.5,M,,0000*75
$GPGSA,A,3,18,31,26,29,20,16,27,23,10,,,,2.0,1.1,1.7*32
$GPRMC,182240.000,A,3718.7706,N,00555.8918,W,28.75,330.00,210221,,*20
$GPGGA,182241.000,3718.7776,N,00555.8969,W,1,09,1.1,57.0,M,49.5,M,,0000*76
$GPGSA,A,3,18,31,26,29,20,16,27,23,10,,,,2.0,1.1,1.7*32
$GPRMC,182241.000,A,3718.7776,N,00555.8969,W,28.74,330.10,210221,,*20
$GPGGA,182242.000,3718.7845,N,00555.9019,W,1,09,1.1,56.8,M,49.5,M,,0000*7C
$GPGSA,A,3,18,31,26,29,20,16,27,23,10,,,,2.0,1.1,1.7*32
$GPRMC,182242.000,A,3718.7845,N,00555.9019,W,28.39,329.93,210221,,*29
$GPGGA,182243.000,3718.7913,N,00555.9068,W,1,09,1.1,56.6,M,49.5,M,,0000*77
$GPGSA,A,3,18,31,26,29,20,16,27,23,10,,,,2.0,1.1,1.7*32
$GPRMC,182243.000,A,3718.7913,N,00555.9068,W,27.90,329.97,210221,,*24
$GPGGA,182244.000,3718.7980,N,00555.9116,W,1,09,1.1,56.4,M,49.5,M,,0000*70
$GPGSA,A,3,18,31,26,29,20,16,27,23,10,,,,2.0,1.1,1.7*32
$GPGSV,3,1,12,26,83,020,47,18,57,060,47,16,54,321,46,27,35,276,43*7B
$GPGSV,3,2,12,31,32,190,47,20,28,119,43,23,22,120,42,29,15,063,41*7E
$GPGSV,3,3,12,10,11,149,40,08,01,262,35,25,01,123,26,04,00,275,*7C
$GPRMC,182244.000,A,3718.7980,N,00555.9116,W,27.40,330.58,210221,,*27
$GPGGA,182245.000,3718.8044,N,00555.9162,W,1,09,1.1,56.3,M,49.5,M,,0000*7B
$GPGSA,A,3,18,31,26,29,20,16,27,23,10,,,,2.0,1.1,1.7*32
$GPRMC,182245.000,A,3718.8044,N,00555.9162,W,25.82,330.11,210221,,*2A
$GPGGA,182246.000,3718.8100,N,00555.9202,W,1,09,1.1,56.2,M,49.5,M,,0000*7D
$GPGSA,A,3,18,31,26,29,20,16,27,23,10,,,,2.0,1.1,1.7*32
$GPRMC,182246.000,A,3718.8100,N,00555.9202,W,20.94,329.95,210221,,*2B
$GPGGA,182247.000,3718.8143,N,00555.9234,W,1,09,1.1,56.2,M,49.5,M,,0000*7E
$GPGSA,A,3,18,31,26,29,20,16,27,23,10,,,,2.0,1.1,1.7*32
$GPRMC,182247.000,A,3718.8143,N,00555.9234,W,15.04,329.98,210221,,*2A
$GPGGA,182248.000,3718.8171,N,00555.9254,W,1,09,1.1,56.2,M,49.5,M,,0000*76
$GPGSA,A,3,18,31,26,29,20,16,27,23,10,,,,2.0,1.1,1.7*32
$GPRMC,182248.000,A,3718.8171,N,00555.9254,W,8.59,330.13,210221,,*1D
$GPGGA,182249.000,3718.8186,N,00555.9264,W,1,09,1.1,56.2,M,49.5,M,,0000*7C
$GPGSA,A,3,18,31,26,29,20,16,27,23,10,,,,2.0,1.1,1.7*32
$GPGSV,3,1,11,26,83,022,47,18,57,060,47,16,54,321,46,27,35,276,43*7A
$GPGSV,3,2,11,31,32,190,46,20,29,118,44,23,22,120,42,29,14,063,38*74
$GPGSV,3,3,11,10,11,149,42,08,02,262,30,25,01,123,26*4F
$GPRMC,182249.000,A,3718.8186,N,00555.9264,W,3.79,330.23,210221,,*1D
$GPGGA,182250.000,3718.8192,N,00555.9269,W,1,09,1.1,56.3,M,49.5,M,,0000*7D
$GPGSA,A,3,18,31,26,29,20,16,27,23,10,,,,2.0,1.1,1.7*32
$GPRMC,182250.000,A,3718.8192,N,00555.9269,W,2.10,329.73,210221,,*1E
$GPGGA,182251.000,3718.8196,N,00555.9272,W,1,09,1.1,56.3,M,49.5,M,,0000*72
$GPGSA,A,3,18,31,26,29,20,16,27,23,10,,,,2.0,1.1,1.7*32
$GPRMC,182251.000,A,3718.8196,N,00555.9272,W,1.42,329.76,210221,,*10
$GPGGA,182252.000,3718.8199,N,00555.9274,W,1,09,1.1,56.3,M,49.5,M,,0000*78
$GPGSA,A,3,18,31,26,29,20,16,27,23,10,,,,2.0,1.1,1.7*32
$GPRMC,182252.000,A,3718.8199,N,00555.9274,W,1.26,329.55,210221,,*19
$GPGGA,182253.000,3718.8203,N,00555.9277,W,1,09,1.1,56.4,M,49.5,M,,0000*7D
$GPGSA,A,3,18,31,26,29,20,16,27,23,10,,,,2.0,1.1,1.7*32
$GPRMC,182253.000,A,3718.8203,N,00555.9277,W,3.13,330.00,210221,,*17
$GPGGA,182254.000,3718.8214,N,00555.9285,W,1,09,1.1,56.4,M,49.5,M,,0000*71
$GPGSA,A,3,18,31,26,29,20,16,27,23,10,,,,2.0,1.1,1.7*32
$GPGSV,3,1,11,26,83,022,47,18,57,060,47,16,54,321,46,27,35,276,44*7D
$GPGSV,3,2,11,31,32,190,46,20,29,118,44,23,22,120,41,29,14,063,38*77
$GPGSV,3,3,11,10,11,149,43,08,02,262,29,25,01,123,22*42
$GPRMC,182254.000,A,3718.8214,N,00555.9285,W,6.13,330.85,210221,,*13
$GPGGA,182255.000,3718.8232,N,00555.9298,W,1,09,1.1,56.5,M,49.5,M,,0000*79
$GPGSA,A,3,18,31,26,29,20,16,27,23,10,,,,2.0,1.1,1.7*32
$GPRMC,182255.000,A,3718.8232,N,00555.9298,W,8.56,331.07,210221,,*1E
$GPGGA,182256.000,3718.8255,N,00555.9313,W,1,09,1.1,56.5,M,49.5,M,,0000*79
$GPGSA,A,3,18,31,26,29,20,16,27,23,10,,,,2.0,1.1,1.7*32
$GPRMC,182256.000,A,3718.8255,N,00555.9313,W,10.44,332.88,210221,,*20
$GPGGA,182257.000,3718.8283,N,00555.9329,W,1,09,1.1,56.4,M,49.5,M,,0000*7B
$GPGSA,A,3,18,31,26,29,20,16,27,23,10,,,,2.0,1.1,1.7*32
$GPRMC,182257.000,A,3718.8283,N,00555.9329,W,11.27,337.62,210221,,*26
$GPGGA,182258.000,3718.8315,N,00555.9342,W,1,09,1.1,56.4,M,49.5,M,,0000*77
$GPGSA,A,3,18,31,26,29,20,16,27,23,10,,,,2.0,1.1,1.7*32
$GPRMC,182258.000,A,3718.8315,N,00555.9342,W,12.96,344.80,210221,,*2B
$GPGGA,182259.000,3718.8352,N,00555.9349,W,1,09,1.1,56.5,M,49.5,M,,0000*7F
$GPGSA,A,3,18,31,26,29,20,16,27,23,10,,,,2.0,1.1,1.7*32
$GPGSV,3,1,11,26,83,022,47,18,57,060,47,16,54,321,45,27,35,276,44*7E
$GPGSV,3,2,11,31,32,190,46,20,29,118,44,23,22,120,41,29,14,063,45*7D
$GPGSV,3,3,11,10,11,149,43,08,02,262,30,25,01,123,20*48
$GPRMC,182259.000,A,3718.8352,N,00555.9349,W,14.70,356.52,210221,,*20
$GPGGA,182300.000,3718.8395,N,00555.9346,W,1,09,1.1,56.5,M,49.5,M,,0000*76
$GPGSA,A,3,18,31,26,29,20,16,27,23,10,,,,2.0,1.1,1.7*32
$GPRMC,182300.000,A,3718.8395,N,00555.9346,W,16.17,7.68,210221,,*24
$GPGGA,182301.000,3718.8442,N,00555.9335,W,1,09,1.1,56.5,M,49.5,M,,0000*7E
$GPGSA,A,3,18,31,26,29,20,16,27,23,10,,,,2.0,1.1,1.7*32
$GPRMC,182301.000,A,3718.8442,N,00555.9335,W,17.82,13.99,210221,,*1A
$GPGGA,182302.000,3718.8492,N,00555.9318,W,1,09,1.1,56.5,M,49.5,M,,0000*7F
$GPGSA,A,3,18,31,26,29,20,16,27,23,10,,,,2.0,1.1,1.7*32
$GPRMC,182302.000,A,3718.8492,N,00555.9318,W,19.17,14.30,210221,,*1D
$GPGGA,182303.000,3718.8545,N,00555.9303,W,1,09,1.1,56.5,M,49.5,M,,0000*7F
$GPGSA,A,3,18,31,26,29,20,16,27,23,10,,,,2.0,1.1,1.7*32
$GPRMC,182303.000,A,3718.8545,N,00555.9303,W,20.00,11.65,210221,,*14
$GPGGA,182304.000,3718.8600,N,00555.9290,W,1,09,1.1,56.4,M,49.5,M,,0000*70
$GPGSA,A,3,18,31,26,29,20,16,27,23,10,,,,2.0,1.1,1.7*32
$GPGSV,3,1,11,26,83,022,48,18,57,060,47,16,54,321,45,27,35,276,44*71
$GPGSV,3,2,11,31,32,190,45,20,29,118,45,23,22,120,41,29,14,063,45*7F
$GPGSV,3,3,11,10,11,149,36,08,02,262,29,25,01,123,18*49
$GPRMC,182304.000,A,3718.8600,N,00555.9290,W,20.33,8.56,210221,,*22
$GPGGA,182305.000,3718.8657,N,00555.9282,W,1,09,1.1,56.4,M,49.5,M,,0000*70
$GPGSA,A,3,18,31,26,29,20,16,27,23,10,,,,2.0,1.1,1.7*32
$GPRMC,182305.000,A,3718.8657,N,00555.9282,W,20.56,4.81,210221,,*27
$GPGGA,182306.000,3718.8716,N,00555.9278,W,1,09,1.1,56.4,M,49.5,M,,0000*72
$GPGSA,A,3,18,31,26,29,20,16,27,23,10,,,,2.0,1.1,1.7*32
$GPRMC,182306.000,A,3718.8716,N,00555.9278,W,21.53,359.90,210221,,*2A
$GPGGA,182307.000,3718.8776,N,00555.9282,W,1,09,1.1,56.4,M,49.5,M,,0000*70
$GPGSA,A,3,18,31,26,29,20,16,27,23,10,,,,2.0,1.1,1.7*32
$GPRMC,182307.000,A,3718.8776,N,00555.9282,W,21.90,353.96,210221,,*2B
$GPGGA,182308.000,3718.8837,N,00555.9295,W,1,09,1.1,56.4,M,49.5,M,,0000*73
$GPGSA,A,3,18,31,26,29,20,16,27,23,10,,,,2.0,1.1,1.7*32
$GPRMC,182308.000,A,3718.8837,N,00555.9295,W,22.18,346.79,210221,,*2E
$GPGGA,182309.000,3718.8896,N,00555.9319,W,1,09,1.1,56.5,M,49.5,M,,0000*7D
$GPGSA,A,3,18,31,26,29,20,16,27,23,10,,,,2.0,1.1,1.7*32
$GPGSV,3,1,11,26,83,022,48,18,57,060,47,16,54,321,45,27,35,276,44*71
$GPGSV,3,2,11,31,32,190,45,20,29,118,45,23,22,120,41,29,14,063,44*7E
$GPGSV,3,3,11,10,11,149,43,08,02,262,29,25,01,123,10*43
$GPRMC,182309.000,A,3718.8896,N,00555.9319,W,22.54,338.85,210221,,*23
$GPGGA,182310.000,3718.8953,N,00555.9352,W,1,09,1.1,56.5,M,49.5,M,,0000*72
$GPGSA,A,3,18,31,26,29,20,16,27,23,10,,,,2.0,1.1,1.7*32
$GPRMC,182310.000,A,3718.8953,N,00555.9352,W,22.78,331.19,210221,,*2E
$GPGGA,182311.000,3718.9006,N,00555.9395,W,1,09,1.1,56.5,M,49.5,M,,0000*70
$GPGSA,A,3,18,31,26,29,20,16,27,23,10,,,,2.0,1.1,1.7*32
$GPRMC,182311.000,A,3718.9006,N,00555.9395,W,22.64,323.44,210221,,*2A
$GPGGA,182312.000,3718.9054,N,00555.9447,W,1,09,1.1,56.5,M,49.5,M,,0000*7C
$GPGSA,A,3,18,31,26,29,20,16,27,23,10,,,,2.0,1.1,1.7*32
$GPRMC,182312.000,A,3718.9054,N,00555.9447,W,22.72,315.81,210221,,*2D
$GPGGA,182313.000,3718.9097,N,00555.9506,W,1,09,1.1,56.4,M,49.5,M,,0000*77
$GPGSA,A,3,18,31,26,29,20,16,27,23,10,,,,2.0,1.1,1.7*32
$GPRMC,182313.000,A,3718.9097,N,00555.9506,W,22.83,308.35,210221,,*2A
$GPGGA,182314.000,3718.9133,N,00555.9572,W,1,09,1.1,56.4,M,49.5,M,,0000*7C
$GPGSA,A,3,18,31,26,29,20,16,27,23,10,,,,2.0,1.1,1.7*32
$GPGSV,3,1,12,26,83,023,48,18,57,059,46,16,55,321,46,27,35,276,44*7A
$GPGSV,3,2,12,31,32,190,46,20,29,118,44,23,22,119,41,29,14,063,41*70
$GPGSV,3,3,12,10,12,148,43,08,02,263,28,25,01,123,19,33,45,195,25*70
$GPRMC,182314.000,A,3718.9133,N,00555.9572,W,22.95,300.92,210221,,*23
$GPGGA,182315.000,3718.9162,N,00555.9643,W,1,09,1.1,56.4,M,49.5,M,,0000*78
$GPGSA,A,3,18,31,26,29,20,16,27,23,10,,,,2.0,1.1,1.7*32
$GPRMC,182315.000,A,3718.9162,N,00555.9643,W,22.90,295.08,210221,,*2C
$GPGGA,182316.000,3718.9187,N,00555.9716,W,1,09,1.1,56.4,M,49.5,M,,0000*71
$GPGSA,A,3,18,31,26,29,20,16,27,23,10,,,,2.0,1.1,1.7*32
$GPRMC,182316.000,A,3718.9187,N,00555.9716,W,22.53,291.46,210221,,*24
$GPGGA,182317.000,3718.9209,N,00555.9789,W,1,09,1.1,56.3,M,49.5,M,,0000*74
$GPGSA,A,3,18,31,26,29,20,16,27,23,10,,,,2.0,1.1,1.7*32
$GPRMC,182317.000,A,3718.9209,N,00555.9789,W,21.82,290.46,210221,,*28
$GPGGA,182318.000,3718.9230,N,00555.9859,W,1,09,1.1,56.3,M,49.5,M,,0000*73
$GPGSA,A,3,18,31,26,29,20,16,27,23,10,,,,2.0,1.1,1.7*32
$GPRMC,182318.000,A,3718.9230,N,00555.9859,W,20.76,291.78,210221,,*29
$GPGGA,182319.000,3718.9253,N,00555.9922,W,1,09,1.1,56.2,M,49.5,M,,0000*7B
$GPGSA,A,3,18,31,26,29,20,16,27,23,10,,,,2.0,1.1,1.7*32
$GPGSV,3,1,12,26,83,024,47,18,57,059,46,16,55,321,47,27,35,276,45*72
$GPGSV,3,2,12,31,32,190,45,20,29,118,43,23,22,119,43,29,14,064,38*7F
$GPGSV,3,3,12,10,12,148,42,08,02,263,35,25,01,124,24,33,45,195,24*75
$GPRMC,182319.000,A,3718.9253,N,00555.9922,W,18.80,297.71,210221,,*2D
$GPGGA,182320.000,3718.9280,N,00555.9977,W,1,09,1.1,56.1,M,49.5,M,,0000*7C
$GPGSA,A,3,18,31,26,29,20,16,27,23,10,,,,2.0,1.1,1.7*32
$GPRMC,182320.000,A,3718.9280,N,00555.9977,W,18.33,306.61,210221,,*29
$GPGGA,182321.000,3718.9315,N,00556.0025,W,1,09,1.1,56.0,M,49.5,M,,0000*75
$GPGSA,A,3,18,31,26,29,20,16,27,23,10,,,,2.0,1.1,1.7*32
$GPRMC,182321.000,A,3718.9315,N,00556.0025,W,18.94,316.98,210221,,*2B
$GPGGA,182322.000,3718.9357,N,00556.0067,W,1,09,1.1,55.9,M,49.5,M,,0000*7C
$GPGSA,A,3,18,31,26,29,20,16,27,23,10,,,,2.0,1.1,1.7*32
$GPRMC,182322.000,A,3718.9357,N,00556.0067,W,20.06,325.45,210221,,*28
$GPGGA,182323.000,3718.9405,N,00556.0107,W,1,09,1.1,56.0,M,49.5,M,,0000*70
$GPGSA,A,3,18,31,26,29,20,16,27,23,10,,,,2.0,1.1,1.7*32
$GPRMC,182323.000,A,3718.9405,N,00556.0107,W,21.66,327.97,210221,,*24
$GPGGA,182324.000,3718.9458,N,00556.0148,W,1,09,1.1,56.1,M,49.5,M,,0000*75
$GPGSA,A,3,18,31,26,29,20,16,27,23,10,,,,2.0,1.1,1.7*32
$GPGSV,3,1,12,26,83,024,47,18,57,059,46,16,55,321,46,27,35,276,44*72
$GPGSV,3,2,12,31,32,190,46,20,29,118,43,23,22,119,42,29,14,064,39*7C
$GPGSV,3,3,12,10,12,148,43,08,02,263,27,25,01,124,26,33,45,195,25*74
$GPRMC,182324.000,A,3718.9458,N,00556.0148,W,23.04,328.89,210221,,*26
$GPGGA,182325.000,3718.9515,N,00556.0190,W,1,09,1.1,56.2,M,49.5,M,,0000*7A
$GPGSA,A,3,18,31,26,29,20,16,27,23,10,,,,2.0,1.1,1.7*32
$GPRMC,182325.000,A,3718.9515,N,00556.0190,W,23.99,329.61,210221,,*29
$GPGGA,182326.000,3718.9573,N,00556.0233,W,1,09,1.1,56.5,M,49.5,M,,0000*74
$GPGSA,A,3,18,31,26,29,20,16,27,23,10,,,,2.0,1.1,1.7*32
$GPRMC,182326.000,A,3718.9573,N,00556.0233,W,24.63,330.01,210221,,*2C
$GPGGA,182327.000,3718.9633,N,00556.0277,W,1,09,1.1,56.7,M,49.5,M,,0000*70
$GPGSA,A,3,18,31,26,29,20,16,27,23,10,,,,2.0,1.1,1.7*32
$GPRMC,182327.000,A,3718.9633,N,00556.0277,W,25.20,329.81,210221,,*2C
$GPGGA,182328.000,3718.9695,N,00556.0321,W,1,09,1.1,57.0,M,49.5,M,,0000*77
$GPGSA,A,3,18,31,26,29,20,16,27,23,10,,,,2.0,1.1,1.7*32
$GPRMC,182328.000,A,3718.9695,N,00556.0321,W,25.59,329.93,210221,,*20
$GPGGA,182329.000,3718.9756,N,00556.0366,W,1,09,1.1,57.3,M,49.5,M,,0000*78
$GPGSA,A,3,18,31,26,29,20,16,27,23,10,,,,2.0,1.1,1.7*32
$GPGSV,3,1,12,26,83,024,47,18,57,059,46,16,55,321,46,27,35,276,44*72
$GPGSV,3,2,12,31,32,190,46,20,29,118,43,23,22,119,42,29,14,064,44*76
$GPGSV,3,3,12,10,12,148,45,08,02,263,25,25,01,124,22,33,45,195,26*77
$GPRMC,182329.000,A,3718.9756,N,00556.0366,W,25.58,330.36,210221,,*2A
$GPGGA,182330.000,3718.9818,N,00556.0410,W,1,09,1.1,57.6,M,49.5,M,,0000*76
$GPGSA,A,3,18,31,26,29,20,16,27,23,10,,,,2.0,1.1,1.7*32
$GPRMC,182330.000,A,3718.9818,N,00556.0410,W,25.56,330.20,210221,,*28
$GPGGA,182331.000,3718.9881,N,00556.0455,W,1,09,1.1,57.9,M,49.5,M,,0000*79
$GPGSA,A,3,18,31,26,29,20,16,27,23,10,,,,2.0,1.1,1.7*32
$GPRMC,182331.000,A,3718.9881,N,00556.0455,W,25.83,330.15,210221,,*26
$GPGGA,182332.000,3718.9943,N,00556.0500,W,1,09,1.1,58.1,M,49.5,M,,0000*73
$GPGSA,A,3,18,31,26,29,20,16,27,23,10,,,,2.0,1.1,1.7*32
$GPRMC,182332.000,A,3718.9943,N,00556.0500,W,25.86,330.09,210221,,*23
$GPGGA,182333.000,3719.0006,N,00556.0545,W,1,09,1.1,58.4,M,49.5,M,,0000*76
$GPGSA,A,3,18,31,26,29,20,16,27,23,10,,,,2.0,1.1,1.7*32
$GPRMC,182333.000,A,3719.0006,N,00556.0545,W,25.82,330.05,210221,,*2B
$GPGGA,182334.000,3719.0068,N,00556.0590,W,1,09,1.1,58.6,M,49.5,M,,0000*73
$GPGSA,A,3,18,31,26,29,20,16,27,23,10,,,,2.0,1.1,1.7*32
$GPGSV,3,1,11,26,83,024,47,18,57,059,46,16,55,321,46,27,35,276,44*71
$GPGSV,3,2,11,31,32,190,46,20,29,118,43,23,22,119,43,29,14,064,42*72
$GPGSV,3,3,11,10,12,148,46,08,02,263,,25,01,124,22*48
$GPRMC,182334.000,A,3719.0068,N,00556.0590,W,25.75,329.85,210221,,*24
$GPGGA,182335.000,3719.0130,N,00556.0635,W,1,09,1.1,58.8,M,49.5,M,,0000*7C
$GPGSA,A,3,18,31,26,29,20,16,27,23,10,,,,2.0,1.1,1.7*32
$GPRMC,182335.000,A,3719.0130,N,00556.0635,W,25.67,329.82,210221,,*21
$GPGGA,182336.000,3719.0192,N,00556.0680,W,1,09,1.1,59.1,M,49.5,M,,0000*71
$GPGSA,A,3,18,31,26,29,20,16,27,23,10,,,,2.0,1.1,1.7*32
$GPRMC,182336.000,A,3719.0192,N,00556.0680,W,25.52,329.87,210221,,*27
$GPGGA,182337.000,3719.0253,N,00556.0725,W,1,09,1.1,59.3,M,49.5,M,,0000*72
$GPGSA,A,3,18,31,26,29,20,16,27,23,10,,,,2.0,1.1,1.7*32
$GPRMC,182337.000,A,3719.0253,N,00556.0725,W,25.41,329.90,210221,,*22
$GPGGA,182338.000,3719.0315,N,00556.0769,W,1,09,1.1,59.6,M,49.5,M,,0000*73
$GPGSA,A,3,18,31,26,29,20,16,27,23,10,,,,2.0,1.1,1.7*32
$GPRMC,182338.000,A,3719.0315,N,00556.0769,W,25.34,329.98,210221,,*2C
$GPGGA,182339.000,3719.0376,N,00556.0814,W,1,09,1.1,59.9,M,49.5,M,,0000*7D
$GPGSA,A,3,18,31,26,29,20,16,27,23,10,,,,2.0,1.1,1.7*32
$GPGSV,3,1,11,26,83,024,47,18,57,059,46,16,55,321,47,27,35,276,44*70
$GPGSV,3,2,11,31,32,190,46,20,29,118,43,23,22,119,43,29,14,064,40*70
$GPGSV,3,3,11,10,12,148,46,08,02,263,11,25,01,124,22*48
$GPRMC,182339.000,A,3719.0376,N,00556.0814,W,25.36,330.23,210221,,*27
$GPGGA,182340.000,3719.0438,N,00556.0857,W,1,09,1.1,60.2,M,49.5,M,,0000*78
$GPGSA,A,3,18,31,26,29,20,16,27,23,10,,,,2.0,1.1,1.7*32
$GPRMC,182340.000,A,3719.0438,N,00556.0857,W,25.42,330.57,210221,,*23
$GPGGA,182341.000,3719.0499,N,00556.0901,W,1,09,1.1,60.4,M,49.5,M,,0000*76
$GPGSA,A,3,18,31,26,29,20,16,27,23,10,,,,2.0,1.1,1.7*32
$GPRMC,182341.000,A,3719.0499,N,00556.0901,W,25.42,330.47,210221,,*2A
$GPGGA,182342.000,3719.0561,N,00556.0945,W,1,09,1.1,60.6,M,49.5,M,,0000*71
$GPGSA,A,3,18,31,26,29,20,16,27,23,10,,,,2.0,1.1,1.7*32
$GPRMC,182342.000,A,3719.0561,N,00556.0945,W,25.27,330.00,210221,,*2F
$GPGGA,182343.000,3719.0621,N,00556.0989,W,1,09,1.1,60.9,M,49.5,M,,0000*78
$GPGSA,A,3,18,31,26,29,20,16,27,23,10,,,,2.0,1.1,1.7*32
$GPRMC,182343.000,A,3719.0621,N,00556.0989,W,24.89,329.82,210221,,*2E
$GPGGA,182344.000,3719.0681,N,00556.1033,W,1,09,1.1,61.1,M,49.5,M,,0000*75
$GPGSA,A,3,18,31,26,29,20,16,27,23,10,,,,2.0,1.1,1.7*32
$GPGSV,3,1,11,26,83,025,47,18,57,059,46,16,55,322,47,27,36,277,44*70
$GPGSV,3,2,11,31,32,190,46,20,29,118,43,23,23,119,44,29,14,064,40*76
$GPGSV,3,3,11,10,12,148,46,08,02,263,29,25,00,124,26*46
$GPRMC,182344.000,A,3719.0681,N,00556.1033,W,24.54,329.93,210221,,*2A
$GPGGA,182345.000,3719.0739,N,00556.1075,W,1,09,1.1,61.4,M,49.5,M,,0000*71
$GPGSA,A,3,18,31,26,29,20,16,27,23,10,,,,2.0,1.1,1.7*32
$GPRMC,182345.000,A,3719.0739,N,00556.1075,W,24.22,329.65,210221,,*23
$GPGGA,182346.000,3719.0796,N,00556.1118,W,1,09,1.1,61.7,M,49.5,M,,0000*7E
$GPGSA,A,3,18,31,26,29,20,16,27,23,10,,,,2.0,1.1,1.7*32
$GPRMC,182346.000,A,3719.0796,N,00556.1118,W,23.30,328.95,210221,,*25
$GPGGA,182347.000,3719.0850,N,00556.1160,W,1,09,1.1,62.0,M,49.5,M,,0000*71
$GPGSA,A,3,18,31,26,29,20,16,27,23,10,,,,2.0,1.1,1.7*32
$GPRMC,182347.000,A,3719.0850,N,00556.1160,W,21.94,326.55,210221,,*20
$GPGGA,182348.000,3719.0897,N,00556.1202,W,1,09,1.1,62.4,M,49.5,M,,0000*76
$GPGSA,A,3,18,31,26,29,20,16,27,23,10,,,,2.0,1.1,1.7*32
$GPRMC,182348.000,A,3719.0897,N,00556.1202,W,19.93,323.72,210221,,*2F
$GPGGA,182349.000,3719.0940,N,00556.1239,W,1,09,1.1,62.8,M,49.5,M,,0000*78
$GPGSA,A,3,18,31,26,29,20,16,27,23,10,,,,2.0,1.1,1.7*32
$GPGSV,3,1,11,26,83,026,47,18,57,059,46,16,55,322,47,27,36,277,44*73
$GPGSV,3,2,11,31,32,190,47,20,29,118,42,23,23,119,44,29,14,064,41*77
$GPGSV,3,3,11,10,12,148,44,08,02,263,35,25,00,124,32*4C
$GPRMC,182349.000,A,3719.0940,N,00556.1239,W,17.57,325.99,210221,,*28
$GPGGA,182350.000,3719.0981,N,00556.1268,W,1,09,1.1,63.1,M,49.5,M,,0000*71
$GPGSA,A,3,18,31,26,29,20,16,27,23,10,,,,2.0,1.1,1.7*32
$GPRMC,182350.000,A,3719.0981,N,00556.1268,W,16.25,336.19,210221,,*27
$GPGGA,182351.000,3719.1024,N,00556.1286,W,1,09,1.1,63.4,M,49.5,M,,0000*72
$GPGSA,A,3,18,31,26,29,20,16,27,23,10,,,,2.0,1.1,1.7*32
$GPRMC,182351.000,A,3719.1024,N,00556.1286,W,16.77,346.56,210221,,*2A
$GPGGA,182352.000,3719.1071,N,00556.1298,W,1,09,1.1,63.7,M,49.5,M,,0000*7D
$GPGSA,A,3,18,31,26,29,20,16,27,23,10,,,,2.0,1.1,1.7*32
$GPRMC,182352.000,A,3719.1071,N,00556.1298,W,17.45,349.77,210221,,*2A
$GPGGA,182353.000,3719.1119,N,00556.1309,W,1,09,1.1,63.9,M,49.5,M,,0000*74
$GPGSA,A,3,18,31,26,29,20,16,27,23,10,,,,2.0,1.1,1.7*32
$GPRMC,182353.000,A,3719.1119,N,00556.1309,W,17.86,348.93,210221,,*29
$GPGGA,182354.000,3719.1168,N,00556.1325,W,1,09,1.1,64.2,M,49.5,M,,0000*77
$GPGSA,A,3,18,31,26,29,20,16,27,23,10,,,,2.0,1.1,1.7*32
$GPGSV,3,1,11,26,83,026,47,18,57,059,46,16,55,322,46,27,36,277,44*72
$GPGSV,3,2,11,31,32,190,46,20,29,118,43,23,23,119,43,29,14,064,42*73
$GPGSV,3,3,11,10,12,148,41,08,02,263,32,25,00,124,37*4B
$GPRMC,182354.000,A,3719.1168,N,00556.1325,W,18.58,342.78,210221,,*25
$GPGGA,182355.000,3719.1217,N,00556.1349,W,1,09,1.1,64.5,M,49.5,M,,0000*70
$GPGSA,A,3,18,31,26,29,20,16,27,23,10,,,,2.0,1.1,1.7*32
$GPRMC,182355.000,A,3719.1217,N,00556.1349,W,19.59,333.83,210221,,*27
$GPGGA,182356.000,3719.1265,N,00556.1385,W,1,09,1.1,64.7,M,49.5,M,,0000*74
$GPGSA,A,3,18,31,26,29,20,16,27,23,10,,,,2.0,1.1,1.7*32
$GPRMC,182356.000,A,3719.1265,N,00556.1385,W,20.28,325.19,210221,,*29
$GPGGA,182357.000,3719.1309,N,00556.1429,W,1,09,1.1,65.0,M,49.5,M,,0000*79
$GPGSA,A,3,18,31,26,29,20,16,27,23,10,,,,2.0,1.1,1.7*32
$GPRMC,182357.000,A,3719.1309,N,00556.1429,W,20.68,319.38,210221,,*2A
$GPGGA,182358.000,3719.1353,N,00556.1477,W,1,09,1.1,65.2,M,49.5,M,,0000*70
$GPGSA,A,3,18,31,26,29,20,16,27,23,10,,,,2.0,1.1,1.7*32
$GPRMC,182358.000,A,3719.1353,N,00556.1477,W,21.05,317.17,210221,,*28
$GPGGA,182359.000,3719.1396,N,00556.1527,W,1,09,1.1,65.3,M,49.5,M,,0000*7D
$GPGSA,A,3,18,31,26,29,20,16,27,23,10,,,,2.0,1.1,1.7*32
$GPGSV,3,1,11,26,83,026,47,18,57,059,46,16,55,322,46,27,36,277,44*72
$GPGSV,3,2,11,31,32,190,46,20,29,118,43,23,23,119,43,29,14,064,42*73
$GPGSV,3,3,11,10,12,148,43,08,02,263,18,25,00,124,37*41
$GPRMC,182359.000,A,3719.1396,N,00556.1527,W,21.33,318.12,210221,,*2B
$GPGGA,182400.000,3719.1442,N,00556.1576,W,1,09,1.1,65.5,M,49.5,M,,0000*7A
$GPGSA,A,3,18,31,26,29,20,16,27,23,10,,,,2.0,1.1,1.7*32
$GPRMC,182400.000,A,3719.1442,N,00556.1576,W,21.80,320.89,210221,,*2B
$GPGGA,182401.000,3719.1490,N,00556.1623,W,1,09,1.1,65.6,M,49.5,M,,0000*74
$GPGSA,A,3,18,31,26,29,20,16,27,23,10,,,,2.0,1.1,1.7*32
$GPRMC,182401.000,A,3719.1490,N,00556.1623,W,21.97,323.91,210221,,*2A
$GPGGA,182402.000,3719.1540,N,00556.1668,W,1,09,1.1,65.8,M,49.5,M,,0000*7A
$GPGSA,A,3,18,31,26,29,20,16,27,23,10,,,,2.0,1.1,1.7*32
$GPRMC,182402.000,A,3719.1540,N,00556.1668,W,22.06,325.27,210221,,*2A
$GPGGA,182403.000,3719.1591,N,00556.1712,W,1,09,1.1,66.1,M,49.5,M,,0000*71
$GPGSA,A,3,18,31,26,29,20,16,27,23,10,,,,2.0,1.1,1.7*32
$GPRMC,182403.000,A,3719.1591,N,00556.1712,W,22.66,324.79,210221,,*27
$GPGGA,182404.000,3719.1642,N,00556.1759,W,1,09,1.1,66.4,M,49.5,M,,0000*71
$GPGSA,A,3,18,31,26,29,20,16,27,23,10,,,,2.0,1.1,1.7*32
$GPGSV,3,1,11,26,83,026,47,18,57,059,46,16,55,322,46,27,36,277,44*72
$GPGSV,3,2,11,31,32,190,46,20,29,118,42,23,23,119,44,29,14,064,42*75
$GPGSV,3,3,11,10,12,148,44,08,02,263,17,25,00,124,32*4C
$GPRMC,182404.000,A,3719.1642,N,00556.1759,W,22.85,323.22,210221,,*26
$GPGGA,182405.000,3719.1692,N,00556.1808,W,1,09,1.1,66.8,M,49.5,M,,0000*7A
$GPGSA,A,3,18,31,26,29,20,16,27,23,10,,,,2.0,1.1,1.7*32
$GPRMC,182405.000,A,3719.1692,N,00556.1808,W,22.87,321.48,210221,,*2D
$GPGGA,182406.000,3719.1742,N,00556.1859,W,1,09,1.1,67.2,M,49.5,M,,0000*7A
$GPGSA,A,3,18,31,26,29,20,16,27,23,10,,,,2.0,1.1,1.7*32
$GPRMC,182406.000,A,3719.1742,N,00556.1859,W,23.03,319.91,210221,,*24
$GPGGA,182407.000,3719.1790,N,00556.1912,W,1,09,1.1,67.5,M,49.5,M,,0000*7D
$GPGSA,A,3,18,31,26,29,20,16,27,23,10,,,,2.0,1.1,1.7*32
$GPRMC,182407.000,A,3719.1790,N,00556.1912,W,23.14,318.66,210221,,*2B
$GPGGA,182408.000,3719.1838,N,00556.1966,W,1,09,1.1,67.9,M,49.5,M,,0000*70
$GPGSA,A,3,18,31,26,29,20,16,27,23,10,,,,2.0,1.1,1.7*32
$GPRMC,182408.000,A,3719.1838,N,00556.1966,W,23.11,317.33,210221,,*20
$GPGGA,182409.000,3719.1885,N,00556.2022,W,1,09,1.1,68.2,M,49.5,M,,0000*79
$GPGSA,A,3,18,31,26,29,20,16,27,23,10,,,,2.0,1.1,1.7*32
$GPGSV,3,1,11,26,83,026,47,18,57,059,46,16,55,322,46,27,36,277,44*72
$GPGSV,3,2,11,31,32,190,46,20,29,118,42,23,23,119,44,29,14,064,36*76
$GPGSV,3,3,11,10,12,148,43,08,02,263,11,25,00,124,37*48
$GPRMC,182409.000,A,3719.1885,N,00556.2022,W,23.24,315.17,210221,,*2F
$GPGGA,182410.000,3719.1929,N,00556.2081,W,1,09,1.1,68.6,M,49.5,M,,0000*7B
$GPGSA,A,3,18,31,26,29,20,16,27,23,10,,,,2.0,1.1,1.7*32
$GPRMC,182410.000,A,3719.1929,N,00556.2081,W,23.47,312.23,210221,,*2C
$GPGGA,182411.000,3719.1973,N,00556.2143,W,1,09,1.1,68.9,M,49.5,M,,0000*75
$GPGSA,A,3,18,31,26,29,20,16,27,23,10,,,,2.0,1.1,1.7*32
$GPRMC,182411.000,A,3719.1973,N,00556.2143,W,23.49,310.29,210221,,*2B
$GPGGA,182412.000,3719.2015,N,00556.2206,W,1,09,1.1,69.2,M,49.5,M,,0000*74
$GPGSA,A,3,18,31,26,29,20,16,27,23,10,,,,2.0,1.1,1.7*32
$GPRMC,182412.000,A,3719.2015,N,00556.2206,W,23.59,309.86,210221,,*2C
$GPGGA,182413.000,3719.2057,N,00556.2270,W,1,09,1.1,69.4,M,49.5,M,,0000*74
$GPGSA,A,3,18,31,26,29,20,16,27,23,10,,,,2.0,1.1,1.7*32
$GPRMC,182413.000,A,3719.2057,N,00556.2270,W,24.22,309.98,210221,,*2E
$GPGGA,182414.000,3719.2100,N,00556.2337,W,1,09,1.1,69.6,M,49.5,M,,0000*70
$GPGSA,A,3,18,31,26,29,20,16,27,23,10,,,,2.0,1.1,1.7*32
$GPGSV,3,1,11,26,84,027,47,18,57,059,46,16,55,322,46,27,36,277,45*75
$GPGSV,3,2,11,31,32,190,46,20,29,118,42,23,23,119,44,29,14,064,41*76
$GPGSV,3,3,11,10,12,148,43,08,02,263,12,25,00,124,31*4D
$GPRMC,182414.000,A,3719.2100,N,00556.2337,W,24.72,308.33,210221,,*2D
$GPGGA,182415.000,3719.2142,N,00556.2406,W,1,09,1.1,69.8,M,49.5,M,,0000*7C
$GPGSA,A,3,18,31,26,29,20,16,27,23,10,,,,2.0,1.1,1.7*32
$GPRMC,182415.000,A,3719.2142,N,00556.2406,W,24.98,305.93,210221,,*2C
$GPGGA,182416.000,3719.2182,N,00556.2479,W,1,09,1.1,70.0,M,49.5,M,,0000*7B
$GPGSA,A,3,18,31,26,29,20,16,27,23,10,,,,2.0,1.1,1.7*32
$GPRMC,182416.000,A,3719.2182,N,00556.2479,W,25.30,304.13,210221,,*21
$GPGGA,182417.000,3719.2221,N,00556.2554,W,1,09,1.1,70.2,M,49.5,M,,0000*7C
$GPGSA,A,3,18,31,26,29,20,16,27,23,10,,,,2.0,1.1,1.7*32
$GPRMC,182417.000,A,3719.2221,N,00556.2554,W,25.81,301.89,210221,,*28
$GPGGA,182418.000,3719.2258,N,00556.2632,W,1,09,1.1,70.4,M,49.5,M,,0000*78
$GPGSA,A,3,18,31,26,29,20,16,27,23,10,,,,2.0,1.1,1.7*32
$GPRMC,182418.000,A,3719.2258,N,00556.2632,W,26.35,299.81,210221,,*2E
$GPGGA,182419.000,3719.2293,N,00556.2714,W,1,09,1.1,70.7,M,49.5,M,,0000*78
$GPGSA,A,3,18,31,26,29,20,16,27,23,10,,,,2.0,1.1,1.7*32
$GPGSV,3,1,11,26,84,028,47,18,57,059,46,16,55,322,46,27,36,277,45*7A
$GPGSV,3,2,11,31,31,190,46,20,29,118,42,23,23,119,44,29,14,064,37*74
$GPGSV,3,3,11,10,12,148,43,08,02,263,13,25,00,124,30*4D
$GPRMC,182419.000,A,3719.2293,N,00556.2714,W,26.78,297.98,210221,,*22
$GPGGA,182420.000,3719.2327,N,00556.2798,W,1,09,1.1,71.0,M,49.5,M,,0000*7E
$GPGSA,A,3,18,31,26,29,20,16,27,23,10,,,,2.0,1.1,1.7*32
$GPRMC,182420.000,A,3719.2327,N,00556.2798,W,27.15,296.52,210221,,*2F
$GPGGA,182421.000,3719.2360,N,00556.2884,W,1,09,1.1,71.3,M,49.5,M,,0000*7D
$GPGSA,A,3,18,31,26,29,20,16,27,23,10,,,,2.0,1.1,1.7*32
$GPRMC,182421.000,A,3719.2360,N,00556.2884,W,27.50,295.15,210221,,*2E
$GPGGA,182422.000,3719.2392,N,00556.2973,W,1,09,1.1,71.5,M,49.5,M,,0000*7C
$GPGSA,A,3,18,31,26,29,20,16,27,23,10,,,,2.0,1.1,1.7*32
$GPRMC,182422.000,A,3719.2392,N,00556.2973,W,27.83,293.26,210221,,*21
$GPGGA,182423.000,3719.2421,N,00556.3064,W,1,09,1.1,71.7,M,49.5,M,,0000*7E
$GPGSA,A,3,18,31,26,29,20,16,27,23,10,,,,2.0,1.1,1.7*32
$GPRMC,182423.000,A,3719.2421,N,00556.3064,W,28.19,290.73,210221,,*2E
$GPGGA,182424.000,3719.2447,N,00556.3157,W,1,09,1.1,71.9,M,49.5,M,,0000*76
$GPGSA,A,3,18,31,26,29,20,16,27,23,10,,,,2.0,1.1,1.7*32
$GPGSV,3,1,12,26,84,028,47,18,57,059,45,16,55,322,47,27,36,277,45*7B
$GPGSV,3,2,12,31,31,190,45,20,29,118,43,23,23,119,44,29,14,064,41*74
$GPGSV,3,3,12,10,12,148,43,08,02,263,23,25,00,124,35,37,37,138,29*79
$GPRMC,182424.000,A,3719.2447,N,00556.3157,W,28.57,288.54,210221,,*2E
$GPGGA,182425.000,3719.2471,N,00556.3253,W,1,09,1.1,72.1,M,49.5,M,,0000*7E
$GPGSA,A,3,18,31,26,29,20,16,27,23,10,,,,2.0,1.1,1.7*32
$GPRMC,182425.000,A,3719.2471,N,00556.3253,W,28.60,287.39,210221,,*2D
$GPGGA,182426.000,3719.2494,N,00556.3349,W,1,09,1.1,72.3,M,49.5,M,,0000*7E
$GPGSA,A,3,18,31,26,29,20,16,27,23,10,,,,2.0,1.1,1.7*32
$GPRMC,182426.000,A,3719.2494,N,00556.3349,W,28.95,286.41,210221,,*2B
$GPGGA,182427.000,3719.2516,N,00556.3447,W,1,09,1.1,72.5,M,49.5,M,,0000*7B
$GPGSA,A,3,18,31,26,29,20,16,27,23,10,,,,2.0,1.1,1.7*32
$GPRMC,182427.000,A,3719.2516,N,00556.3447,W,29.01,286.19,210221,,*29
$GPGGA,182428.000,3719.2539,N,00556.3544,W,1,09,1.1,72.7,M,49.5,M,,0000*79
$GPGSA,A,3,18,31,26,29,20,16,27,23,10,,,,2.0,1.1,1.7*32
$GPRMC,182428.000,A,3719.2539,N,00556.3544,W,28.98,286.52,210221,,*27
$GPGGA,182429.000,3719.2561,N,00556.3641,W,1,09,1.1,72.9,M,49.5,M,,0000*7D
$GPGSA,A,3,18,31,26,29,20,16,27,23,10,,,,2.0,1.1,1.7*32
$GPGSV,3,1,11,26,84,028,47,18,57,059,46,16,55,322,47,27,36,277,45*7B
$GPGSV,3,2,11,31,31,190,44,20,29,118,43,23,23,119,44,29,14,064,41*76
$GPGSV,3,3,11,10,12,148,42,08,02,263,26,25,00,124,28*43
$GPRMC,182429.000,A,3719.2561,N,00556.3641,W,28.78,286.54,210221,,*25
$GPGGA,182430.000,3719.2584,N,00556.3737,W,1,09,1.1,73.1,M,49.5,M,,0000*77
$GPGSA,A,3,18,31,26,29,20,16,27,23,10,,,,2.0,1.1,1.7*32
$GPRMC,182430.000,A,3719.2584,N,00556.3737,W,28.27,286.78,210221,,*22
$GPGGA,182431.000,3719.2606,N,00556.3830,W,1,09,1.1,73.3,M,49.5,M,,0000*75
$GPGSA,A,3,18,31,26,29,20,16,27,23,10,,,,2.0,1.1,1.7*32
$GPRMC,182431.000,A,3719.2606,N,00556.3830,W,27.26,286.84,210221,,*2F
$GPGGA,182432.000,3719.2627,N,00556.3920,W,1,09,1.1,73.5,M,49.5,M,,0000*73
$GPGSA,A,3,18,31,26,29,20,16,27,23,10,,,,2.0,1.1,1.7*32
$GPRMC,182432.000,A,3719.2627,N,00556.3920,W,26.32,286.65,210221,,*24
$GPGGA,182433.000,3719.2648,N,00556.4008,W,1,09,1.1,73.7,M,49.5,M,,0000*7D
$GPGSA,A,3,18,31,26,29,20,16,27,23,10,,,,2.0,1.1,1.7*32
$GPRMC,182433.000,A,3719.2648,N,00556.4008,W,26.20,286.92,210221,,*23
$GPGGA,182434.000,3719.2668,N,00556.4095,W,1,09,1.1,73.9,M,49.5,M,,0000*72
$GPGSA,A,3,18,31,26,29,20,16,27,23,10,,,,2.0,1.1,1.7*32
$GPGSV,3,1,11,26,84,028,47,18,57,059,46,16,55,322,48,27,36,277,45*74
$GPGSV,3,2,11,31,31,190,44,20,29,118,43,23,23,119,43,29,14,064,40*70
$GPGSV,3,3,11,10,12,148,38,08,02,263,30,25,00,124,28*49
$GPRMC,182434.000,A,3719.2668,N,00556.4095,W,25.72,286.20,210221,,*2F
$GPGGA,182435.000,3719.2688,N,00556.4180,W,1,09,1.1,74.1,M,49.5,M,,0000*77
$GPGSA,A,3,18,31,26,29,20,16,27,23,10,,,,2.0,1.1,1.7*32
$GPRMC,182435.000,A,3719.2688,N,00556.4180,W,25.03,286.12,210221,,*22
$GPGGA,182436.000,3719.2707,N,00556.4264,W,1,09,1.1,74.2,M,49.5,M,,0000*78
$GPGSA,A,3,18,31,26,29,20,16,27,23,10,,,,2.0,1.1,1.7*32
$GPRMC,182436.000,A,3719.2707,N,00556.4264,W,24.55,286.53,210221,,*29
$GPGGA,182437.000,3719.2726,N,00556.4343,W,1,09,1.1,74.2,M,49.5,M,,0000*7E
$GPGSA,A,3,18,31,26,29,20,16,27,23,10,,,,2.0,1.1,1.7*32
$GPRMC,182437.000,A,3719.2726,N,00556.4343,W,22.97,286.75,210221,,*23
$GPGGA,182438.000,3719.2742,N,00556.4416,W,1,09,1.1,74.5,M,49.5,M,,0000*73
$GPGSA,A,3,18,31,26,29,20,16,27,23,10,,,,2.0,1.1,1.7*32
$GPRMC,182438.000,A,3719.2742,N,00556.4416,W,20.71,286.15,210221,,*25
$GPGGA,182439.000,3719.2758,N,00556.4484,W,1,09,1.1,74.7,M,49.5,M,,0000*70
$GPGSA,A,3,18,31,26,29,20,16,27,23,10,,,,2.0,1.1,1.7*32
$GPGSV,3,1,11,26,84,028,47,18,57,059,46,16,55,322,48,27,36,277,45*74
$GPGSV,3,2,11,31,31,190,45,20,29,118,43,23,23,119,43,29,14,064,41*70
$GPGSV,3,3,11,10,12,148,34,08,02,263,28,25,00,124,20*44
$GPRMC,182439.000,A,3719.2758,N,00556.4484,W,19.45,286.62,210221,,*29
$GPGGA,182440.000,3719.2773,N,00556.4547,W,1,09,1.1,75.0,M,49.5,M,,0000*7F
$GPGSA,A,3,18,31,26,29,20,16,27,23,10,,,,2.0,1.1,1.7*32
$GPRMC,182440.000,A,3719.2773,N,00556.4547,W,18.80,288.38,210221,,*29
$GPGGA,182441.000,3719.2792,N,00556.4608,W,1,09,1.1,75.2,M,49.5,M,,0000*7B
$GPGSA,A,3,18,31,26,29,20,16,27,23,10,,,,2.0,1.1,1.7*32
$GPRMC,182441.000,A,3719.2792,N,00556.4608,W,18.60,293.36,210221,,*25
$GPGGA,182442.000,3719.2815,N,00556.4667,W,1,09,1.1,75.4,M,49.5,M,,0000*77
$GPGSA,A,3,18,31,26,29,20,16,27,23,10,,,,2.0,1.1,1.7*32
$GPRMC,182442.000,A,3719.2815,N,00556.4667,W,19.07,299.65,210221,,*23
$GPGGA,182443.000,3719.2842,N,00556.4724,W,1,09,1.1,75.7,M,49.5,M,,0000*71
$GPGSA,A,3,18,31,26,29,20,16,27,23,10,,,,2.0,1.1,1.7*32
$GPRMC,182443.000,A,3719.2842,N,00556.4724,W,19.24,302.05,210221,,*22
$GPGGA,182444.000,3719.2869,N,00556.4782,W,1,09,1.1,75.9,M,49.5,M,,0000*7D
$GPGSA,A,3,18,31,26,29,20,16,27,23,10,,,,2.0,1.1,1.7*32
$GPGSV,3,1,11,26,84,029,47,18,57,058,46,16,55,322,47,27,36,277,45*7B
$GPGSV,3,2,11,31,31,190,45,20,29,118,43,23,23,119,43,29,14,064,40*71
$GPGSV,3,3,11,10,12,148,43,08,02,263,28,25,00,124,27*43
$GPRMC,182444.000,A,3719.2869,N,00556.4782,W,19.59,299.32,210221,,*2D
$GPGGA,182445.000,3719.2894,N,00556.4844,W,1,09,1.1,76.1,M,49.5,M,,0000*70
$GPGSA,A,3,18,31,26,29,20,16,27,23,10,,,,2.0,1.1,1.7*32
$GPRMC,182445.000,A,3719.2894,N,00556.4844,W,20.05,294.68,210221,,*2A
$GPGGA,182446.000,3719.2914,N,00556.4909,W,1,09,1.1,76.3,M,49.5,M,,0000*70
$GPGSA,A,3,18,31,26,29,20,16,27,23,10,,,,2.0,1.1,1.7*32
$GPRMC,182446.000,A,3719.2914,N,00556.4909,W,20.02,289.17,210221,,*2B
$GPGGA,182447.000,3719.2929,N,00556.4975,W,1,09,1.1,76.5,M,49.5,M,,0000*72
$GPGSA,A,3,18,31,26,29,20,16,27,23,10,,,,2.0,1.1,1.7*32
$GPRMC,182447.000,A,3719.2929,N,00556.4975,W,19.53,282.92,210221,,*27
$GPGGA,182448.000,3719.2938,N,00556.5043,W,1,09,1.1,76.6,M,49.5,M,,0000*73
