$GPGGA,182102.66,,,,,1,,,,M,0.0,M,0.0,0000*41
$GAGSV,2,1,5,1,48,131,30.6,12,37,220,39.8,24,23,315,37.2,26,35,044,33.5*61
$GAGSV,2,2,5,33,87,082,33.2*74
$GPRMC,182102.66,A,,,,,,,210221,,,A*6F
$GPGGA,182103.66,3718.277827,N,00555.529754,W,1,,,98.75,M,0.0,M,0.0,0000*4B
$GAGSV,2,1,6,1,48,131,34.0,12,37,220,39.3,24,23,315,34.5,26,35,044,32.8*63
$GAGSV,2,2,6,31,74,321,31.2,33,87,082,35.9*55
$GPRMC,182103.66,A,3718.277827,N,00555.529754,W,000.4,,210221,,,A*62
$GPGGA,182104.65,,,,,1,,,,M,0.0,M,0.0,0000*44
$GPRMC,182104.65,A,,,,,,,210221,,,A*6A
$GPGGA,182105.66,,,,,1,,,,M,0.0,M,0.0,0000*46
$GPRMC,182105.66,A,,,,,,,210221,,,A*68
$GPGGA,182106.66,3718.277980,N,00555.531170,W,1,,,104.83,M,0.0,M,0.0,0000*76
$GAGSV,1,1,4,1,48,131,43.7,24,23,315,41.4,26,35,044,29.7,31,74,321,35.3*69
$GPRMC,182106.66,A,3718.277980,N,00555.531170,W,000.6,077.8,210221,,,A*46
$GPGGA,182107.67,,,,,1,,,,M,0.0,M,0.0,0000*45
$GPRMC,182107.67,A,,,,,,,210221,,,A*6B
$GPGGA,182108.64,3718.278140,N,00555.528011,W,1,,,98.00,M,0.0,M,0.0,0000*40
$GAGSV,1,1,4,1,48,131,40.4,12,37,220,35.9,24,23,315,41.7,33,87,082,28.8*6F
$GPRMC,182108.64,A,3718.278140,N,00555.528011,W,000.8,339.9,210221,,,A*49
$GPGGA,182109.66,3718.278306,N,00555.529637,W,1,,,93.52,M,0.0,M,0.0,0000*4C
$GAGSV,2,1,5,1,48,131,43.2,12,37,220,29.4,24,23,315,39.8,26,35,044,36.7*6F
$GAGSV,2,2,5,31,74,321,32.3*70
$GPRMC,182109.66,A,3718.278306,N,00555.529637,W,004.3,308.6,210221,,,A*4B
$GPGGA,182110.65,3718.278897,N,00555.532088,W,1,,,89.13,M,0.0,M,0.0,0000*42
$GAGSV,2,1,5,1,48,131,40.1,12,37,220,29.2,24,23,315,32.4,26,35,044,30.3*6C
$GAGSV,2,2,5,31,74,321,37.1*77
$GPRMC,182110.65,A,3718.278897,N,00555.532088,W,005.1,303.8,210221,,,A*4D
$GPGGA,182111.64,3718.280342,N,00555.533876,W,1,,,87.26,M,0.0,M,0.0,0000*46
$GAGSV,2,1,5,1,48,131,37.0,12,37,220,36.0,24,23,315,33.7,31,74,321,35.6*60
$GAGSV,2,2,5,33,87,081,31.2*75
$GPRMC,182111.64,A,3718.280342,N,00555.533876,W,007.5,312.5,210221,,,A*4A
$GPGGA,182112.65,3718.282125,N,00555.535807,W,1,,,88.72,M,0.0,M,0.0,0000*4B
$GAGSV,2,1,5,1,48,131,38.1,24,23,315,32.8,26,35,044,33.8,31,74,321,29.2*61
$GAGSV,2,2,5,33,87,081,29.1*7F
$GPRMC,182112.65,A,3718.282125,N,00555.535807,W,008.6,309.7,210221,,,A*4D
$GPGGA,182113.65,,,,,1,,,,M,0.0,M,0.0,0000*42
$GPRMC,182113.65,A,,,,,,,210221,,,A*6C
$GPGGA,182114.66,3718.285897,N,00555.540941,W,1,,,89.53,M,0.0,M,0.0,0000*4A
$GAGSV,2,1,6,1,48,131,41.9,12,37,220,31.0,24,23,315,38.3,26,35,044,33.0*60
$GAGSV,2,2,6,31,74,321,34.7,33,87,081,30.0*5A
$GPRMC,182114.66,A,3718.285897,N,00555.540941,W,012.5,320.3,210221,,,A*49
$GPGGA,182115.65,3718.288621,N,00555.544079,W,1,,,89.52,M,0.0,M,0.0,0000*41
$GAGSV,1,1,4,1,48,131,39.7,24,23,315,35.8,26,35,044,35.6,31,74,321,30.8*69
$GPRMC,182115.65,A,3718.288621,N,00555.544079,W,013.3,324.3,210221,,,A*40
$GPGGA,182116.64,3718.291998,N,00555.546802,W,1,,,90.03,M,0.0,M,0.0,0000*4C
$GAGSV,2,1,6,1,48,131,40.4,12,37,220,28.5,24,23,315,29.0,26,35,044,36.7*60
$GAGSV,2,2,6,31,74,321,32.5,33,87,081,29.0*56
$GPRMC,182116.64,A,3718.291998,N,00555.546802,W,015.3,328.2,210221,,,A*4A
$GPGGA,182117.66,3718.295544,N,00555.550282,W,1,,,88.54,M,0.0,M,0.0,0000*48
$GAGSV,2,1,5,1,48,131,40.8,24,23,315,29.0,26,35,044,37.0,31,74,321,34.9*6E
$GAGSV,2,2,5,33,87,081,28.4*7B
$GPRMC,182117.66,A,3718.295544,N,00555.550282,W,017.6,331.0,210221,,,A*48
$GPGGA,182118.65,3718.299848,N,00555.553970,W,1,,,88.34,M,0.0,M,0.0,0000*4A
$GAGSV,2,1,5,1,48,131,40.5,24,23,315,34.2,26,35,044,36.1,31,74,321,32.6*64
$GAGSV,2,2,5,33,87,081,32.1*75
$GPRMC,182118.65,A,3718.299848,N,00555.553970,W,020.3,329.3,210221,,,A*47
$GPGGA,182119.66,3718.304663,N,00555.557986,W,1,,,88.69,M,0.0,M,0.0,0000*4F
$GAGSV,2,1,5,1,48,131,40.4,24,23,315,33.9,26,35,044,37.2,31,74,321,33.7*6B
$GAGSV,2,2,5,33,87,080,32.5*70
$GPRMC,182119.66,A,3718.304663,N,00555.557986,W,022.0,330.1,210221,,,A*41
$GPGGA,182120.65,3718.309942,N,00555.561967,W,1,,,88.39,M,0.0,M,0.0,0000*48
$GAGSV,2,1,5,1,48,131,39.9,24,23,315,36.3,26,35,044,33.9,31,74,321,33.0*6F
$GAGSV,2,2,5,33,87,080,34.5*76
$GPRMC,182120.65,A,3718.309942,N,00555.561967,W,023.2,330.6,210221,,,A*47
$GPGGA,182121.67,3718.316051,N,00555.566016,W,1,,,87.29,M,0.0,M,0.0,0000*48
$GAGSV,2,1,6,1,48,131,40.7,12,37,220,30.4,24,23,315,37.1,26,35,044,35.0*61
$GAGSV,2,2,6,31,74,321,33.9,33,87,080,35.8*5F
$GPRMC,182121.67,A,3718.316051,N,00555.566016,W,024.0,330.4,210221,,,A*4E
$GPGGA,182122.66,3718.321740,N,00555.570146,W,1,,,86.14,M,0.0,M,0.0,0000*45
$GAGSV,2,1,6,1,48,131,40.9,12,37,220,28.6,24,23,315,35.1,26,35,044,36.8*6D
$GAGSV,2,2,6,31,74,321,33.3,33,87,080,35.4*59
$GPRMC,182122.66,A,3718.321740,N,00555.570146,W,024.8,330.0,210221,,,A*40
$GPGGA,182123.65,3718.327670,N,00555.574695,W,1,,,85.69,M,0.0,M,0.0,0000*47
$GAGSV,2,1,6,1,48,131,40.8,12,37,220,29.1,24,23,315,35.6,26,35,044,37.4*60
$GAGSV,2,2,6,31,74,321,30.6,33,87,080,36.0*58
$GPRMC,182123.65,A,3718.327670,N,00555.574695,W,025.6,329.8,210221,,,A*44
$GPGGA,182124.66,3718.333892,N,00555.579529,W,1,,,85.23,M,0.0,M,0.0,0000*43
$GAGSV,2,1,5,1,48,131,40.8,24,23,315,34.8,26,35,044,38.2,31,74,321,30.1*6B
$GAGSV,2,2,5,33,87,080,35.4*76
$GPRMC,182124.66,A,3718.333892,N,00555.579529,W,026.5,330.1,210221,,,A*4F
$GPGGA,182125.65,3718.340482,N,00555.584075,W,1,,,86.08,M,0.0,M,0.0,0000*4C
$GAGSV,2,1,6,1,48,131,40.4,12,37,220,30.5,24,23,315,31.5,26,35,044,39.9*64
$GAGSV,2,2,6,31,74,321,34.6,33,87,080,36.0*5C
$GPRMC,182125.65,A,3718.340482,N,00555.584075,W,026.7,328.7,210221,,,A*47
$GPGGA,182126.65,3718.346753,N,00555.588870,W,1,,,85.90,M,0.0,M,0.0,0000*45
$GAGSV,2,1,5,1,48,131,40.6,24,23,315,30.8,26,35,044,38.9,31,74,321,36.3*6E
$GAGSV,2,2,5,33,87,080,35.4*76
$GPRMC,182126.65,A,3718.346753,N,00555.588870,W,027.4,330.2,210221,,,A*42
$GPGGA,182127.66,3718.353443,N,00555.593688,W,1,,,85.74,M,0.0,M,0.0,0000*48
$GAGSV,2,1,5,1,48,131,39.3,24,23,315,32.8,26,35,044,39.5,31,74,321,36.6*6F
$GAGSV,2,2,5,33,87,080,34.7*74
$GPRMC,182127.66,A,3718.353443,N,00555.593688,W,027.6,330.6,210221,,,A*43
$GPGGA,182128.65,3718.359893,N,00555.598633,W,1,,,84.85,M,0.0,M,0.0,0000*4B
$GAGSV,2,1,5,1,48,131,39.8,24,23,315,30.9,26,35,044,40.2,31,74,321,36.9*61
$GAGSV,2,2,5,33,87,079,33.5*77
$GPRMC,182128.65,A,3718.359893,N,00555.598633,W,027.3,330.8,210221,,,A*44
$GPGGA,182129.67,3718.366626,N,00555.603420,W,1,,,84.40,M,0.0,M,0.0,0000*4C
$GAGSV,2,1,5,1,48,131,39.9,24,23,315,30.3,26,35,044,38.4,31,74,321,35.9*60
$GAGSV,2,2,5,33,87,079,30.8*79
$GPRMC,182129.67,A,3718.366626,N,00555.603420,W,027.4,330.6,210221,,,A*43
$GPGGA,182130.66,3718.373230,N,00555.608121,W,1,,,84.19,M,0.0,M,0.0,0000*41
$GAGSV,2,1,5,1,48,131,40.4,24,23,315,30.9,26,35,044,37.2,31,74,321,35.9*60
$GAGSV,2,2,5,33,87,079,29.0*79
$GPRMC,182130.66,A,3718.373230,N,00555.608121,W,027.4,331.6,210221,,,A*43
$GPGGA,182131.65,3718.379873,N,00555.612845,W,1,,,83.47,M,0.0,M,0.0,0000*48
$GAGSV,1,1,4,1,48,131,40.3,24,23,315,29.9,26,35,044,37.9,31,74,321,35.5*6A
$GPRMC,182131.65,A,3718.379873,N,00555.612845,W,027.3,331.1,210221,,,A*46
$GPGGA,182132.66,,,,,1,,,,M,0.0,M,0.0,0000*42
$GPRMC,182132.66,A,,,,,,,210221,,,A*6C
$GPGGA,182133.66,3718.393114,N,00555.622367,W,1,,,82.59,M,0.0,M,0.0,0000*43
$GAGSV,2,1,5,1,48,131,43.0,24,23,315,30.3,26,35,044,35.7,31,74,321,32.2*66
$GAGSV,2,2,5,33,87,079,29.9*70
$GPRMC,182133.66,A,3718.393114,N,00555.622367,W,027.3,330.3,210221,,,A*40
$GPGGA,182134.67,,,,,1,,,,M,0.0,M,0.0,0000*45
$GPRMC,182134.67,A,,,,,,,210221,,,A*6B
$GPGGA,182135.66,3718.406340,N,00555.632091,W,1,,,80.44,M,0.0,M,0.0,0000*48
$GAGSV,2,1,5,1,48,131,44.2,24,23,315,31.7,26,35,044,35.0,31,74,321,34.1*64
$GAGSV,2,2,5,33,87,079,33.4*76
$GPRMC,182135.66,A,3718.406340,N,00555.632091,W,025.9,331.1,210221,,,A*4E
$GPGGA,182136.65,3718.412626,N,00555.636937,W,1,,,80.64,M,0.0,M,0.0,0000*4B
$GAGSV,1,1,4,1,47,131,41.5,24,23,315,30.3,26,35,044,34.4,31,74,321,35.8*63
$GPRMC,182136.65,A,3718.412626,N,00555.636937,W,026.0,330.5,210221,,,A*40
$GPGGA,182137.67,3718.419604,N,00555.641030,W,1,,,81.81,M,0.0,M,0.0,0000*47
$GAGSV,2,1,6,1,47,131,42.8,12,37,220,33.0,24,23,315,31.9,26,35,044,36.1*68
$GAGSV,2,2,6,31,74,321,38.5,33,87,078,35.0*57
$GPRMC,182137.67,A,3718.419604,N,00555.641030,W,026.1,331.4,210221,,,A*47
$GPGGA,182138.66,3718.426043,N,00555.645222,W,1,,,81.74,M,0.0,M,0.0,0000*4F
$GAGSV,2,1,6,1,47,131,42.9,12,37,220,29.8,24,23,315,33.9,26,35,044,36.1*68
$GAGSV,2,2,6,31,74,321,38.5,33,87,078,34.4*52
$GPRMC,182138.66,A,3718.426043,N,00555.645222,W,025.6,329.5,210221,,,A*49
$GPGGA,182139.67,3718.432351,N,00555.649902,W,1,,,82.70,M,0.0,M,0.0,0000*48
$GAGSV,2,1,5,1,47,131,43.1,24,23,315,33.6,26,35,044,31.9,31,74,321,38.2*6E
$GAGSV,2,2,5,33,87,078,34.6*72
$GPRMC,182139.67,A,3718.432351,N,00555.649902,W,025.9,331.7,210221,,,A*4D
$GPGGA,182140.66,3718.438614,N,00555.654330,W,1,,,82.67,M,0.0,M,0.0,0000*48
$GAGSV,2,1,5,1,47,131,41.4,24,23,315,30.8,26,35,044,31.1,31,75,321,39.5*6B
$GAGSV,2,2,5,33,87,078,31.6*77
$GPRMC,182140.66,A,3718.438614,N,00555.654330,W,025.9,330.6,210221,,,A*4B
$GPGGA,182141.65,3718.444586,N,00555.659133,W,1,,,82.18,M,0.0,M,0.0,0000*4D
$GAGSV,2,1,5,1,47,131,41.9,24,23,315,30.7,26,35,044,33.0,31,75,321,37.9*68
$GAGSV,2,2,5,33,87,078,36.0*76
$GPRMC,182141.65,A,3718.444586,N,00555.659133,W,025.1,329.9,210221,,,A*49
$GPGGA,182142.67,,,,,1,,,,M,0.0,M,0.0,0000*44
$GPRMC,182142.67,A,,,,,,,210221,,,A*6A
$GPGGA,182143.68,3718.456534,N,00555.668321,W,1,,,81.65,M,0.0,M,0.0,0000*42
$GAGSV,2,1,5,1,47,131,42.8,24,23,315,33.0,26,35,044,34.5,31,75,321,34.9*6F
$GAGSV,2,2,5,33,87,078,31.0*71
$GPRMC,182143.68,A,3718.456534,N,00555.668321,W,024.6,327.7,210221,,,A*49
$GPGGA,182144.67,3718.462128,N,00555.673131,W,1,,,81.97,M,0.0,M,0.0,0000*40
$GAGSV,2,1,5,1,47,131,43.1,24,23,315,33.5,26,35,044,34.7,31,75,321,35.7*6F
$GAGSV,2,2,5,33,87,078,34.0*74
$GPRMC,182144.67,A,3718.462128,N,00555.673131,W,023.8,332.4,210221,,,A*48
$GPGGA,182145.68,3718.467957,N,00555.677210,W,1,,,81.17,M,0.0,M,0.0,0000*47
$GAGSV,2,1,5,1,47,131,42.3,24,23,315,31.8,26,35,044,30.0,31,75,321,37.3*66
$GAGSV,2,2,5,33,87,078,34.0*74
$GPRMC,182145.68,A,3718.467957,N,00555.677210,W,023.8,332.0,210221,,,A*43
$GPGGA,182146.67,3718.473496,N,00555.681148,W,1,,,81.25,M,0.0,M,0.0,0000*48
$GAGSV,2,1,5,1,47,131,42.5,24,23,315,32.2,26,35,044,30.4,31,75,321,37.7*69
$GAGSV,2,2,5,33,87,077,34.8*73
$GPRMC,182146.67,A,3718.473496,N,00555.681148,W,022.3,329.7,210221,,,A*4A
$GPGGA,182147.67,3718.478867,N,00555.685001,W,1,,,80.86,M,0.0,M,0.0,0000*40
$GAGSV,2,1,5,1,47,131,42.9,24,23,315,34.6,26,35,044,35.8,31,75,321,37.0*69
$GAGSV,2,2,5,33,87,077,34.7*7C
$GPRMC,182147.67,A,3718.478867,N,00555.685001,W,022.7,327.9,210221,,,A*4E
$GPGGA,182148.68,3718.484503,N,00555.688900,W,1,,,82.15,M,0.0,M,0.0,0000*41
$GAGSV,2,1,6,1,47,131,42.7,12,37,220,28.9,24,23,315,38.4,26,35,044,34.5*66
$GAGSV,2,2,6,31,75,321,35.3,33,87,077,34.4*57
$GPRMC,182148.68,A,3718.484503,N,00555.688900,W,022.5,326.1,210221,,,A*4C
$GPGGA,182149.67,3718.489556,N,00555.693400,W,1,,,82.01,M,0.0,M,0.0,0000*40
$GAGSV,2,1,6,1,47,131,40.2,12,37,220,29.0,24,23,315,32.7,26,35,044,29.8*61
$GAGSV,2,2,6,31,75,321,34.2,33,87,077,34.0*53
$GPRMC,182149.67,A,3718.489556,N,00555.693400,W,022.6,326.1,210221,,,A*4B
$GPGGA,182150.69,3718.494437,N,00555.698133,W,1,,,82.01,M,0.0,M,0.0,0000*42
$GAGSV,2,1,6,1,47,131,41.4,12,37,220,34.3,24,23,315,39.9,26,35,044,36.0*6A
$GAGSV,2,2,6,31,75,321,32.6,33,87,077,33.2*54
$GPRMC,182150.69,A,3718.494437,N,00555.698133,W,021.5,315.5,210221,,,A*4D
$GPGGA,182151.68,3718.498645,N,00555.703462,W,1,,,82.78,M,0.0,M,0.0,0000*45
$GAGSV,2,1,5,1,47,131,39.0,24,23,315,36.4,26,35,044,36.4,31,75,321,34.5*65
$GAGSV,2,2,5,33,87,077,34.4*7F
$GPRMC,182151.68,A,3718.498645,N,00555.703462,W,020.9,312.5,210221,,,A*4E
$GPGGA,182152.67,3718.502205,N,00555.708856,W,1,,,82.98,M,0.0,M,0.0,0000*45
$GAGSV,2,1,6,1,47,131,38.3,12,37,220,32.1,24,23,315,32.4,26,35,044,34.6*65
$GAGSV,2,2,6,31,75,321,33.3,33,87,077,33.2*50
$GPRMC,182152.67,A,3718.502205,N,00555.708856,W,018.8,309.0,210221,,,A*45
$GPGGA,182153.68,3718.505495,N,00555.713737,W,1,,,82.32,M,0.0,M,0.0,0000*41
$GAGSV,2,1,6,1,47,131,40.5,12,37,220,34.0,24,23,315,39.7,26,35,044,39.2*6A
$GAGSV,2,2,6,31,75,321,32.6,33,87,077,32.1*56
$GPRMC,182153.68,A,3718.505495,N,00555.713737,W,018.1,315.2,210221,,,A*47
$GPGGA,182154.68,3718.509162,N,00555.717973,W,1,,,83.37,M,0.0,M,0.0,0000*49
$GAGSV,2,1,6,1,47,131,41.0,12,37,220,30.6,24,23,315,35.4,26,35,044,36.5*6B
$GAGSV,2,2,6,31,75,321,38.8,33,87,077,32.6*55
$GPRMC,182154.68,A,3718.509162,N,00555.717973,W,017.4,333.6,210221,,,A*41
$GPGGA,182155.69,3718.513754,N,00555.720118,W,1,,,83.70,M,0.0,M,0.0,0000*43
$GAGSV,2,1,6,1,47,131,33.7,12,37,220,29.2,24,23,315,35.6,26,35,044,35.3*62
$GAGSV,2,2,6,31,75,321,40.8,33,87,076,33.5*59
$GPRMC,182155.69,A,3718.513754,N,00555.720118,W,018.4,349.9,210221,,,A*45
$GPGGA,182156.68,3718.519027,N,00555.720723,W,1,,,83.84,M,0.0,M,0.0,0000*4D
$GAGSV,2,1,5,1,47,131,38.8,24,23,315,39.8,26,35,044,33.4,31,75,321,40.7*6B
$GAGSV,2,2,5,33,87,076,36.1*79
$GPRMC,182156.68,A,3718.519027,N,00555.720723,W,020.5,355.9,210221,,,A*47
$GPGGA,182157.67,3718.524879,N,00555.721030,W,1,,,84.78,M,0.0,M,0.0,0000*4E
$GAGSV,2,1,6,1,47,131,39.7,12,37,220,29.2,24,23,315,38.8,26,35,044,34.6*6F
$GAGSV,2,2,6,31,75,321,43.6,33,87,076,32.9*59
$GPRMC,182157.67,A,3718.524879,N,00555.721030,W,021.2,354.6,210221,,,A*48
$GPGGA,182158.69,3718.530964,N,00555.721869,W,1,,,85.12,M,0.0,M,0.0,0000*4E
$GAGSV,2,1,5,1,47,131,35.3,12,37,220,32.5,26,35,044,35.5,31,75,321,40.7*6B
$GAGSV,2,2,5,33,87,076,32.0*7C
$GPRMC,182158.69,A,3718.530964,N,00555.721869,W,021.4,346.9,210221,,,A*4F
$GPGGA,182159.68,3718.537046,N,00555.723650,W,1,,,86.42,M,0.0,M,0.0,0000*40
$GAGSV,2,1,5,1,47,131,39.4,12,37,220,31.5,26,35,044,40.3,31,75,321,37.8*68
$GAGSV,2,2,5,33,87,076,30.0*7E
$GPRMC,182159.68,A,3718.537046,N,00555.723650,W,021.9,336.8,210221,,,A*4C
$GPGGA,182200.67,3718.542360,N,00555.727070,W,1,,,87.49,M,0.0,M,0.0,0000*4F
$GAGSV,2,1,6,1,47,131,38.1,12,37,220,31.1,24,23,315,39.7,26,35,044,34.8*62
$GAGSV,2,2,6,31,75,321,41.0,33,87,076,30.2*54
$GPRMC,182200.67,A,3718.542360,N,00555.727070,W,020.8,324.8,210221,,,A*4A
$GPGGA,182201.67,3718.547221,N,00555.731301,W,1,,,88.75,M,0.0,M,0.0,0000*4D
$GAGSV,2,1,6,1,47,131,40.1,12,37,220,28.6,24,23,315,35.6,26,35,044,30.8*6B
$GAGSV,2,2,6,31,75,321,38.3,33,87,076,32.2*5B
$GPRMC,182201.67,A,3718.547221,N,00555.731301,W,021.0,320.1,210221,,,A*4C
$GPGGA,182202.68,,,,,1,,,,M,0.0,M,0.0,0000*4C
$GPRMC,182202.68,A,,,,,,,210221,,,A*62
$GPGGA,182203.67,3718.556077,N,00555.741050,W,1,,,88.97,M,0.0,M,0.0,0000*42
$GAGSV,2,1,6,1,47,131,40.3,12,37,220,33.6,24,23,315,37.1,26,34,044,37.7*6F
$GAGSV,2,2,6,31,75,321,34.3,33,87,076,33.2*56
$GPRMC,182203.67,A,3718.556077,N,00555.741050,W,020.9,316.3,210221,,,A*40
$GPGGA,182204.68,3718.560250,N,00555.746244,W,1,,,89.43,M,0.0,M,0.0,0000*40
$GAGSV,2,1,6,1,47,131,39.5,12,37,220,29.7,24,23,315,39.7,26,34,044,32.1*66
$GAGSV,2,2,6,31,75,321,39.9,33,87,075,33.6*56
$GPRMC,182204.68,A,3718.560250,N,00555.746244,W,021.0,325.1,210221,,,A*40
$GPGGA,182205.68,3718.565385,N,00555.749915,W,1,,,90.54,M,0.0,M,0.0,0000*43
$GAGSV,2,1,6,1,47,131,38.9,12,37,220,32.9,24,23,315,32.6,26,34,044,42.2*61
$GAGSV,2,2,6,31,75,321,41.5,33,87,075,35.4*51
$GPRMC,182205.68,A,3718.565385,N,00555.749915,W,021.8,341.4,210221,,,A*42
$GPGGA,182206.67,3718.571158,N,00555.751920,W,1,,,91.11,M,0.0,M,0.0,0000*47
$GAGSV,2,1,6,1,47,131,37.0,12,37,220,30.3,24,23,315,37.0,26,34,044,39.7*65
$GAGSV,2,2,6,31,75,321,39.7,33,87,075,33.9*57
$GPRMC,182206.67,A,3718.571158,N,00555.751920,W,024.1,343.8,210221,,,A*44
$GPGGA,182207.68,3718.577603,N,00555.754363,W,1,,,91.41,M,0.0,M,0.0,0000*4B
$GAGSV,2,1,6,1,47,131,41.4,12,37,220,28.9,24,23,315,31.1,26,34,044,40.3*6E
$GAGSV,2,2,6,31,75,321,36.9,33,87,075,32.3*5D
$GPRMC,182207.68,A,3718.577603,N,00555.754363,W,024.9,339.5,210221,,,A*45
$GPGGA,182208.67,3718.584224,N,00555.757553,W,1,,,91.78,M,0.0,M,0.0,0000*4A
$GAGSV,2,1,5,1,47,131,43.9,24,23,315,28.5,26,34,044,36.0,31,75,321,36.4*69
$GAGSV,2,2,5,33,87,075,30.3*7E
$GPRMC,182208.67,A,3718.584224,N,00555.757553,W,025.1,336.7,210221,,,A*4A
$GPGGA,182209.68,3718.590707,N,00555.761256,W,1,,,91.95,M,0.0,M,0.0,0000*41
$GAGSV,2,1,5,1,47,131,42.1,24,23,315,29.9,26,34,044,32.2,31,75,321,38.4*65
$GAGSV,2,2,5,33,87,075,29.9*7C
$GPRMC,182209.68,A,3718.590707,N,00555.761256,W,025.5,335.6,210221,,,A*44
$GPGGA,182210.68,3718.597262,N,00555.765280,W,1,,,91.86,M,0.0,M,0.0,0000*45
$GAGSV,2,1,5,1,47,131,41.6,24,23,315,33.3,26,34,044,28.3,31,75,321,36.7*67
$GAGSV,2,2,5,33,87,075,31.0*7C
$GPRMC,182210.68,A,3718.597262,N,00555.765280,W,026.3,333.9,210221,,,A*4E
$GPGGA,182211.67,3718.603925,N,00555.769843,W,1,,,92.66,M,0.0,M,0.0,0000*49
$GAGSV,2,1,5,1,47,131,41.2,24,23,315,31.8,26,34,044,28.9,31,75,321,37.2*64
$GAGSV,2,2,5,33,87,075,31.3*7F
$GPRMC,182211.67,A,3718.603925,N,00555.769843,W,027.3,332.4,210221,,,A*42
$GPGGA,182212.68,3718.611424,N,00555.774722,W,1,,,92.34,M,0.0,M,0.0,0000*49
$GAGSV,2,1,5,1,47,131,42.7,24,23,315,33.5,26,34,044,30.3,31,75,321,37.3*6F
$GAGSV,2,2,5,33,87,075,31.7*7B
$GPRMC,182212.68,A,3718.611424,N,00555.774722,W,029.2,332.3,210221,,,A*4D
$GPGGA,182213.68,3718.618514,N,00555.780067,W,1,,,92.44,M,0.0,M,0.0,0000*49
$GAGSV,2,1,5,1,47,131,42.1,24,23,315,34.5,26,34,044,31.4,31,75,321,35.8*61
$GAGSV,2,2,5,33,87,075,32.2*7D
$GPRMC,182213.68,A,3718.618514,N,00555.780067,W,029.9,333.1,210221,,,A*42
$GPGGA,182214.69,3718.625742,N,00555.785470,W,1,,,92.75,M,0.0,M,0.0,0000*45
$GAGSV,2,1,5,1,47,131,41.8,24,23,315,33.2,26,34,044,31.4,31,75,321,36.8*68
$GAGSV,2,2,5,33,87,074,32.4*7A
$GPRMC,182214.69,A,3718.625742,N,00555.785470,W,029.9,330.2,210221,,,A*4C
$GPGGA,182215.68,3718.632857,N,00555.790910,W,1,,,93.48,M,0.0,M,0.0,0000*48
$GAGSV,2,1,5,1,47,131,41.8,24,23,315,31.4,26,34,044,30.9,31,75,321,37.4*6D
$GAGSV,2,2,5,33,87,074,32.1*7F
$GPRMC,182215.68,A,3718.632857,N,00555.790910,W,030.5,331.3,210221,,,A*4A
$GPGGA,182216.67,3718.639937,N,00555.796412,W,1,,,93.55,M,0.0,M,0.0,0000*4D
$GAGSV,2,1,5,1,47,131,42.1,24,23,315,30.3,26,34,044,31.3,31,75,321,38.3*62
$GAGSV,2,2,5,33,87,074,32.9*77
$GPRMC,182216.67,A,3718.639937,N,00555.796412,W,030.2,330.8,210221,,,A*4E
$GPGGA,182217.69,3718.647293,N,00555.801852,W,1,,,93.72,M,0.0,M,0.0,0000*42
$GAGSV,2,1,5,1,47,131,42.0,24,23,315,29.8,26,34,044,31.1,31,75,321,38.5*64
$GAGSV,2,2,5,33,87,074,33.2*7D
$GPRMC,182217.69,A,3718.647293,N,00555.801852,W,030.1,330.2,210221,,,A*4D
$GPGGA,182218.68,3718.654320,N,00555.807709,W,1,,,93.34,M,0.0,M,0.0,0000*42
$GAGSV,2,1,5,1,47,131,41.7,24,23,315,32.1,26,34,044,32.3,31,75,321,39.4*62
$GAGSV,2,2,5,33,87,074,31.4*79
$GPRMC,182218.68,A,3718.654320,N,00555.807709,W,030.5,328.9,210221,,,A*49
$GPGGA,182219.69,3718.661647,N,00555.813338,W,1,,,93.79,M,0.0,M,0.0,0000*4A
$GAGSV,2,1,5,1,47,131,41.0,24,23,315,32.2,26,34,044,32.1,31,75,321,38.5*64
$GAGSV,2,2,5,33,87,074,32.5*7B
$GPRMC,182219.69,A,3718.661647,N,00555.813338,W,030.1,328.2,210221,,,A*47
$GPGGA,182220.69,3718.668541,N,00555.819110,W,1,,,93.27,M,0.0,M,0.0,0000*45
$GAGSV,2,1,5,1,47,131,41.2,24,23,315,32.1,26,34,044,29.4,31,75,321,38.3*6C
$GAGSV,2,2,5,33,87,074,33.4*7B
$GPRMC,182220.69,A,3718.668541,N,00555.819110,W,030.1,328.0,210221,,,A*41
$GPGGA,182221.68,3718.675805,N,00555.824450,W,1,,,93.56,M,0.0,M,0.0,0000*4D
$GAGSV,2,1,5,1,47,131,41.7,24,23,315,31.3,26,34,044,32.0,31,75,321,38.9*6C
$GAGSV,2,2,5,33,87,074,31.9*74
$GPRMC,182221.68,A,3718.675805,N,00555.824450,W,030.2,329.9,210221,,,A*44
$GPGGA,182222.69,3718.683101,N,00555.830016,W,1,,,93.44,M,0.0,M,0.0,0000*4B
$GAGSV,2,1,5,1,47,131,41.8,24,23,315,28.3,26,34,044,28.5,31,75,321,36.4*66
$GAGSV,2,2,5,33,87,074,33.0*7F
$GPRMC,182222.69,A,3718.683101,N,00555.830016,W,030.2,329.6,210221,,,A*4E
$GPGGA,182223.68,3718.690122,N,00555.835419,W,1,,,93.29,M,0.0,M,0.0,0000*4D
$GAGSV,2,1,5,1,47,131,41.1,24,23,315,31.9,26,34,044,29.5,31,75,321,37.8*61
$GAGSV,2,2,5,33,87,074,33.2*7D
$GPRMC,182223.68,A,3718.690122,N,00555.835419,W,030.1,329.1,210221,,,A*47
$GPGGA,182224.70,3718.697231,N,00555.841365,W,1,,,93.56,M,0.0,M,0.0,0000*42
$GAGSV,2,1,5,1,47,131,40.5,24,23,315,31.4,26,34,044,28.9,31,75,321,39.4*66
$GAGSV,2,2,5,33,87,074,32.1*7F
$GPRMC,182224.70,A,3718.697231,N,00555.841365,W,030.2,328.1,210221,,,A*42
$GPGGA,182225.69,3718.704234,N,00555.846950,W,1,,,93.41,M,0.0,M,0.0,0000*48
$GAGSV,2,1,5,1,47,131,41.4,24,23,315,32.5,26,34,044,28.9,31,75,321,38.7*66
$GAGSV,2,2,5,33,87,073,33.0*78
$GPRMC,182225.69,A,3718.704234,N,00555.846950,W,030.2,327.9,210221,,,A*49
$GPGGA,182226.68,3718.711887,N,00555.851853,W,1,,,93.13,M,0.0,M,0.0,0000*4F
$GAGSV,2,1,5,1,47,131,40.0,24,23,315,34.0,26,34,044,30.8,31,75,321,38.0*6F
$GAGSV,2,2,5,33,87,073,30.4*7F
$GPRMC,182226.68,A,3718.711887,N,00555.851853,W,030.5,331.2,210221,,,A*42
$GPGGA,182227.70,3718.719293,N,00555.857108,W,1,,,93.09,M,0.0,M,0.0,0000*4A
$GAGSV,2,1,5,1,47,131,40.9,24,23,315,34.1,26,34,044,28.4,31,75,321,36.5*69
$GAGSV,2,2,5,33,87,073,30.4*7F
$GPRMC,182227.70,A,3718.719293,N,00555.857108,W,030.2,330.4,210221,,,A*4C
$GPGGA,182228.69,3718.726086,N,00555.862625,W,1,,,93.12,M,0.0,M,0.0,0000*43
$GAGSV,2,1,5,1,47,131,40.7,24,23,315,32.3,26,34,044,28.3,31,75,321,36.4*65
$GAGSV,2,2,5,33,87,073,29.3*70
$GPRMC,182228.69,A,3718.726086,N,00555.862625,W,029.8,329.1,210221,,,A*40
$GPGGA,182229.70,,,,,1,,,,M,0.0,M,0.0,0000*4C
$GPRMC,182229.70,A,,,,,,,210221,,,A*62
$GPGGA,182230.69,,,,,1,,,,M,0.0,M,0.0,0000*4C
$GPRMC,182230.69,A,,,,,,,210221,,,A*62
$GPGGA,182231.68,3718.747729,N,00555.877676,W,1,,,93.60,M,0.0,M,0.0,0000*48
$GAGSV,2,1,6,1,47,132,41.4,12,37,220,29.4,24,23,315,29.9,26,34,044,28.5*68
$GAGSV,2,2,6,31,75,321,35.0,33,87,073,31.3*52
$GPRMC,182231.68,A,3718.747729,N,00555.877676,W,029.2,330.6,210221,,,A*4B
$GPGGA,182232.71,3718.754240,N,00555.882916,W,1,,,93.16,M,0.0,M,0.0,0000*49
$GAGSV,2,1,6,1,47,132,43.0,12,37,220,28.9,24,24,315,33.6,26,34,044,31.6*6A
$GAGSV,2,2,6,31,75,321,30.6,33,87,073,33.4*54
$GPRMC,182232.71,A,3718.754240,N,00555.882916,W,028.5,329.1,210221,,,A*42
$GPGGA,182233.70,3718.760262,N,00555.888602,W,1,,,93.00,M,0.0,M,0.0,0000*49
$GAGSV,1,1,4,1,47,132,42.5,24,24,315,34.1,26,34,044,32.6,33,87,073,33.5*66
$GPRMC,182233.70,A,3718.760262,N,00555.888602,W,028.7,329.9,210221,,,A*4F
$GPGGA,182234.70,3718.766877,N,00555.893920,W,1,,,92.33,M,0.0,M,0.0,0000*42
$GAGSV,2,1,5,1,47,132,42.6,12,37,220,30.5,24,24,315,34.5,26,34,044,30.1*69
$GAGSV,2,2,5,33,87,073,34.1*7E
$GPRMC,182234.70,A,3718.766877,N,00555.893920,W,029.1,330.5,210221,,,A*46
$GPGGA,182235.71,3718.774055,N,00555.899184,W,1,,,93.06,M,0.0,M,0.0,0000*42
$GAGSV,2,1,6,1,47,132,42.4,12,38,220,28.9,24,24,315,34.3,26,34,044,31.0*64
$GAGSV,2,2,6,31,75,321,30.4,33,87,072,32.8*5A
$GPRMC,182235.71,A,3718.774055,N,00555.899184,W,028.7,330.9,210221,,,A*4A
$GPGGA,182236.70,3718.780782,N,00555.904490,W,1,,,93.81,M,0.0,M,0.0,0000*4C
$GAGSV,2,1,5,1,47,132,43.2,24,24,315,33.9,26,34,044,30.4,31,75,321,31.1*60
$GAGSV,2,2,5,33,87,072,32.8*70
$GPRMC,182236.70,A,3718.780782,N,00555.904490,W,028.6,329.3,210221,,,A*48
$GPGGA,182237.70,3718.787470,N,00555.909362,W,1,,,93.70,M,0.0,M,0.0,0000*4D
$GAGSV,2,1,6,1,47,132,43.2,12,38,220,30.2,24,24,315,33.1,26,34,044,32.2*65
$GAGSV,2,2,6,31,75,321,32.7,33,87,072,35.5*51
$GPRMC,182237.70,A,3718.787470,N,00555.909362,W,028.2,330.6,210221,,,A*4E
$GPGGA,182238.71,3718.794685,N,00555.913808,W,1,,,93.77,M,0.0,M,0.0,0000*42
$GAGSV,2,1,5,1,47,132,43.1,12,38,220,30.1,24,24,315,33.9,31,75,321,33.4*6A
$GAGSV,2,2,5,33,87,072,35.6*79
$GPRMC,182238.71,A,3718.794685,N,00555.913808,W,028.2,330.5,210221,,,A*45
$GPGGA,182239.70,3718.801421,N,00555.918754,W,1,,,94.24,M,0.0,M,0.0,0000*41
$GAGSV,2,1,5,1,47,132,42.8,12,38,220,30.0,24,24,315,36.2,31,75,321,31.3*68
$GAGSV,2,2,5,33,87,072,31.0*7B
$GPRMC,182239.70,A,3718.801421,N,00555.918754,W,027.9,330.7,210221,,,A*41
$GPGGA,182240.71,,,,,1,,,,M,0.0,M,0.0,0000*42
$GPRMC,182240.71,A,,,,,,,210221,,,A*6C
$GPGGA,182241.71,3718.811303,N,00555.926988,W,1,,,94.19,M,0.0,M,0.0,0000*45
$GAGSV,1,1,4,1,47,132,41.8,24,24,315,39.1,26,34,044,30.3,33,87,072,30.9*6C
$GPRMC,182241.71,A,3718.811303,N,00555.926988,W,014.6,325.3,210221,,,A*44
$GPGGA,182242.70,,,,,1,,,,M,0.0,M,0.0,0000*41
$GPRMC,182242.70,A,,,,,,,210221,,,A*6F
$GPGGA,182243.69,3718.817396,N,00555.931309,W,1,,,93.91,M,0.0,M,0.0,0000*46
$GAGSV,2,1,5,1,47,132,41.5,24,24,315,37.1,26,34,044,28.7,31,75,321,29.7*6C
$GAGSV,2,2,5,33,87,072,30.5*7F
$GPRMC,182243.69,A,3718.817396,N,00555.931309,W,008.9,335.1,210221,,,A*41
$GPGGA,182244.70,,,,,1,,,,M,0.0,M,0.0,0000*47
$GPRMC,182244.70,A,,,,,,,210221,,,A*69
$GPGGA,182245.70,,,,,1,,,,M,0.0,M,0.0,0000*46
$GPRMC,182245.70,A,,,,,,,210221,,,A*68
$GPGGA,182246.71,3718.821809,N,00555.933920,W,1,,,94.09,M,0.0,M,0.0,0000*47
$GAGSV,2,1,5,1,47,132,42.3,24,24,315,34.7,26,34,044,30.4,31,75,321,37.9*67
$GAGSV,2,2,5,33,87,071,35.4*78
$GPRMC,182246.71,A,3718.821809,N,00555.933920,W,002.4,355.9,210221,,,A*4F
$GPGGA,182247.70,,,,,1,,,,M,0.0,M,0.0,0000*44
$GPRMC,182247.70,A,,,,,,,210221,,,A*6A
$GPGGA,182248.71,3718.822032,N,00555.934086,W,1,,,92.54,M,0.0,M,0.0,0000*46
$GAGSV,2,1,5,1,47,132,42.8,24,24,315,36.5,26,34,044,35.7,31,75,321,37.8*6B
$GAGSV,2,2,5,33,87,071,33.0*7A
$GPRMC,182248.71,A,3718.822032,N,00555.934086,W,006.6,323.8,210221,,,A*46
$GPGGA,182249.71,3718.823282,N,00555.934645,W,1,,,92.17,M,0.0,M,0.0,0000*41
$GAGSV,2,1,5,1,47,132,42.0,24,24,315,31.9,26,34,044,37.0,31,75,321,38.3*69
$GAGSV,2,2,5,33,87,071,30.3*7A
$GPRMC,182249.71,A,3718.823282,N,00555.934645,W,008.6,330.7,210221,,,A*45
$GPGGA,182250.72,3718.824732,N,00555.936064,W,1,,,91.77,M,0.0,M,0.0,0000*41
$GAGSV,2,1,5,1,47,132,43.4,24,24,315,32.9,26,34,044,36.4,31,75,321,39.1*69
$GAGSV,2,2,5,33,87,071,32.7*7C
$GPRMC,182250.72,A,3718.824732,N,00555.936064,W,010.4,331.4,210221,,,A*49
$GPGGA,182251.71,3718.826915,N,00555.936584,W,1,,,91.68,M,0.0,M,0.0,0000*4F
$GAGSV,2,1,6,1,47,132,38.6,12,38,220,29.8,24,24,315,30.1,26,34,044,41.3*69
$GAGSV,2,2,6,31,75,321,36.6,33,87,071,35.1*53
$GPRMC,182251.71,A,3718.826915,N,00555.936584,W,011.1,335.4,210221,,,A*49
$GPGGA,182252.70,3718.829587,N,00555.936991,W,1,,,91.60,M,0.0,M,0.0,0000*45
$GAGSV,2,1,5,1,47,132,35.6,24,24,315,34.2,26,34,044,42.6,31,75,321,38.1*67
$GAGSV,2,2,5,33,87,071,32.7*7C
$GPRMC,182252.70,A,3718.829587,N,00555.936991,W,012.8,346.2,210221,,,A*43
$GPGGA,182253.72,3718.833455,N,00555.936924,W,1,,,91.51,M,0.0,M,0.0,0000*4F
$GAGSV,2,1,5,1,47,132,34.6,24,24,315,40.2,26,34,044,37.4,31,75,321,42.3*6A
$GAGSV,2,2,5,33,87,071,30.5*7C
$GPRMC,182253.72,A,3718.833455,N,00555.936924,W,014.8,358.1,210221,,,A*41
$GPGGA,182254.71,3718.837623,N,00555.936866,W,1,,,91.70,M,0.0,M,0.0,0000*48
$GAGSV,2,1,5,1,47,132,33.5,24,24,315,39.7,26,34,044,35.1,31,75,321,39.9*64
$GAGSV,2,2,5,33,87,071,29.9*78
$GPRMC,182254.71,A,3718.837623,N,00555.936866,W,016.1,008.3,210221,,,A*4A
$GPGGA,182255.72,3718.842100,N,00555.935888,W,1,,,91.68,M,0.0,M,0.0,0000*44
$GAGSV,1,1,4,24,24,315,32.0,26,34,044,37.5,31,75,321,41.4,33,87,070,30.6*54
$GPRMC,182255.72,A,3718.842100,N,00555.935888,W,016.6,015.2,210221,,,A*45
$GPGGA,182256.72,3718.846699,N,00555.933986,W,1,,,91.76,M,0.0,M,0.0,0000*42
$GAGSV,1,1,4,24,24,315,36.9,26,34,044,39.4,31,75,321,40.1,33,87,070,34.7*57
$GPRMC,182256.72,A,3718.846699,N,00555.933986,W,017.2,015.9,210221,,,A*42
$GPGGA,182257.71,3718.851871,N,00555.932426,W,1,,,92.03,M,0.0,M,0.0,0000*49
$GAGSV,2,1,5,1,47,132,31.6,24,24,315,38.9,26,34,044,35.1,31,75,321,39.6*65
$GAGSV,2,2,5,33,87,070,31.2*7B
$GPRMC,182257.71,A,3718.851871,N,00555.932426,W,019.3,011.8,210221,,,A*42
$GPGGA,182258.72,3718.857044,N,00555.931225,W,1,,,92.08,M,0.0,M,0.0,0000*40
$GAGSV,2,1,5,1,47,132,35.9,24,24,315,42.0,26,34,044,30.4,31,75,321,40.3*61
$GAGSV,2,2,5,33,87,070,32.7*7D
$GPRMC,182258.72,A,3718.857044,N,00555.931225,W,019.8,009.5,210221,,,A*4F
$GPGGA,182259.71,3718.862468,N,00555.930570,W,1,,,92.23,M,0.0,M,0.0,0000*41
$GAGSV,2,1,5,1,47,132,36.9,24,24,315,42.0,26,34,044,34.4,31,75,321,39.3*68
$GAGSV,2,2,5,33,87,070,32.6*7C
$GPRMC,182259.71,A,3718.862468,N,00555.930570,W,020.5,004.7,210221,,,A*4F
$GPGGA,182300.73,3718.868734,N,00555.929500,W,1,,,92.41,M,0.0,M,0.0,0000*45
$GAGSV,2,1,5,1,47,132,36.3,24,24,315,39.9,26,34,044,34.9,31,75,321,40.1*66
$GAGSV,2,2,5,33,87,070,32.7*7D
$GPRMC,182300.73,A,3718.868734,N,00555.929500,W,022.3,001.5,210221,,,A*4C
$GPGGA,182301.72,3718.874846,N,00555.929412,W,1,,,93.21,M,0.0,M,0.0,0000*47
$GAGSV,2,1,5,1,47,132,37.2,24,24,315,34.4,26,34,044,29.0,31,75,321,40.3*61
$GAGSV,2,2,5,33,87,070,30.6*7E
$GPRMC,182301.72,A,3718.874846,N,00555.929412,W,022.6,001.0,210221,,,A*49
$GPGGA,182302.73,3718.881407,N,00555.929735,W,1,,,93.35,M,0.0,M,0.0,0000*45
$GAGSV,2,1,5,1,47,132,37.2,12,38,220,29.1,26,34,044,37.4,31,75,321,39.8*69
$GAGSV,2,2,5,33,87,070,30.4*7C
$GPRMC,182302.73,A,3718.881407,N,00555.929735,W,022.0,355.8,210221,,,A*42
$GPGGA,182303.72,,,,,1,,,,M,0.0,M,0.0,0000*47
$GPRMC,182303.72,A,,,,,,,210221,,,A*69
$GPGGA,182304.71,3718.894049,N,00555.932365,W,1,,,94.05,M,0.0,M,0.0,0000*44
$GAGSV,1,1,4,1,47,132,40.2,24,24,315,32.0,26,34,044,32.9,31,75,321,39.2*6D
$GPRMC,182304.71,A,3718.894049,N,00555.932365,W,022.5,331.6,210221,,,A*4E
$GPGGA,182305.73,3718.899611,N,00555.936488,W,1,,,97.40,M,0.0,M,0.0,0000*43
$GAGSV,1,1,4,1,47,132,41.5,12,38,220,28.9,24,24,315,37.0,31,75,321,40.5*67
$GPRMC,182305.73,A,3718.899611,N,00555.936488,W,022.5,328.1,210221,,,A*44
$GPGGA,182306.72,,,,,1,,,,M,0.0,M,0.0,0000*42
$GPRMC,182306.72,A,,,,,,,210221,,,A*6C
$GPGGA,182307.71,3718.909489,N,00555.946019,W,1,,,98.29,M,0.0,M,0.0,0000*43
$GAGSV,2,1,6,1,47,132,35.0,12,38,220,31.0,24,24,315,28.3,26,34,044,35.7*6F
$GAGSV,2,2,6,31,75,321,35.1,33,87,069,32.8*50
$GPRMC,182307.71,A,3718.909489,N,00555.946019,W,021.3,308.8,210221,,,A*4A
$GPGGA,182308.72,3718.912908,N,00555.953187,W,1,,,98.74,M,0.0,M,0.0,0000*4B
$GAGSV,2,1,6,1,47,132,38.9,12,38,220,29.0,24,24,315,35.6,26,34,044,31.4*6C
$GAGSV,2,2,6,31,75,320,35.1,33,86,069,30.4*5E
$GPRMC,182308.72,A,3718.912908,N,00555.953187,W,022.7,301.6,210221,,,A*4A
$GPGGA,182309.72,3718.915956,N,00555.960127,W,1,,,99.24,M,0.0,M,0.0,0000*48
$GAGSV,2,1,6,1,47,132,36.5,12,38,220,33.2,24,24,315,39.2,26,34,044,30.8*62
$GAGSV,2,2,6,31,75,320,33.6,33,86,069,29.3*50
$GPRMC,182309.72,A,3718.915956,N,00555.960127,W,024.0,293.0,210221,,,A*40
$GPGGA,182310.73,3718.918854,N,00555.968771,W,1,,,99.83,M,0.0,M,0.0,0000*4F
$GAGSV,2,1,6,1,47,132,31.4,12,38,220,29.3,24,24,315,37.7,26,34,044,38.4*61
$GAGSV,2,2,6,31,75,320,33.8,33,86,069,34.6*57
$GPRMC,182310.73,A,3718.918854,N,00555.968771,W,022.7,292.0,210221,,,A*4A
$GPGGA,182311.72,3718.921142,N,00555.976614,W,1,,,100.22,M,0.0,M,0.0,0000*7C
$GAGSV,2,1,5,12,38,220,28.5,24,24,315,37.9,26,34,044,39.3,31,75,320,34.1*5E
$GAGSV,2,2,5,33,86,069,34.4*71
$GPRMC,182311.72,A,3718.921142,N,00555.976614,W,022.4,293.0,210221,,,A*41
$GPGGA,182312.74,3718.923112,N,00555.984442,W,1,,,99.75,M,0.0,M,0.0,0000*41
$GAGSV,2,1,6,1,47,132,36.4,12,38,220,33.6,24,24,315,39.0,26,34,044,39.5*61
$GAGSV,2,2,6,31,75,320,34.6,33,86,069,34.2*5A
$GPRMC,182312.74,A,3718.923112,N,00555.984442,W,020.2,288.9,210221,,,A*48
$GPGGA,182313.73,3718.924786,N,00555.990882,W,1,,,99.79,M,0.0,M,0.0,0000*42
$GAGSV,2,1,6,1,47,132,41.0,12,38,220,31.8,24,24,315,31.1,26,34,044,36.5*6F
$GAGSV,2,2,6,31,75,320,29.4,33,86,069,37.9*5C
$GPRMC,182313.73,A,3718.924786,N,00555.990882,W,018.8,299.6,210221,,,A*49
$GPGGA,182314.72,3718.927423,N,00555.996616,W,1,,,99.38,M,0.0,M,0.0,0000*4B
$GAGSV,2,1,6,1,47,132,37.5,12,38,220,32.1,24,24,315,29.0,26,34,044,38.0*62
$GAGSV,2,2,6,31,75,320,34.2,33,86,069,38.7*57
$GPRMC,182314.72,A,3718.927423,N,00555.996616,W,018.5,306.4,210221,,,A*4D
$GPGGA,182315.73,3718.930693,N,00556.001953,W,1,,,99.28,M,0.0,M,0.0,0000*4F
$GAGSV,2,1,6,1,47,132,39.1,12,38,220,33.8,24,24,315,30.3,26,34,044,41.3*66
$GAGSV,2,2,6,31,75,320,41.3,33,86,069,36.6*5B
$GPRMC,182315.73,A,3718.930693,N,00556.001953,W,019.0,317.6,210221,,,A*4E
$GPGGA,182316.73,3718.934573,N,00556.006414,W,1,,,99.74,M,0.0,M,0.0,0000*45
$GAGSV,2,1,6,1,47,132,40.4,12,38,220,34.4,24,24,315,36.7,26,34,044,32.5*66
$GAGSV,2,2,6,31,75,320,43.9,33,86,069,35.5*53
$GPRMC,182316.73,A,3718.934573,N,00556.006414,W,019.7,325.4,210221,,,A*49
$GPGGA,182317.74,3718.939004,N,00556.010448,W,1,,,99.85,M,0.0,M,0.0,0000*4B
$GAGSV,1,1,4,1,47,132,40.3,26,34,044,34.4,31,75,320,41.4,33,86,069,33.3*6B
$GPRMC,182317.74,A,3718.939004,N,00556.010448,W,020.8,326.4,210221,,,A*4F
$GPGGA,182318.73,,,,,1,,,,M,0.0,M,0.0,0000*4C
$GPRMC,182318.73,A,,,,,,,210221,,,A*62
$GPGGA,182319.72,,,,,1,,,,M,0.0,M,0.0,0000*4C
$GPRMC,182319.72,A,,,,,,,210221,,,A*62
$GPGGA,182320.72,,,,,1,,,,M,0.0,M,0.0,0000*46
$GPRMC,182320.72,A,,,,,,,210221,,,A*68
$GPGGA,182321.73,,,,,1,,,,M,0.0,M,0.0,0000*46
$GPRMC,182321.73,A,,,,,,,210221,,,A*68
$GPGGA,182322.72,,,,,1,,,,M,0.0,M,0.0,0000*44
$GPRMC,182322.72,A,,,,,,,210221,,,A*6A
$GPGGA,182323.73,,,,,1,,,,M,0.0,M,0.0,0000*44
$GPRMC,182323.73,A,,,,,,,210221,,,A*6A
$GPGGA,182324.72,,,,,1,,,,M,0.0,M,0.0,0000*42
$GPRMC,182324.72,A,,,,,,,210221,,,A*6C
$GPGGA,182325.73,,,,,1,,,,M,0.0,M,0.0,0000*42
$GPRMC,182325.73,A,,,,,,,210221,,,A*6C
$GPGGA,182326.73,,,,,1,,,,M,0.0,M,0.0,0000*41
$GPRMC,182326.73,A,,,,,,,210221,,,A*6F
$GPGGA,182327.72,,,,,1,,,,M,0.0,M,0.0,0000*41
$GPRMC,182327.72,A,,,,,,,210221,,,A*6F
$GPGGA,182328.74,3719.004233,N,00556.060749,W,1,,,102.12,M,0.0,M,0.0,0000*7F
$GAGSV,2,1,5,1,47,132,40.4,12,38,220,30.1,26,34,044,33.0,31,75,320,39.0*6E
$GAGSV,2,2,5,33,86,068,30.7*77
$GPRMC,182328.74,A,3719.004233,N,00556.060749,W,025.7,329.5,210221,,,A*42
$GPGGA,182329.73,3719.009534,N,00556.065845,W,1,,,101.65,M,0.0,M,0.0,0000*71
$GAGSV,2,1,5,1,47,132,40.5,12,38,220,30.3,26,34,044,33.2,31,75,320,38.7*69
$GAGSV,2,2,5,33,86,067,29.4*73
$GPRMC,182329.73,A,3719.009534,N,00556.065845,W,026.7,331.2,210221,,,A*42
$GPGGA,182330.74,,,,,1,,,,M,0.0,M,0.0,0000*41
$GPRMC,182330.74,A,,,,,,,210221,,,A*6F
$GPGGA,182331.74,3719.022825,N,00556.076489,W,1,,,101.14,M,0.0,M,0.0,0000*73
$GAGSV,2,1,5,1,47,132,40.7,12,38,220,29.5,26,34,044,33.5,31,75,320,38.6*63
$GAGSV,2,2,5,33,86,067,30.2*7D
$GPRMC,182331.74,A,3719.022825,N,00556.076489,W,025.8,330.2,210221,,,A*4B
$GPGGA,182332.75,3719.028453,N,00556.079808,W,1,,,101.12,M,0.0,M,0.0,0000*7A
$GAGSV,2,1,5,1,47,132,39.6,12,38,220,28.6,26,34,044,33.1,31,75,320,39.1*6C
$GAGSV,2,2,5,33,86,067,28.5*73
$GPRMC,182332.75,A,3719.028453,N,00556.079808,W,025.5,328.8,210221,,,A*4A
$GPGGA,182333.74,3719.034341,N,00556.083461,W,1,,,101.53,M,0.0,M,0.0,0000*70
$GAGSV,1,1,4,1,47,132,39.0,12,38,220,28.8,26,34,044,33.2,31,75,320,39.5*61
$GPRMC,182333.74,A,3719.034341,N,00556.083461,W,025.5,328.3,210221,,,A*4E
$GPGGA,182334.73,3719.040745,N,00556.086897,W,1,,,102.55,M,0.0,M,0.0,0000*76
$GAGSV,1,1,4,1,47,132,40.6,24,24,315,29.8,26,34,044,33.8,31,75,320,38.9*60
$GPRMC,182334.73,A,3719.040745,N,00556.086897,W,025.8,329.5,210221,,,A*47
$GPGGA,182335.74,,,,,1,,,,M,0.0,M,0.0,0000*44
$GPRMC,182335.74,A,,,,,,,210221,,,A*6A
$GPGGA,182336.74,,,,,1,,,,M,0.0,M,0.0,0000*47
$GPRMC,182336.74,A,,,,,,,210221,,,A*69
$GPGGA,182337.73,3719.059499,N,00556.100178,W,1,,,102.57,M,0.0,M,0.0,0000*7A
$GAGSV,2,1,5,1,47,132,39.5,12,38,220,28.5,24,24,315,28.9,26,34,044,31.9*68
$GAGSV,2,2,5,31,75,320,38.1*78
$GPRMC,182337.73,A,3719.059499,N,00556.100178,W,025.1,329.0,210221,,,A*45
$GPGGA,182338.74,3719.065638,N,00556.104974,W,1,,,102.51,M,0.0,M,0.0,0000*72
$GAGSV,2,1,5,1,47,132,40.4,12,38,220,30.3,26,34,044,34.7,31,75,320,39.2*6E
$GAGSV,2,2,5,33,86,067,29.1*76
$GPRMC,182338.74,A,3719.065638,N,00556.104974,W,024.6,329.8,210221,,,A*45
$GPGGA,182339.73,3719.071020,N,00556.109129,W,1,,,103.08,M,0.0,M,0.0,0000*7E
$GAGSV,2,1,5,1,47,132,41.3,12,38,220,28.9,26,34,044,34.4,31,75,320,37.6*62
$GAGSV,2,2,5,33,86,067,30.1*7E
$GPRMC,182339.73,A,3719.071020,N,00556.109129,W,024.5,330.4,210221,,,A*43
$GPGGA,182340.75,3719.076856,N,00556.113464,W,1,,,103.15,M,0.0,M,0.0,0000*73
$GAGSV,1,1,4,1,47,132,41.7,26,34,044,35.4,31,75,320,37.1,33,86,067,29.6*6B
$GPRMC,182340.75,A,3719.076856,N,00556.113464,W,024.4,330.3,210221,,,A*44
$GPGGA,182341.74,3719.082792,N,00556.116916,W,1,,,107.70,M,0.0,M,0.0,0000*75
$GAGSV,2,1,6,1,47,132,40.5,12,38,221,32.6,24,24,315,36.7,26,34,044,35.8*68
$GAGSV,2,2,6,31,75,320,38.5,33,86,066,34.4*5C
$GPRMC,182341.74,A,3719.082792,N,00556.116916,W,022.0,326.5,210221,,,A*46
$GPGGA,182342.73,,,,,1,,,,M,0.0,M,0.0,0000*43
$GPRMC,182342.73,A,,,,,,,210221,,,A*6D
$GPGGA,182343.74,3719.092723,N,00556.124794,W,1,,,107.39,M,0.0,M,0.0,0000*74
$GAGSV,2,1,6,1,47,132,42.6,12,38,221,29.7,24,24,315,42.2,26,34,044,35.1*6D
$GAGSV,2,2,6,31,75,320,36.6,33,86,066,35.3*57
$GPRMC,182343.74,A,3719.092723,N,00556.124794,W,017.4,326.2,210221,,,A*4F
$GPGGA,182344.74,3719.096604,N,00556.127658,W,1,,,105.15,M,0.0,M,0.0,0000*7D
$GAGSV,2,1,6,1,47,132,41.4,12,38,221,30.2,24,24,315,34.9,26,34,044,30.6*69
$GAGSV,2,2,6,31,75,320,41.5,33,86,066,35.7*50
$GPRMC,182344.74,A,3719.096604,N,00556.127658,W,017.0,332.7,210221,,,A*4E
$GPGGA,182345.73,3719.100191,N,00556.130733,W,1,,,105.16,M,0.0,M,0.0,0000*77
$GAGSV,2,1,5,1,47,132,42.8,24,24,315,31.3,26,34,044,30.9,31,75,320,36.6*6F
$GAGSV,2,2,5,33,86,066,36.3*7B
$GPRMC,182345.73,A,3719.100191,N,00556.130733,W,017.8,343.3,210221,,,A*4D
$GPGGA,182346.72,3719.104795,N,00556.131982,W,1,,,105.70,M,0.0,M,0.0,0000*76
$GAGSV,2,1,6,1,47,132,39.1,12,38,221,35.2,24,24,315,34.2,26,34,044,28.6*64
$GAGSV,2,2,6,31,75,320,39.5,33,86,066,34.4*5D
$GPRMC,182346.72,A,3719.104795,N,00556.131982,W,017.5,348.9,210221,,,A*40
$GPGGA,182347.74,,,,,1,,,,M,0.0,M,0.0,0000*41
$GPRMC,182347.74,A,,,,,,,210221,,,A*6F
$GPGGA,182348.75,3719.114481,N,00556.133561,W,1,,,107.12,M,0.0,M,0.0,0000*7D
$GAGSV,2,1,5,1,47,132,41.1,24,24,315,33.6,26,34,044,39.7,31,75,320,35.9*69
$GAGSV,2,2,5,33,86,066,33.8*75
$GPRMC,182348.75,A,3719.114481,N,00556.133561,W,018.6,343.4,210221,,,A*47
$GPGGA,182349.76,3719.119345,N,00556.135756,W,1,,,106.67,M,0.0,M,0.0,0000*7E
$GAGSV,2,1,5,1,47,132,43.5,24,24,315,31.9,26,34,044,33.8,31,75,320,33.6*6E
$GAGSV,2,2,5,33,86,066,32.7*7B
$GPRMC,182349.76,A,3719.119345,N,00556.135756,W,018.8,334.8,210221,,,A*45
$GPGGA,182350.75,3719.123924,N,00556.139038,W,1,,,107.57,M,0.0,M,0.0,0000*70
$GAGSV,2,1,5,1,47,132,42.0,12,38,221,31.7,24,24,315,38.2,31,75,320,40.1*6C
$GAGSV,2,2,5,33,86,066,34.8*72
$GPRMC,182350.75,A,3719.123924,N,00556.139038,W,020.0,328.2,210221,,,A*4D
$GPGGA,182351.75,3719.128604,N,00556.142926,W,1,,,108.03,M,0.0,M,0.0,0000*73
$GAGSV,2,1,5,1,47,132,40.8,12,38,221,31.1,26,34,044,40.5,31,75,320,40.1*6C
$GAGSV,2,2,5,33,86,066,33.2*7F
$GPRMC,182351.75,A,3719.128604,N,00556.142926,W,019.1,321.6,210221,,,A*46
$GPGGA,182352.76,3719.132967,N,00556.147571,W,1,,,108.70,M,0.0,M,0.0,0000*7D
$GAGSV,2,1,6,1,47,132,39.8,12,38,221,36.7,24,24,315,29.8,26,34,044,38.1*6B
$GAGSV,2,2,6,31,75,320,38.8,33,86,066,31.4*54
$GPRMC,182352.76,A,3719.132967,N,00556.147571,W,020.9,317.5,210221,,,A*48
$GPGGA,182353.75,3719.137327,N,00556.152591,W,1,,,107.73,M,0.0,M,0.0,0000*72
$GAGSV,2,1,5,1,47,132,39.8,12,38,221,35.2,26,34,044,39.8,31,75,320,40.8*6F
$GAGSV,2,2,5,33,86,065,30.9*74
$GPRMC,182353.75,A,3719.137327,N,00556.152591,W,021.7,320.1,210221,,,A*44
$GPGGA,182354.74,3719.141755,N,00556.157729,W,1,,,107.22,M,0.0,M,0.0,0000*74
$GAGSV,2,1,6,1,47,132,40.9,12,38,221,30.4,24,24,315,36.6,26,34,044,42.2*6F
$GAGSV,2,2,6,31,75,320,42.3,33,86,065,33.2*55
$GPRMC,182354.74,A,3719.141755,N,00556.157729,W,021.9,321.2,210221,,,A*4A
$GPGGA,182355.76,3719.146805,N,00556.162226,W,1,,,106.40,M,0.0,M,0.0,0000*73
$GAGSV,2,1,6,1,47,132,40.7,12,38,221,34.6,24,24,315,36.4,26,34,044,32.1*61
$GAGSV,2,2,6,31,75,320,42.5,33,86,065,29.1*5B
$GPRMC,182355.76,A,3719.146805,N,00556.162226,W,021.2,323.9,210221,,,A*4A
$GPGGA,182356.75,3719.151673,N,00556.166416,W,1,,,106.55,M,0.0,M,0.0,0000*7F
$GAGSV,2,1,5,1,47,132,42.1,12,38,221,37.4,24,24,315,35.8,31,75,320,41.0*6F
$GAGSV,2,2,5,33,86,065,31.9*75
$GPRMC,182356.75,A,3719.151673,N,00556.166416,W,022.0,325.2,210221,,,A*4E
$GPGGA,182357.74,3719.156562,N,00556.171035,W,1,,,108.44,M,0.0,M,0.0,0000*76
$GAGSV,2,1,6,1,47,132,42.2,12,38,221,35.3,24,24,315,37.4,26,34,044,29.4*6C
$GAGSV,2,2,6,31,75,320,40.5,33,86,065,29.1*59
$GPRMC,182357.74,A,3719.156562,N,00556.171035,W,022.4,324.2,210221,,,A*4C
$GPGGA,182358.75,3719.161576,N,00556.175847,W,1,,,108.51,M,0.0,M,0.0,0000*74
$GAGSV,2,1,6,1,47,132,42.0,12,38,221,32.1,24,24,315,38.7,26,34,044,32.2*6B
$GAGSV,2,2,6,31,75,320,41.9,33,86,065,29.4*51
$GPRMC,182358.75,A,3719.161576,N,00556.175847,W,022.7,322.6,210221,,,A*4B
$GPGGA,182359.74,3719.166564,N,00556.180796,W,1,,,109.05,M,0.0,M,0.0,0000*79
$GAGSV,1,1,4,1,47,132,40.6,24,24,315,34.8,26,34,044,39.1,31,75,320,40.9*60
$GPRMC,182359.74,A,3719.166564,N,00556.180796,W,022.9,321.2,210221,,,A*4F
$GPGGA,182400.76,3719.171508,N,00556.185657,W,1,,,109.87,M,0.0,M,0.0,0000*7F
$GAGSV,2,1,5,1,47,132,39.1,12,38,221,33.0,24,24,315,30.4,26,34,044,42.1*6A
$GAGSV,2,2,5,31,75,320,41.9*7E
$GPRMC,182400.76,A,3719.171508,N,00556.185657,W,023.0,319.9,210221,,,A*4B
$GPGGA,182401.75,3719.176543,N,00556.190884,W,1,,,110.58,M,0.0,M,0.0,0000*7B
$GAGSV,1,1,4,1,47,132,37.4,12,38,221,33.5,26,34,044,40.2,31,75,320,41.1*62
$GPRMC,182401.75,A,3719.176543,N,00556.190884,W,021.9,318.9,210221,,,A*4F
$GPGGA,182402.74,3719.181243,N,00556.196174,W,1,,,110.63,M,0.0,M,0.0,0000*7E
$GAGSV,2,1,5,1,47,132,37.6,12,38,221,34.9,24,24,315,29.3,26,34,044,41.1*61
$GAGSV,2,2,5,31,75,320,41.0*77
$GPRMC,182402.74,A,3719.181243,N,00556.196174,W,022.9,317.6,210221,,,A*41
$GPGGA,182403.76,3719.186031,N,00556.201748,W,1,,,111.43,M,0.0,M,0.0,0000*7A
$GAGSV,2,1,6,1,47,132,38.0,12,38,221,28.4,24,24,315,34.5,26,34,044,36.7*67
$GAGSV,2,2,6,31,75,320,39.1,33,86,065,28.3*50
$GPRMC,182403.76,A,3719.186031,N,00556.201748,W,024.1,316.3,210221,,,A*4C
$GPGGA,182404.75,3719.190763,N,00556.207596,W,1,,,111.56,M,0.0,M,0.0,0000*7A
$GAGSV,2,1,5,1,47,132,39.8,12,38,221,28.7,24,24,315,34.2,26,34,044,37.2*6D
$GAGSV,2,2,5,31,75,320,38.3*7A
$GPRMC,182404.75,A,3719.190763,N,00556.207596,W,023.6,313.1,210221,,,A*4F
$GPGGA,182405.76,3719.195318,N,00556.213623,W,1,,,112.12,M,0.0,M,0.0,0000*7E
$GAGSV,1,1,4,1,47,132,40.1,24,24,315,28.3,26,34,044,34.9,31,75,320,36.8*64
$GPRMC,182405.76,A,3719.195318,N,00556.213623,W,023.3,311.6,210221,,,A*48
$GPGGA,182406.75,3719.199848,N,00556.219610,W,1,,,113.00,M,0.0,M,0.0,0000*74
$GAGSV,1,1,4,1,47,132,41.1,12,38,221,32.8,26,34,044,37.2,31,75,320,40.3*69
$GPRMC,182406.75,A,3719.199848,N,00556.219610,W,024.0,310.8,210221,,,A*4B
$GPGGA,182407.75,3719.204349,N,00556.225932,W,1,,,113.45,M,0.0,M,0.0,0000*79
$GAGSV,1,1,4,1,47,132,41.3,12,38,221,29.8,26,34,044,36.2,31,75,320,38.6*6A
$GPRMC,182407.75,A,3719.204349,N,00556.225932,W,023.7,309.8,210221,,,A*4F
$GPGGA,182408.76,,,,,1,,,,M,0.0,M,0.0,0000*4F
$GPRMC,182408.76,A,,,,,,,210221,,,A*61
$GPGGA,182409.75,3719.212794,N,00556.239118,W,1,,,114.02,M,0.0,M,0.0,0000*7D
$GAGSV,1,1,4,1,47,132,40.3,12,38,221,31.0,26,34,044,34.9,31,75,320,36.8*63
$GPRMC,182409.75,A,3719.212794,N,00556.239118,W,024.8,306.1,210221,,,A*41
$GPGGA,182410.76,3719.216956,N,00556.246355,W,1,,,113.34,M,0.0,M,0.0,0000*73
$GAGSV,2,1,5,1,47,132,40.1,12,38,221,34.3,26,34,044,34.3,31,75,320,35.6*62
$GAGSV,2,2,5,33,86,064,28.6*73
$GPRMC,182410.76,A,3719.216956,N,00556.246355,W,025.0,304.1,210221,,,A*46
$GPGGA,182411.76,3719.220814,N,00556.253628,W,1,,,113.55,M,0.0,M,0.0,0000*7C
$GAGSV,2,1,5,1,47,132,39.5,12,38,221,35.3,24,24,315,30.6,26,34,044,35.5*6D
$GAGSV,2,2,5,31,75,320,34.9*7C
$GPRMC,182411.76,A,3719.220814,N,00556.253628,W,025.9,301.6,210221,,,A*45
$GPGGA,182412.77,3719.224489,N,00556.261635,W,1,,,113.38,M,0.0,M,0.0,0000*74
$GAGSV,2,1,5,1,47,132,40.3,12,38,221,31.4,24,24,315,34.2,26,34,044,36.5*65
$GAGSV,2,2,5,31,75,320,35.0*74
$GPRMC,182412.77,A,3719.224489,N,00556.261635,W,026.2,302.0,210221,,,A*4B
$GPGGA,182413.76,3719.228257,N,00556.269572,W,1,,,113.82,M,0.0,M,0.0,0000*74
$GAGSV,2,1,5,1,47,132,39.9,12,38,221,32.9,24,24,315,37.1,26,34,044,33.2*6D
$GAGSV,2,2,5,31,75,320,36.5*72
$GPRMC,182413.76,A,3719.228257,N,00556.269572,W,027.0,297.6,210221,,,A*42
$GPGGA,182414.75,3719.231578,N,00556.277796,W,1,,,113.70,M,0.0,M,0.0,0000*78
$GAGSV,2,1,5,1,47,132,37.6,12,38,221,35.0,24,24,315,37.0,26,34,044,33.2*63
$GAGSV,2,2,5,31,75,320,35.2*76
$GPRMC,182414.75,A,3719.231578,N,00556.277796,W,026.9,298.0,210221,,,A*42
$GPGGA,182415.77,3719.234981,N,00556.286325,W,1,,,113.44,M,0.0,M,0.0,0000*71
$GAGSV,2,1,5,1,47,132,36.4,12,38,221,35.8,24,24,315,39.4,26,34,044,34.4*63
$GAGSV,2,2,5,31,75,320,36.0*77
$GPRMC,182415.77,A,3719.234981,N,00556.286325,W,027.6,295.2,210221,,,A*4D
$GPGGA,182416.76,3719.238115,N,00556.294853,W,1,,,113.38,M,0.0,M,0.0,0000*78
$GAGSV,2,1,5,1,47,132,33.4,12,38,221,34.1,24,24,315,39.8,26,34,044,37.5*60
$GAGSV,2,2,5,31,75,320,36.4*73
$GPRMC,182416.76,A,3719.238115,N,00556.294853,W,027.9,293.4,210221,,,A*40
$GPGGA,182417.75,3719.241261,N,00556.303774,W,1,,,114.84,M,0.0,M,0.0,0000*71
$GAGSV,1,1,4,1,47,132,32.5,24,24,315,39.8,26,34,044,38.9,31,75,320,38.3*67
$GPRMC,182417.75,A,3719.241261,N,00556.303774,W,028.6,291.4,210221,,,A*4B
$GPGGA,182418.76,3719.244234,N,00556.313294,W,1,,,115.32,M,0.0,M,0.0,0000*7E
$GAGSV,1,1,4,1,47,132,33.3,24,24,315,36.2,26,34,044,38.6,31,75,320,37.8*6E
$GPRMC,182418.76,A,3719.244234,N,00556.313294,W,028.7,288.7,210221,,,A*42
$GPGGA,182419.76,3719.246681,N,00556.322790,W,1,,,115.34,M,0.0,M,0.0,0000*72
$GAGSV,1,1,4,1,47,132,35.0,24,24,315,34.3,26,34,044,38.6,31,75,320,38.0*6F
$GPRMC,182419.76,A,3719.246681,N,00556.322790,W,028.7,287.6,210221,,,A*46
$GPGGA,182420.77,3719.249044,N,00556.332639,W,1,,,115.51,M,0.0,M,0.0,0000*79
$GAGSV,2,1,5,1,47,132,32.5,24,24,315,33.6,26,34,044,39.6,31,75,320,37.6*65
$GAGSV,2,2,5,33,86,063,29.4*77
$GPRMC,182420.77,A,3719.249044,N,00556.332639,W,029.1,286.9,210221,,,A*47
$GPGGA,182421.76,3719.251365,N,00556.342307,W,1,,,115.75,M,0.0,M,0.0,0000*79
$GAGSV,1,1,4,1,47,132,33.2,24,24,315,35.7,26,34,044,40.1,31,76,320,38.5*60
$GPRMC,182421.76,A,3719.251365,N,00556.342307,W,029.2,286.7,210221,,,A*4C
$GPGGA,182422.75,3719.253602,N,00556.352123,W,1,,,115.75,M,0.0,M,0.0,0000*7A
$GAGSV,1,1,4,1,47,132,34.5,24,24,315,36.4,26,34,044,39.6,31,76,320,38.6*6A
$GPRMC,182422.75,A,3719.253602,N,00556.352123,W,029.0,286.7,210221,,,A*4D
$GPGGA,182423.77,3719.255805,N,00556.362044,W,1,,,115.76,M,0.0,M,0.0,0000*76
$GAGSV,1,1,4,1,47,132,33.5,24,24,315,36.5,26,34,044,38.6,31,76,320,38.8*63
$GPRMC,182423.77,A,3719.255805,N,00556.362044,W,028.9,286.6,210221,,,A*4B
$GPGGA,182424.76,3719.258078,N,00556.371698,W,1,,,115.89,M,0.0,M,0.0,0000*7A
$GAGSV,2,1,5,1,47,132,33.6,24,24,315,34.3,26,34,044,32.7,31,76,320,39.3*67
$GAGSV,2,2,5,33,86,063,29.7*74
$GPRMC,182424.76,A,3719.258078,N,00556.371698,W,028.0,287.2,210221,,,A*4B
$GPGGA,182425.77,3719.260358,N,00556.381252,W,1,,,116.64,M,0.0,M,0.0,0000*7D
$GAGSV,1,1,4,1,47,132,31.0,24,24,315,31.7,26,34,044,32.9,31,76,320,35.7*66
$GPRMC,182425.77,A,3719.260358,N,00556.381252,W,028.1,288.8,210221,,,A*48
$GPGGA,182426.76,3719.262906,N,00556.390380,W,1,,,117.17,M,0.0,M,0.0,0000*77
$GAGSV,1,1,4,1,47,132,31.2,24,24,315,33.9,26,34,044,29.2,31,76,320,35.8*66
$GPRMC,182426.76,A,3719.262906,N,00556.390380,W,027.5,290.2,210221,,,A*4F
$GPGGA,182427.76,,,,,1,,,,M,0.0,M,0.0,0000*42
$GPRMC,182427.76,A,,,,,,,210221,,,A*6C
$GPGGA,182428.77,3719.267298,N,00556.408188,W,1,,,117.77,M,0.0,M,0.0,0000*7B
$GAGSV,2,1,5,1,47,132,32.6,12,38,221,30.4,24,24,315,32.1,26,34,044,32.8*68
$GAGSV,2,2,5,31,76,320,37.5*70
$GPRMC,182428.77,A,3719.267298,N,00556.408188,W,025.8,286.2,210221,,,A*4D
$GPGGA,182429.76,3719.269143,N,00556.416604,W,1,,,118.23,M,0.0,M,0.0,0000*72
$GAGSV,2,1,6,1,47,132,34.0,12,38,221,29.4,24,24,315,35.3,26,34,044,35.2*6B
$GAGSV,2,2,6,31,76,320,36.6,33,86,063,28.7*59
$GPRMC,182429.76,A,3719.269143,N,00556.416604,W,025.1,286.4,210221,,,A*45
$GPGGA,182430.77,3719.270991,N,00556.425012,W,1,,,118.18,M,0.0,M,0.0,0000*7D
$GAGSV,1,1,4,1,47,132,32.7,24,24,315,32.4,26,34,044,32.7,31,76,320,36.7*6F
$GPRMC,182430.77,A,3719.270991,N,00556.425012,W,024.8,286.5,210221,,,A*4B
$GPGGA,182431.77,3719.273056,N,00556.433228,W,1,,,118.61,M,0.0,M,0.0,0000*7F
$GAGSV,2,1,5,1,47,132,30.5,12,38,221,29.5,24,24,315,35.2,31,76,320,39.3*65
$GAGSV,2,2,5,33,86,063,29.8*7B
$GPRMC,182431.77,A,3719.273056,N,00556.433228,W,024.7,286.4,210221,,,A*49
$GPGGA,182432.78,3719.274958,N,00556.441430,W,1,,,119.21,M,0.0,M,0.0,0000*7C
$GAGSV,1,1,4,1,47,132,30.1,24,24,315,34.3,26,34,044,30.1,31,76,320,36.5*6C
$GPRMC,182432.78,A,3719.274958,N,00556.441430,W,024.3,286.5,210221,,,A*4A
$GPGGA,182433.77,,,,,1,,,,M,0.0,M,0.0,0000*46
$GPRMC,182433.77,A,,,,,,,210221,,,A*68
$GPGGA,182434.76,3719.278807,N,00556.456885,W,1,,,119.95,M,0.0,M,0.0,0000*78
$GAGSV,1,1,4,24,24,315,34.1,26,34,044,28.7,31,76,320,42.1,33,86,062,30.6*59
$GPRMC,182434.76,A,3719.278807,N,00556.456885,W,021.4,288.9,210221,,,A*41
$GPGGA,182435.77,3719.281138,N,00556.462838,W,1,,,119.84,M,0.0,M,0.0,0000*7A
$GAGSV,2,1,5,1,47,132,34.2,12,38,221,28.6,24,24,315,38.0,31,76,320,39.3*6B
$GAGSV,2,2,5,33,86,062,31.5*7E
$GPRMC,182435.77,A,3719.281138,N,00556.462838,W,019.7,295.5,210221,,,A*4B
$GPGGA,182436.77,3719.282990,N,00556.468861,W,1,,,119.09,M,0.0,M,0.0,0000*73
$GAGSV,2,1,5,1,47,132,36.8,12,38,221,29.8,24,24,315,38.5,31,76,320,40.3*67
$GAGSV,2,2,5,33,86,062,32.7*7F
$GPRMC,182436.77,A,3719.282990,N,00556.468861,W,019.3,296.0,210221,,,A*45
$GPGGA,182437.76,,,,,1,,,,M,0.0,M,0.0,0000*43
$GPRMC,182437.76,A,,,,,,,210221,,,A*6D
$GPGGA,182438.75,3719.288351,N,00556.479498,W,1,,,119.89,M,0.0,M,0.0,0000*70
$GAGSV,2,1,5,1,46,132,38.9,12,38,221,30.1,24,24,315,40.8,26,34,044,32.1*6C
$GAGSV,2,2,5,31,76,320,36.7*73
$GPRMC,182438.75,A,3719.288351,N,00556.479498,W,019.5,299.6,210221,,,A*41
$GPGGA,182439.77,3719.291106,N,00556.484991,W,1,,,120.45,M,0.0,M,0.0,0000*77
$GAGSV,1,1,4,1,46,132,39.0,24,24,315,40.1,26,34,044,35.2,31,76,320,37.7*61
$GPRMC,182439.77,A,3719.291106,N,00556.484991,W,020.2,294.0,210221,,,A*4A
$GPGGA,182440.75,3719.293774,N,00556.491470,W,1,,,121.59,M,0.0,M,0.0,0000*70
$GAGSV,1,1,4,1,46,132,31.1,24,24,315,37.3,26,34,044,29.6,31,76,320,37.4*60
$GPRMC,182440.75,A,3719.293774,N,00556.491470,W,020.2,293.6,210221,,,A*40
$GPGGA,182441.75,3719.295359,N,00556.498400,W,1,,,121.18,M,0.0,M,0.0,0000*77
$GAGSV,1,1,4,12,38,221,30.7,24,24,315,37.3,26,34,044,37.1,31,76,320,40.5*54
$GPRMC,182441.75,A,3719.295359,N,00556.498400,W,019.5,284.5,210221,,,A*4A
$GPGGA,182442.76,3719.295318,N,00556.504979,W,1,,,120.46,M,0.0,M,0.0,0000*7F
$GAGSV,2,1,5,1,46,132,35.1,12,38,221,35.7,24,24,315,34.4,26,34,044,37.2*63
$GAGSV,2,2,5,31,76,320,41.0*74
$GPRMC,182442.76,A,3719.295318,N,00556.504979,W,019.9,273.7,210221,,,A*4E
$GPGGA,182443.76,3719.294914,N,00556.511581,W,1,,,120.28,M,0.0,M,0.0,0000*7E
$GAGSV,2,1,5,1,46,132,29.7,12,38,221,36.8,24,24,315,30.9,26,34,044,36.9*67
$GAGSV,2,2,5,31,76,320,37.9*7C
$GPRMC,182443.76,A,3719.294914,N,00556.511581,W,020.9,270.2,210221,,,A*4B
$GPGGA,182444.76,,,,,1,,,,M,0.0,M,0.0,0000*47
$GPRMC,182444.76,A,,,,,,,210221,,,A*69
$GPGGA,182445.78,3719.293423,N,00556.525352,W,1,,,120.45,M,0.0,M,0.0,0000*7C
$GAGSV,2,1,5,1,46,132,36.6,12,38,221,36.7,24,24,315,35.4,26,34,044,40.4*63
$GAGSV,2,2,5,31,76,320,31.2*71
$GPRMC,182445.78,A,3719.293423,N,00556.525352,W,020.9,246.8,210221,,,A*4D
$GPGGA,182446.77,3719.290296,N,00556.531289,W,1,,,120.37,M,0.0,M,0.0,0000*7C
$GAGSV,1,1,4,12,38,221,30.3,24,24,315,32.6,26,34,044,33.1,31,76,320,29.2*5C
$GPRMC,182446.77,A,3719.290296,N,00556.531289,W,019.7,236.2,210221,,,A*41
$GPGGA,182447.78,3719.285747,N,00556.536744,W,1,,,119.85,M,0.0,M,0.0,0000*7F
$GAGSV,2,1,5,1,46,132,32.6,12,38,221,35.1,24,24,315,34.6,26,34,044,36.8*6C
$GAGSV,2,2,5,31,76,320,36.8*7C
$GPRMC,182447.78,A,3719.285747,N,00556.536744,W,020.5,213.1,210221,,,A*4D
$GPGGA,182448.76,3719.280670,N,00556.540383,W,1,,,120.20,M,0.0,M,0.0,0000*75
$GAGSV,2,1,5,1,46,132,39.1,12,38,221,36.7,24,24,315,41.1,26,34,044,36.3*6B
$GAGSV,2,2,5,31,76,320,38.5*7F
$GPRMC,182448.76,A,3719.280670,N,00556.540383,W,021.0,200.7,210221,,,A*42
$GPGGA,182449.77,3719.274692,N,00556.542822,W,1,,,120.51,M,0.0,M,0.0,0000*76
$GAGSV,2,1,5,1,46,132,40.6,12,38,221,33.2,24,24,315,37.5,26,34,044,28.5*6E
$GAGSV,2,2,5,31,76,320,34.9*7F
$GPRMC,182449.77,A,3719.274692,N,00556.542822,W,021.0,188.0,210221,,,A*43
$GPGGA,182450.78,,,,,1,,,,M,0.0,M,0.0,0000*4C
$GPRMC,182450.78,A,,,,,,,210221,,,A*62
$GPGGA,182451.77,3719.263017,N,00556.543729,W,1,,,120.43,M,0.0,M,0.0,0000*74
$GAGSV,1,1,4,1,46,132,43.0,12,38,221,34.8,24,24,315,37.5,31,76,320,34.0*6D
$GPRMC,182451.77,A,3719.263017,N,00556.543729,W,021.4,155.9,210221,,,A*4F
$GPGGA,182452.78,3719.256920,N,00556.540399,W,1,,,119.93,M,0.0,M,0.0,0000*78
$GAGSV,1,1,4,1,46,132,42.5,24,24,315,30.8,26,34,044,35.5,31,76,320,37.6*60
$GPRMC,182452.78,A,3719.256920,N,00556.540399,W,022.0,147.4,210221,,,A*4D
$GPGGA,182453.78,3719.251601,N,00556.534639,W,1,,,118.99,M,0.0,M,0.0,0000*75
$GAGSV,2,1,5,1,46,132,42.3,12,38,221,35.1,26,34,044,39.0,31,76,320,33.4*69
$GAGSV,2,2,5,33,86,061,31.0*78
$GPRMC,182453.78,A,3719.251601,N,00556.534639,W,022.2,132.0,210221,,,A*4F
$GPGGA,182454.77,3719.247333,N,00556.528063,W,1,,,118.41,M,0.0,M,0.0,0000*7F
$GAGSV,2,1,5,1,46,132,36.1,12,38,221,32.3,24,24,315,35.6,26,34,044,28.5*69
$GAGSV,2,2,5,33,86,061,30.2*7B
$GPRMC,182454.77,A,3719.247333,N,00556.528063,W,022.7,129.2,210221,,,A*4D
$GPGGA,182455.78,3719.243501,N,00556.521198,W,1,,,118.47,M,0.0,M,0.0,0000*78
$GAGSV,2,1,5,1,46,132,36.8,12,38,221,28.9,24,24,315,29.8,26,34,044,34.1*6B
$GAGSV,2,2,5,31,76,320,34.3*75
$GPRMC,182455.78,A,3719.243501,N,00556.521198,W,022.7,126.6,210221,,,A*47
$GPGGA,182456.78,3719.239442,N,00556.514562,W,1,,,118.24,M,0.0,M,0.0,0000*72
$GAGSV,2,1,6,1,46,132,46.4,12,38,221,36.5,24,24,315,28.9,26,34,044,34.4*65
$GAGSV,2,2,6,31,76,320,38.0,33,86,061,31.5*59
$GPRMC,182456.78,A,3719.239442,N,00556.514562,W,022.6,137.6,210221,,,A*49
$GPGGA,182457.77,3719.234510,N,00556.509247,W,1,,,117.88,M,0.0,M,0.0,0000*72
$GAGSV,1,1,4,1,46,132,42.2,12,38,221,29.1,26,34,044,34.8,33,86,061,31.4*6B
$GPRMC,182457.77,A,3719.234510,N,00556.509247,W,024.9,145.4,210221,,,A*4E
$GPGGA,182458.78,,,,,1,,,,M,0.0,M,0.0,0000*44
$GPRMC,182458.78,A,,,,,,,210221,,,A*6A
$GPGGA,182459.77,3719.222863,N,00556.499699,W,1,,,117.51,M,0.0,M,0.0,0000*79
$GAGSV,1,1,4,1,46,132,37.3,12,38,221,35.9,24,24,315,35.7,31,76,320,28.6*66
$GPRMC,182459.77,A,3719.222863,N,00556.499699,W,025.5,162.2,210221,,,A*4F
$GPGGA,182500.79,3719.215648,N,00556.496797,W,1,,,116.56,M,0.0,M,0.0,0000*7F
$GAGSV,1,1,4,1,46,132,39.5,12,38,221,33.7,24,24,315,37.5,31,76,320,33.5*6F
$GPRMC,182500.79,A,3719.215648,N,00556.496797,W,027.4,165.0,210221,,,A*49
$GPGGA,182501.78,3719.208035,N,00556.494422,W,1,,,117.49,M,0.0,M,0.0,0000*7F
$GAGSV,2,1,5,1,46,132,37.3,12,38,221,33.0,24,24,315,35.5,26,34,044,30.7*60
$GAGSV,2,2,5,31,76,320,33.0*71
$GPRMC,182501.78,A,3719.208035,N,00556.494422,W,028.4,169.0,210221,,,A*45
$GPGGA,182502.78,3719.199811,N,00556.492222,W,1,,,116.44,M,0.0,M,0.0,0000*75
$GAGSV,2,1,6,1,46,132,39.3,12,38,221,33.2,24,24,315,34.2,26,34,044,33.9*64
$GAGSV,2,2,6,31,76,320,34.8,33,86,060,30.5*5D
$GPRMC,182502.78,A,3719.199811,N,00556.492222,W,029.8,166.8,210221,,,A*49
$GPGGA,182503.77,3719.191397,N,00556.490152,W,1,,,115.64,M,0.0,M,0.0,0000*71
$GAGSV,1,1,4,1,46,132,38.4,24,24,315,33.6,26,34,044,34.4,31,76,320,36.2*64
$GPRMC,182503.77,A,3719.191397,N,00556.490152,W,030.2,167.6,210221,,,A*41
$GPGGA,182504.78,3719.182910,N,00556.488098,W,1,,,115.51,M,0.0,M,0.0,0000*76
$GAGSV,2,1,5,1,46,132,38.6,24,24,315,32.6,26,34,044,35.7,31,76,320,33.5*65
$GAGSV,2,2,5,33,86,060,28.4*75
$GPRMC,182504.78,A,3719.182910,N,00556.488098,W,029.6,166.9,210221,,,A*42
$GPGGA,182505.77,3719.174518,N,00556.485810,W,1,,,113.29,M,0.0,M,0.0,0000*79
$GAGSV,1,1,4,1,46,132,39.5,24,24,315,33.4,26,33,044,39.3,31,76,320,34.8*63
$GPRMC,182505.77,A,3719.174518,N,00556.485810,W,032.8,168.4,210221,,,A*43
$GPGGA,182506.78,3719.165248,N,00556.483679,W,1,,,112.12,M,0.0,M,0.0,0000*79
$GAGSV,2,1,5,1,46,132,38.2,24,24,315,34.1,26,33,044,38.8,31,76,320,38.0*6B
$GAGSV,2,2,5,33,86,060,32.0*7A
$GPRMC,182506.78,A,3719.165248,N,00556.483679,W,031.6,166.9,210221,,,A*44
$GPGGA,182507.78,3719.156352,N,00556.481086,W,1,,,110.88,M,0.0,M,0.0,0000*77
$GAGSV,2,1,6,1,46,132,39.3,12,38,221,31.1,24,24,315,33.9,26,33,044,38.0*6C
$GAGSV,2,2,6,31,76,320,38.2,33,86,060,28.3*54
$GPRMC,182507.78,A,3719.156352,N,00556.481086,W,032.6,169.2,210221,,,A*4C
$GPGGA,182508.77,3719.147424,N,00556.478708,W,1,,,110.29,M,0.0,M,0.0,0000*7D
$GAGSV,2,1,5,1,46,132,41.5,12,38,221,33.0,24,24,315,35.5,26,33,044,37.8*68
$GAGSV,2,2,5,31,76,320,39.3*78
$GPRMC,182508.77,A,3719.147424,N,00556.478708,W,032.8,170.3,210221,,,A*4A
$GPGGA,182509.78,3719.138412,N,00556.476263,W,1,,,109.53,M,0.0,M,0.0,0000*7D
$GAGSV,2,1,6,1,46,133,39.2,12,38,221,34.6,24,24,315,38.0,26,33,044,33.4*63
$GAGSV,2,2,6,31,76,320,40.2,33,86,060,29.9*50
$GPRMC,182509.78,A,3719.138412,N,00556.476263,W,032.6,170.7,210221,,,A*45
$GPGGA,182510.78,3719.129366,N,00556.474223,W,1,,,108.22,M,0.0,M,0.0,0000*70
$GAGSV,2,1,6,1,46,133,41.7,12,38,221,35.1,24,24,315,36.7,26,33,044,35.7*63
$GAGSV,2,2,6,31,76,320,40.7,33,86,060,30.9*5D
$GPRMC,182510.78,A,3719.129366,N,00556.474223,W,033.2,171.7,210221,,,A*4B
$GPGGA,182511.77,3719.120335,N,00556.472388,W,1,,,106.78,M,0.0,M,0.0,0000*76
$GAGSV,2,1,6,1,46,133,42.1,12,38,221,33.6,24,24,315,37.7,26,33,044,32.3*65
$GAGSV,2,2,6,31,76,320,40.7,33,86,060,29.1*5D
$GPRMC,182511.77,A,3719.120335,N,00556.472388,W,032.7,172.4,210221,,,A*48
$GPGGA,182512.78,3719.111240,N,00556.470490,W,1,,,105.72,M,0.0,M,0.0,0000*7E
$GAGSV,2,1,6,1,46,133,42.3,12,38,221,34.0,24,24,315,38.7,26,33,044,32.4*6E
$GAGSV,2,2,6,31,76,320,41.2,33,86,060,30.5*55
$GPRMC,182512.78,A,3719.111240,N,00556.470490,W,033.5,172.7,210221,,,A*49
$GPGGA,182513.77,3719.102153,N,00556.468738,W,1,,,104.69,M,0.0,M,0.0,0000*70
$GAGSV,2,1,6,1,46,133,42.9,12,38,221,34.2,24,24,315,37.3,26,33,044,33.2*6A
$GAGSV,2,2,6,31,76,320,40.7,33,86,060,30.4*50
$GPRMC,182513.77,A,3719.102153,N,00556.468738,W,034.1,173.5,210221,,,A*4C
$GPGGA,182514.78,3719.092625,N,00556.467364,W,1,,,104.63,M,0.0,M,0.0,0000*7E
$GAGSV,2,1,5,1,46,133,42.8,12,38,221,34.8,24,24,315,38.5,26,33,044,34.9*67
$GAGSV,2,2,5,31,76,320,40.0*75
$GPRMC,182514.78,A,3719.092625,N,00556.467364,W,034.4,173.8,210221,,,A*40
$GPGGA,182515.78,3719.083154,N,00556.465875,W,1,,,103.50,M,0.0,M,0.0,0000*70
$GAGSV,2,1,6,1,46,133,44.6,12,38,221,35.7,24,24,315,37.3,26,33,044,34.9*6B
$GAGSV,2,2,6,31,76,320,41.9,33,86,059,32.3*50
$GPRMC,182515.78,A,3719.083154,N,00556.465875,W,035.0,174.1,210221,,,A*42
$GPGGA,182516.76,3719.073661,N,00556.464425,W,1,,,102.90,M,0.0,M,0.0,0000*76
$GAGSV,2,1,6,1,46,133,42.7,12,38,221,32.9,24,24,315,37.5,26,33,044,35.6*6D
$GAGSV,2,2,6,31,76,320,40.9,33,86,059,29.5*5D
$GPRMC,182516.76,A,3719.073661,N,00556.464425,W,035.2,174.8,210221,,,A*42
$GPGGA,182517.78,3719.063860,N,00556.463294,W,1,,,102.50,M,0.0,M,0.0,0000*70
$GAGSV,2,1,6,1,46,133,42.4,12,38,221,37.0,24,24,315,38.5,26,33,044,36.2*6A
$GAGSV,2,2,6,31,76,320,40.7,33,86,059,30.2*5C
$GPRMC,182517.78,A,3719.063860,N,00556.463294,W,035.8,176.4,210221,,,A*4C
$GPGGA,182518.77,3719.054111,N,00556.462492,W,1,,,102.43,M,0.0,M,0.0,0000*78
$GAGSV,2,1,6,1,46,133,40.0,12,38,221,32.3,24,24,315,38.4,26,33,044,32.8*65
$GAGSV,2,2,6,31,76,320,39.2,33,86,059,32.3*54
$GPRMC,182518.77,A,3719.054111,N,00556.462492,W,034.9,176.6,210221,,,A*44
$GPGGA,182519.78,3719.044131,N,00556.461806,W,1,,,102.23,M,0.0,M,0.0,0000*71
$GAGSV,2,1,5,1,46,133,41.4,12,38,221,33.3,24,24,315,40.3,26,33,044,32.3*61
$GAGSV,2,2,5,31,76,320,37.9*7C
$GPRMC,182519.78,A,3719.044131,N,00556.461806,W,034.9,176.2,210221,,,A*4F
$GPGGA,182520.78,3719.034363,N,00556.461111,W,1,,,101.97,M,0.0,M,0.0,0000*7A
