$GPGGA,182102.66,3718.276406,N,00555.532444,W,1,05,1.40,100.96,M,0.0,M,0.0,0000*6F
$GAGSV,2,1,5,1,48,131,30.6,12,37,220,39.8,24,23,315,37.2,26,35,044,33.5*61
$GAGSV,2,2,5,33,87,082,33.2*74
$GPRMC,182102.66,A,3718.276406,N,00555.532444,W,001.1,097.0,210221,,,A*41
$GPGGA,182103.66,3718.279015,N,00555.527919,W,1,06,1.29,97.87,M,0.0,M,0.0,0000*55
$GAGSV,2,1,6,1,48,131,34.0,12,37,220,39.3,24,23,315,34.5,26,35,044,32.8*63
$GAGSV,2,2,6,31,74,321,31.2,33,87,082,35.9*55
$GPRMC,182103.66,A,3718.279015,N,00555.527919,W,000.3,,210221,,,A*6B
$GPGGA,182104.65,,,,,1,02, Inf,,M,0.0,M,0.0,0000*27
$GPRMC,182104.65,A,,,,,,,210221,,,A*6A
$GPGGA,182105.66,,,,,1,03, Inf,,M,0.0,M,0.0,0000*24
$GPRMC,182105.66,A,,,,,,,210221,,,A*68
$GPGGA,182106.66,3718.278137,N,00555.537463,W,1,04,1.88,118.15,M,0.0,M,0.0,0000*65
$GAGSV,1,1,4,1,48,131,43.7,24,23,315,41.4,26,35,044,29.7,31,74,321,35.3*69
$GPRMC,182106.66,A,3718.278137,N,00555.537463,W,001.0,086.9,210221,,,A*44
$GPGGA,182107.67,,,,,1,02, Inf,,M,0.0,M,0.0,0000*26
$GPRMC,182107.67,A,,,,,,,210221,,,A*6B
$GPGGA,182108.64,3718.277781,N,00555.518841,W,1,04,1.91,39.94,M,0.0,M,0.0,0000*5F
$GAGSV,1,1,4,1,48,131,40.4,12,37,220,35.9,24,23,315,41.7,33,87,082,28.8*6F
$GPRMC,182108.64,A,3718.277781,N,00555.518841,W,000.9,330.8,210221,,,A*4A
$GPGGA,182109.66,3718.276983,N,00555.530429,W,1,05,1.30,69.98,M,0.0,M,0.0,0000*5A
$GAGSV,2,1,5,1,48,131,43.2,12,37,220,29.4,24,23,315,39.8,26,35,044,36.7*6F
$GAGSV,2,2,5,31,74,321,32.3*70
$GPRMC,182109.66,A,3718.276983,N,00555.530429,W,004.6,309.1,210221,,,A*44
$GPGGA,182110.65,3718.277978,N,00555.538383,W,1,05,1.30,72.13,M,0.0,M,0.0,0000*52
$GAGSV,2,1,5,1,48,131,40.1,12,37,220,29.2,24,23,315,32.4,26,35,044,30.3*6C
$GAGSV,2,2,5,31,74,321,37.1*77
$GPRMC,182110.65,A,3718.277978,N,00555.538383,W,005.7,301.1,210221,,,A*4D
$GPGGA,182111.64,3718.282643,N,00555.534943,W,1,05,1.81,81.02,M,0.0,M,0.0,0000*53
$GAGSV,2,1,5,1,48,131,37.0,12,37,220,36.0,24,23,315,33.7,31,74,321,35.6*60
$GAGSV,2,2,5,33,87,081,31.2*75
$GPRMC,182111.64,A,3718.282643,N,00555.534943,W,007.9,312.8,210221,,,A*4D
$GPGGA,182112.65,3718.286374,N,00555.534770,W,1,05,1.87,113.43,M,0.0,M,0.0,0000*63
$GAGSV,2,1,5,1,48,131,38.1,24,23,315,32.8,26,35,044,33.8,31,74,321,29.2*61
$GAGSV,2,2,5,33,87,081,29.1*7F
$GPRMC,182112.65,A,3718.286374,N,00555.534770,W,009.2,309.0,210221,,,A*43
$GPGGA,182113.65,,,,,1,04, Inf,,M,0.0,M,0.0,0000*27
$GPRMC,182113.65,A,,,,,,,210221,,,A*6C
$GPGGA,182114.66,3718.288204,N,00555.542607,W,1,06,1.29,99.89,M,0.0,M,0.0,0000*5C
$GAGSV,2,1,6,1,48,131,41.9,12,37,220,31.0,24,23,315,38.3,26,35,044,33.0*60
$GAGSV,2,2,6,31,74,321,34.7,33,87,081,30.0*5A
$GPRMC,182114.66,A,3718.288204,N,00555.542607,W,012.7,320.7,210221,,,A*4D
$GPGGA,182115.65,3718.288661,N,00555.546911,W,1,04,1.88,97.86,M,0.0,M,0.0,0000*5D
$GAGSV,1,1,4,1,48,131,39.7,24,23,315,35.8,26,35,044,35.6,31,74,321,30.8*69
$GPRMC,182115.65,A,3718.288661,N,00555.546911,W,013.6,325.4,210221,,,A*42
$GPGGA,182116.64,3718.293510,N,00555.546984,W,1,06,1.29,101.51,M,0.0,M,0.0,0000*61
$GAGSV,2,1,6,1,48,131,40.4,12,37,220,28.5,24,23,315,29.0,26,35,044,36.7*60
$GAGSV,2,2,6,31,74,321,32.5,33,87,081,29.0*56
$GPRMC,182116.64,A,3718.293510,N,00555.546984,W,015.9,328.1,210221,,,A*42
$GPGGA,182117.66,3718.292752,N,00555.558751,W,1,05,1.87,73.97,M,0.0,M,0.0,0000*57
$GAGSV,2,1,5,1,48,131,40.8,24,23,315,29.0,26,35,044,37.0,31,74,321,34.9*6E
$GAGSV,2,2,5,33,87,081,28.4*7B
$GPRMC,182117.66,A,3718.292752,N,00555.558751,W,018.6,330.6,210221,,,A*41
$GPGGA,182118.65,3718.298745,N,00555.556716,W,1,05,1.87,92.37,M,0.0,M,0.0,0000*5F
$GAGSV,2,1,5,1,48,131,40.5,24,23,315,34.2,26,35,044,36.1,31,74,321,32.6*64
$GAGSV,2,2,5,33,87,081,32.1*75
$GPRMC,182118.65,A,3718.298745,N,00555.556716,W,020.6,329.3,210221,,,A*4A
$GPGGA,182119.66,3718.302824,N,00555.560887,W,1,05,1.87,86.81,M,0.0,M,0.0,0000*5D
$GAGSV,2,1,5,1,48,131,40.4,24,23,315,33.9,26,35,044,37.2,31,74,321,33.7*6B
$GAGSV,2,2,5,33,87,080,32.5*70
$GPRMC,182119.66,A,3718.302824,N,00555.560887,W,022.3,330.2,210221,,,A*4E
$GPGGA,182120.65,3718.309387,N,00555.563773,W,1,05,1.87,89.35,M,0.0,M,0.0,0000*5A
$GAGSV,2,1,5,1,48,131,39.9,24,23,315,36.3,26,35,044,33.9,31,74,321,33.0*6F
$GAGSV,2,2,5,33,87,080,34.5*76
$GPRMC,182120.65,A,3718.309387,N,00555.563773,W,023.5,330.8,210221,,,A*44
$GPGGA,182121.67,3718.319479,N,00555.566016,W,1,06,1.29,87.40,M,0.0,M,0.0,0000*54
$GAGSV,2,1,6,1,48,131,40.7,12,37,220,30.4,24,23,315,37.1,26,35,044,35.0*61
$GAGSV,2,2,6,31,74,321,33.9,33,87,080,35.8*5F
$GPRMC,182121.67,A,3718.319479,N,00555.566016,W,024.1,330.4,210221,,,A*4E
$GPGGA,182122.66,3718.321039,N,00555.570218,W,1,06,1.29,78.94,M,0.0,M,0.0,0000*5F
$GAGSV,2,1,6,1,48,131,40.9,12,37,220,28.6,24,23,315,35.1,26,35,044,36.8*6D
$GAGSV,2,2,6,31,74,321,33.3,33,87,080,35.4*59
$GPRMC,182122.66,A,3718.321039,N,00555.570218,W,024.9,329.9,210221,,,A*41
$GPGGA,182123.65,3718.327882,N,00555.576914,W,1,06,1.29,89.20,M,0.0,M,0.0,0000*53
$GAGSV,2,1,6,1,48,131,40.8,12,37,220,29.1,24,23,315,35.6,26,35,044,37.4*60
$GAGSV,2,2,6,31,74,321,30.6,33,87,080,36.0*58
$GPRMC,182123.65,A,3718.327882,N,00555.576914,W,025.7,329.8,210221,,,A*42
$GPGGA,182124.66,3718.333546,N,00555.582958,W,1,05,1.87,86.15,M,0.0,M,0.0,0000*5A
$GAGSV,2,1,5,1,48,131,40.8,24,23,315,34.8,26,35,044,38.2,31,74,321,30.1*6B
$GAGSV,2,2,5,33,87,080,35.4*76
$GPRMC,182124.66,A,3718.333546,N,00555.582958,W,026.6,330.1,210221,,,A*46
$GPGGA,182125.65,3718.342692,N,00555.583333,W,1,06,1.29,98.17,M,0.0,M,0.0,0000*58
$GAGSV,2,1,6,1,48,131,40.4,12,37,220,30.5,24,23,315,31.5,26,35,044,39.9*64
$GAGSV,2,2,6,31,74,321,34.6,33,87,080,36.0*5C
$GPRMC,182125.65,A,3718.342692,N,00555.583333,W,026.8,328.4,210221,,,A*4C
$GPGGA,182126.65,3718.345777,N,00555.588777,W,1,05,1.87,89.58,M,0.0,M,0.0,0000*55
$GAGSV,2,1,5,1,48,131,40.6,24,23,315,30.8,26,35,044,38.9,31,74,321,36.3*6E
$GAGSV,2,2,5,33,87,080,35.4*76
$GPRMC,182126.65,A,3718.345777,N,00555.588777,W,027.4,330.7,210221,,,A*4A
$GPGGA,182127.66,3718.353430,N,00555.594026,W,1,05,1.87,86.23,M,0.0,M,0.0,0000*5D
$GAGSV,2,1,5,1,48,131,39.3,24,23,315,32.8,26,35,044,39.5,31,74,321,36.6*6F
$GAGSV,2,2,5,33,87,080,34.7*74
$GPRMC,182127.66,A,3718.353430,N,00555.594026,W,027.6,330.7,210221,,,A*43
$GPGGA,182128.65,3718.357235,N,00555.604046,W,1,05,1.87,76.66,M,0.0,M,0.0,0000*54
$GAGSV,2,1,5,1,48,131,39.8,24,23,315,30.9,26,35,044,40.2,31,74,321,36.9*61
$GAGSV,2,2,5,33,87,079,33.5*77
$GPRMC,182128.65,A,3718.357235,N,00555.604046,W,027.2,331.0,210221,,,A*46
$GPGGA,182129.67,3718.367200,N,00555.604875,W,1,05,1.87,82.51,M,0.0,M,0.0,0000*55
$GAGSV,2,1,5,1,48,131,39.9,24,23,315,30.3,26,35,044,38.4,31,74,321,35.9*60
$GAGSV,2,2,5,33,87,079,30.8*79
$GPRMC,182129.67,A,3718.367200,N,00555.604875,W,027.4,330.6,210221,,,A*49
$GPGGA,182130.66,3718.373537,N,00555.610516,W,1,05,1.87,84.12,M,0.0,M,0.0,0000*56
$GAGSV,2,1,5,1,48,131,40.4,24,23,315,30.9,26,35,044,37.2,31,74,321,35.9*60
$GAGSV,2,2,5,33,87,079,29.0*79
$GPRMC,182130.66,A,3718.373537,N,00555.610516,W,027.4,331.9,210221,,,A*45
$GPGGA,182131.65,3718.380028,N,00555.617567,W,1,04,1.88,72.34,M,0.0,M,0.0,0000*51
$GAGSV,1,1,4,1,48,131,40.3,24,23,315,29.9,26,35,044,37.9,31,74,321,35.5*6A
$GPRMC,182131.65,A,3718.380028,N,00555.617567,W,027.6,329.3,210221,,,A*40
$GPGGA,182132.66,,,,,1,04, Inf,,M,0.0,M,0.0,0000*27
$GPRMC,182132.66,A,,,,,,,210221,,,A*6C
$GPGGA,182133.66,3718.392209,N,00555.626224,W,1,05,1.87,80.67,M,0.0,M,0.0,0000*55
$GAGSV,2,1,5,1,48,131,43.0,24,23,315,30.3,26,35,044,35.7,31,74,321,32.2*66
$GAGSV,2,2,5,33,87,079,29.9*70
$GPRMC,182133.66,A,3718.392209,N,00555.626224,W,027.3,330.2,210221,,,A*4D
$GPGGA,182134.67,,,,,1,03, Inf,,M,0.0,M,0.0,0000*27
$GPRMC,182134.67,A,,,,,,,210221,,,A*6B
$GPGGA,182135.66,3718.407443,N,00555.637308,W,1,05,1.87,62.47,M,0.0,M,0.0,0000*51
$GAGSV,2,1,5,1,48,131,44.2,24,23,315,31.7,26,35,044,35.0,31,74,321,34.1*64
$GAGSV,2,2,5,33,87,079,33.4*76
$GPRMC,182135.66,A,3718.407443,N,00555.637308,W,025.8,331.3,210221,,,A*4E
$GPGGA,182136.65,3718.413065,N,00555.644223,W,1,04,1.87,94.78,M,0.0,M,0.0,0000*5C
$GAGSV,1,1,4,1,47,131,41.5,24,23,315,30.3,26,35,044,34.4,31,74,321,35.8*63
$GPRMC,182136.65,A,3718.413065,N,00555.644223,W,026.1,330.2,210221,,,A*4D
$GPGGA,182137.67,3718.423980,N,00555.638522,W,1,06,1.28,89.60,M,0.0,M,0.0,0000*51
$GAGSV,2,1,6,1,47,131,42.8,12,37,220,33.0,24,23,315,31.9,26,35,044,36.1*68
$GAGSV,2,2,6,31,74,321,38.5,33,87,078,35.0*57
$GPRMC,182137.67,A,3718.423980,N,00555.638522,W,026.1,331.4,210221,,,A*45
$GPGGA,182138.66,3718.427634,N,00555.643795,W,1,06,1.28,77.56,M,0.0,M,0.0,0000*5D
$GAGSV,2,1,6,1,47,131,42.9,12,37,220,29.8,24,23,315,33.9,26,35,044,36.1*68
$GAGSV,2,2,6,31,74,321,38.5,33,87,078,34.4*52
$GPRMC,182138.66,A,3718.427634,N,00555.643795,W,025.6,329.2,210221,,,A*46
$GPGGA,182139.67,3718.433906,N,00555.652309,W,1,05,1.87,91.37,M,0.0,M,0.0,0000*5E
$GAGSV,2,1,5,1,47,131,43.1,24,23,315,33.6,26,35,044,31.9,31,74,321,38.2*6E
$GAGSV,2,2,5,33,87,078,34.6*72
$GPRMC,182139.67,A,3718.433906,N,00555.652309,W,026.1,332.7,210221,,,A*47
$GPGGA,182140.66,3718.438914,N,00555.658184,W,1,05,1.87,76.09,M,0.0,M,0.0,0000*50
$GAGSV,2,1,5,1,47,131,41.4,24,23,315,30.8,26,35,044,31.1,31,75,321,39.5*6B
$GAGSV,2,2,5,33,87,078,31.6*77
$GPRMC,182140.66,A,3718.438914,N,00555.658184,W,026.0,329.5,210221,,,A*44
$GPGGA,182141.65,3718.441858,N,00555.669419,W,1,05,1.87,72.01,M,0.0,M,0.0,0000*5A
$GAGSV,2,1,5,1,47,131,41.9,24,23,315,30.7,26,35,044,33.0,31,75,321,37.9*68
$GAGSV,2,2,5,33,87,078,36.0*76
$GPRMC,182141.65,A,3718.441858,N,00555.669419,W,024.9,329.9,210221,,,A*45
$GPGGA,182142.67,,,,,1,04, Inf,,M,0.0,M,0.0,0000*21
$GPRMC,182142.67,A,,,,,,,210221,,,A*6A
$GPGGA,182143.68,3718.453881,N,00555.671755,W,1,05,1.86,89.19,M,0.0,M,0.0,0000*5C
$GAGSV,2,1,5,1,47,131,42.8,24,23,315,33.0,26,35,044,34.5,31,75,321,34.9*6F
$GAGSV,2,2,5,33,87,078,31.0*71
$GPRMC,182143.68,A,3718.453881,N,00555.671755,W,024.6,327.6,210221,,,A*41
$GPGGA,182144.67,3718.460038,N,00555.679041,W,1,05,1.86,80.75,M,0.0,M,0.0,0000*57
$GAGSV,2,1,5,1,47,131,43.1,24,23,315,33.5,26,35,044,34.7,31,75,321,35.7*6F
$GAGSV,2,2,5,33,87,078,34.0*74
$GPRMC,182144.67,A,3718.460038,N,00555.679041,W,023.7,333.1,210221,,,A*4D
$GPGGA,182145.68,3718.464547,N,00555.682548,W,1,05,1.86,69.11,M,0.0,M,0.0,0000*5D
$GAGSV,2,1,5,1,47,131,42.3,24,23,315,31.8,26,35,044,30.0,31,75,321,37.3*66
$GAGSV,2,2,5,33,87,078,34.0*74
$GPRMC,182145.68,A,3718.464547,N,00555.682548,W,022.9,325.2,210221,,,A*49
$GPGGA,182146.67,3718.474845,N,00555.682318,W,1,05,1.86,88.64,M,0.0,M,0.0,0000*51
$GAGSV,2,1,5,1,47,131,42.5,24,23,315,32.2,26,35,044,30.4,31,75,321,37.7*69
$GAGSV,2,2,5,33,87,077,34.8*73
$GPRMC,182146.67,A,3718.474845,N,00555.682318,W,021.4,328.3,210221,,,A*4A
$GPGGA,182147.67,3718.479751,N,00555.682204,W,1,05,1.86,77.39,M,0.0,M,0.0,0000*53
$GAGSV,2,1,5,1,47,131,42.9,24,23,315,34.6,26,35,044,35.8,31,75,321,37.0*69
$GAGSV,2,2,5,33,87,077,34.7*7C
$GPRMC,182147.67,A,3718.479751,N,00555.682204,W,022.7,327.7,210221,,,A*4B
$GPGGA,182148.68,3718.487426,N,00555.685484,W,1,06,1.28,98.05,M,0.0,M,0.0,0000*51
$GAGSV,2,1,6,1,47,131,42.7,12,37,220,28.9,24,23,315,38.4,26,35,044,34.5*66
$GAGSV,2,2,6,31,75,321,35.3,33,87,077,34.4*57
$GPRMC,182148.68,A,3718.487426,N,00555.685484,W,022.5,325.9,210221,,,A*4E
$GPGGA,182149.67,3718.487301,N,00555.696119,W,1,06,1.28,91.47,M,0.0,M,0.0,0000*51
$GAGSV,2,1,6,1,47,131,40.2,12,37,220,29.0,24,23,315,32.7,26,35,044,29.8*61
$GAGSV,2,2,6,31,75,321,34.2,33,87,077,34.0*53
$GPRMC,182149.67,A,3718.487301,N,00555.696119,W,022.7,326.1,210221,,,A*48
$GPGGA,182150.69,3718.495407,N,00555.696991,W,1,06,1.28,91.80,M,0.0,M,0.0,0000*56
$GAGSV,2,1,6,1,47,131,41.4,12,37,220,34.3,24,23,315,39.9,26,35,044,36.0*6A
$GAGSV,2,2,6,31,75,321,32.6,33,87,077,33.2*54
$GPRMC,182150.69,A,3718.495407,N,00555.696991,W,021.5,315.0,210221,,,A*44
$GPGGA,182151.68,3718.498957,N,00555.704547,W,1,05,1.86,94.74,M,0.0,M,0.0,0000*57
$GAGSV,2,1,5,1,47,131,39.0,24,23,315,36.4,26,35,044,36.4,31,75,321,34.5*65
$GAGSV,2,2,5,33,87,077,34.4*7F
$GPRMC,182151.68,A,3718.498957,N,00555.704547,W,020.7,311.9,210221,,,A*42
$GPGGA,182152.67,3718.499452,N,00555.710304,W,1,06,1.28,93.71,M,0.0,M,0.0,0000*53
$GAGSV,2,1,6,1,47,131,38.3,12,37,220,32.1,24,23,315,32.4,26,35,044,34.6*65
$GAGSV,2,2,6,31,75,321,33.3,33,87,077,33.2*50
$GPRMC,182152.67,A,3718.499452,N,00555.710304,W,018.5,308.5,210221,,,A*4E
$GPGGA,182153.68,3718.504753,N,00555.712292,W,1,06,1.28,72.13,M,0.0,M,0.0,0000*5D
$GAGSV,2,1,6,1,47,131,40.5,12,37,220,34.0,24,23,315,39.7,26,35,044,39.2*6A
$GAGSV,2,2,6,31,75,321,32.6,33,87,077,32.1*56
$GPRMC,182153.68,A,3718.504753,N,00555.712292,W,018.0,315.7,210221,,,A*40
$GPGGA,182154.68,3718.509897,N,00555.717731,W,1,06,1.28,103.06,M,0.0,M,0.0,0000*6A
$GAGSV,2,1,6,1,47,131,41.0,12,37,220,30.6,24,23,315,35.4,26,35,044,36.5*6B
$GAGSV,2,2,6,31,75,321,38.8,33,87,077,32.6*55
$GPRMC,182154.68,A,3718.509897,N,00555.717731,W,017.6,335.7,210221,,,A*4F
$GPGGA,182155.69,3718.516489,N,00555.713303,W,1,06,1.28,92.03,M,0.0,M,0.0,0000*5A
$GAGSV,2,1,6,1,47,131,33.7,12,37,220,29.2,24,23,315,35.6,26,35,044,35.3*62
$GAGSV,2,2,6,31,75,321,40.8,33,87,076,33.5*59
$GPRMC,182155.69,A,3718.516489,N,00555.713303,W,019.0,352.0,210221,,,A*4D
$GPGGA,182156.68,3718.523235,N,00555.711269,W,1,05,1.86,82.85,M,0.0,M,0.0,0000*58
$GAGSV,2,1,5,1,47,131,38.8,24,23,315,39.8,26,35,044,33.4,31,75,321,40.7*6B
$GAGSV,2,2,5,33,87,076,36.1*79
$GPRMC,182156.68,A,3718.523235,N,00555.711269,W,021.0,356.8,210221,,,A*40
$GPGGA,182157.67,3718.528005,N,00555.717801,W,1,06,1.28,92.93,M,0.0,M,0.0,0000*5F
$GAGSV,2,1,6,1,47,131,39.7,12,37,220,29.2,24,23,315,38.8,26,35,044,34.6*6F
$GAGSV,2,2,6,31,75,321,43.6,33,87,076,32.9*59
$GPRMC,182157.67,A,3718.528005,N,00555.717801,W,021.3,354.5,210221,,,A*4A
$GPGGA,182158.69,3718.534412,N,00555.722328,W,1,05,1.74,99.70,M,0.0,M,0.0,0000*5B
$GAGSV,2,1,5,1,47,131,35.3,12,37,220,32.5,26,35,044,35.5,31,75,321,40.7*6B
$GAGSV,2,2,5,33,87,076,32.0*7C
$GPRMC,182158.69,A,3718.534412,N,00555.722328,W,021.5,345.2,210221,,,A*43
$GPGGA,182159.68,3718.541130,N,00555.718924,W,1,05,1.74,141.66,M,0.0,M,0.0,0000*60
$GAGSV,2,1,5,1,47,131,39.4,12,37,220,31.5,26,35,044,40.3,31,75,321,37.8*68
$GAGSV,2,2,5,33,87,076,30.0*7E
$GPRMC,182159.68,A,3718.541130,N,00555.718924,W,022.4,333.5,210221,,,A*4F
$GPGGA,182200.67,3718.540413,N,00555.728506,W,1,06,1.28,105.70,M,0.0,M,0.0,0000*67
$GAGSV,2,1,6,1,47,131,38.1,12,37,220,31.1,24,23,315,39.7,26,35,044,34.8*62
$GAGSV,2,2,6,31,75,321,41.0,33,87,076,30.2*54
$GPRMC,182200.67,A,3718.540413,N,00555.728506,W,020.5,323.2,210221,,,A*40
$GPGGA,182201.67,3718.553056,N,00555.731301,W,1,06,1.28,115.23,M,0.0,M,0.0,0000*6F
$GAGSV,2,1,6,1,47,131,40.1,12,37,220,28.6,24,23,315,35.6,26,35,044,30.8*6B
$GAGSV,2,2,6,31,75,321,38.3,33,87,076,32.2*5B
$GPRMC,182201.67,A,3718.553056,N,00555.731301,W,021.1,316.4,210221,,,A*4A
$GPGGA,182202.68,,,,,1,04, Inf,,M,0.0,M,0.0,0000*29
$GPRMC,182202.68,A,,,,,,,210221,,,A*62
$GPGGA,182203.67,3718.555971,N,00555.743198,W,1,06,1.28,97.81,M,0.0,M,0.0,0000*53
$GAGSV,2,1,6,1,47,131,40.3,12,37,220,33.6,24,23,315,37.1,26,34,044,37.7*6F
$GAGSV,2,2,6,31,75,321,34.3,33,87,076,33.2*56
$GPRMC,182203.67,A,3718.555971,N,00555.743198,W,020.9,316.2,210221,,,A*4A
$GPGGA,182204.68,3718.557933,N,00555.749153,W,1,06,1.28,95.80,M,0.0,M,0.0,0000*51
$GAGSV,2,1,6,1,47,131,39.5,12,37,220,29.7,24,23,315,39.7,26,34,044,32.1*66
$GAGSV,2,2,6,31,75,321,39.9,33,87,075,33.6*56
$GPRMC,182204.68,A,3718.557933,N,00555.749153,W,021.3,329.2,210221,,,A*4C
$GPGGA,182205.68,3718.566213,N,00555.749884,W,1,06,1.28,104.60,M,0.0,M,0.0,0000*6F
$GAGSV,2,1,6,1,47,131,38.9,12,37,220,32.9,24,23,315,32.6,26,34,044,42.2*61
$GAGSV,2,2,6,31,75,321,41.5,33,87,075,35.4*51
$GPRMC,182205.68,A,3718.566213,N,00555.749884,W,021.9,342.5,210221,,,A*45
$GPGGA,182206.67,3718.571179,N,00555.748046,W,1,06,1.28,90.62,M,0.0,M,0.0,0000*53
$GAGSV,2,1,6,1,47,131,37.0,12,37,220,30.3,24,23,315,37.0,26,34,044,39.7*65
$GAGSV,2,2,6,31,75,321,39.7,33,87,075,33.9*57
$GPRMC,182206.67,A,3718.571179,N,00555.748046,W,024.5,344.2,210221,,,A*4F
$GPGGA,182207.68,3718.577069,N,00555.754659,W,1,06,1.28,95.85,M,0.0,M,0.0,0000*52
$GAGSV,2,1,6,1,47,131,41.4,12,37,220,28.9,24,23,315,31.1,26,34,044,40.3*6E
$GAGSV,2,2,6,31,75,321,36.9,33,87,075,32.3*5D
$GPRMC,182207.68,A,3718.577069,N,00555.754659,W,025.3,337.7,210221,,,A*44
$GPGGA,182208.67,3718.588466,N,00555.759903,W,1,05,1.86,106.81,M,0.0,M,0.0,0000*6C
$GAGSV,2,1,5,1,47,131,43.9,24,23,315,28.5,26,34,044,36.0,31,75,321,36.4*69
$GAGSV,2,2,5,33,87,075,30.3*7E
$GPRMC,182208.67,A,3718.588466,N,00555.759903,W,025.9,332.1,210221,,,A*4B
$GPGGA,182209.68,3718.591195,N,00555.764975,W,1,05,1.86,93.14,M,0.0,M,0.0,0000*5D
$GAGSV,2,1,5,1,47,131,42.1,24,23,315,29.9,26,34,044,32.2,31,75,321,38.4*65
$GAGSV,2,2,5,33,87,075,29.9*7C
$GPRMC,182209.68,A,3718.591195,N,00555.764975,W,027.2,329.6,210221,,,A*4F
$GPGGA,182210.68,3718.602045,N,00555.766078,W,1,05,1.86,84.92,M,0.0,M,0.0,0000*5E
$GAGSV,2,1,5,1,47,131,41.6,24,23,315,33.3,26,34,044,28.3,31,75,321,36.7*67
$GAGSV,2,2,5,33,87,075,31.0*7C
$GPRMC,182210.68,A,3718.602045,N,00555.766078,W,028.3,331.6,210221,,,A*43
$GPGGA,182211.67,3718.605412,N,00555.774900,W,1,05,1.86,102.19,M,0.0,M,0.0,0000*68
$GAGSV,2,1,5,1,47,131,41.2,24,23,315,31.8,26,34,044,28.9,31,75,321,37.2*64
$GAGSV,2,2,5,33,87,075,31.3*7F
$GPRMC,182211.67,A,3718.605412,N,00555.774900,W,029.5,330.2,210221,,,A*4B
$GPGGA,182212.68,3718.617119,N,00555.773517,W,1,05,1.86,98.65,M,0.0,M,0.0,0000*5D
$GAGSV,2,1,5,1,47,131,42.7,24,23,315,33.5,26,34,044,30.3,31,75,321,37.3*6F
$GAGSV,2,2,5,33,87,075,31.7*7B
$GPRMC,182212.68,A,3718.617119,N,00555.773517,W,030.0,332.4,210221,,,A*4E
$GPGGA,182213.68,3718.611604,N,00555.794530,W,1,05,1.86,91.58,M,0.0,M,0.0,0000*5A
$GAGSV,2,1,5,1,47,131,42.1,24,23,315,34.5,26,34,044,31.4,31,75,321,35.8*61
$GAGSV,2,2,5,33,87,075,32.2*7D
$GPRMC,182213.68,A,3718.611604,N,00555.794530,W,030.2,333.5,210221,,,A*4C
$GPGGA,182214.69,3718.622152,N,00555.794257,W,1,05,1.86,97.75,M,0.0,M,0.0,0000*57
$GAGSV,2,1,5,1,47,131,41.8,24,23,315,33.2,26,34,044,31.4,31,75,321,36.8*68
$GAGSV,2,2,5,33,87,074,32.4*7A
$GPRMC,182214.69,A,3718.622152,N,00555.794257,W,029.9,329.1,210221,,,A*44
$GPGGA,182215.68,3718.628657,N,00555.800614,W,1,05,1.86,97.67,M,0.0,M,0.0,0000*5D
$GAGSV,2,1,5,1,47,131,41.8,24,23,315,31.4,26,34,044,30.9,31,75,321,37.4*6D
$GAGSV,2,2,5,33,87,074,32.1*7F
$GPRMC,182215.68,A,3718.628657,N,00555.800614,W,031.1,332.3,210221,,,A*44
$GPGGA,182216.67,3718.634506,N,00555.807765,W,1,05,1.86,88.52,M,0.0,M,0.0,0000*53
$GAGSV,2,1,5,1,47,131,42.1,24,23,315,30.3,26,34,044,31.3,31,75,321,38.3*62
$GAGSV,2,2,5,33,87,074,32.9*77
$GPRMC,182216.67,A,3718.634506,N,00555.807765,W,030.1,330.6,210221,,,A*44
$GPGGA,182217.69,3718.645210,N,00555.806698,W,1,05,1.86,94.90,M,0.0,M,0.0,0000*5B
$GAGSV,2,1,5,1,47,131,42.0,24,23,315,29.8,26,34,044,31.1,31,75,321,38.5*64
$GAGSV,2,2,5,33,87,074,33.2*7D
$GPRMC,182217.69,A,3718.645210,N,00555.806698,W,030.3,328.9,210221,,,A*4B
$GPGGA,182218.68,3718.650828,N,00555.816870,W,1,05,1.86,90.96,M,0.0,M,0.0,0000*5B
$GAGSV,2,1,5,1,47,131,41.7,24,23,315,32.1,26,34,044,32.3,31,75,321,39.4*62
$GAGSV,2,2,5,33,87,074,31.4*79
$GPRMC,182218.68,A,3718.650828,N,00555.816870,W,030.5,328.7,210221,,,A*41
$GPGGA,182219.69,3718.662819,N,00555.814391,W,1,05,1.86,106.87,M,0.0,M,0.0,0000*60
$GAGSV,2,1,5,1,47,131,41.0,24,23,315,32.2,26,34,044,32.1,31,75,321,38.5*64
$GAGSV,2,2,5,33,87,074,32.5*7B
$GPRMC,182219.69,A,3718.662819,N,00555.814391,W,029.9,327.8,210221,,,A*40
$GPGGA,182220.69,3718.663278,N,00555.827844,W,1,05,1.86,91.98,M,0.0,M,0.0,0000*54
$GAGSV,2,1,5,1,47,131,41.2,24,23,315,32.1,26,34,044,29.4,31,75,321,38.3*6C
$GAGSV,2,2,5,33,87,074,33.4*7B
$GPRMC,182220.69,A,3718.663278,N,00555.827844,W,030.2,326.9,210221,,,A*46
$GPGGA,182221.68,3718.678181,N,00555.825422,W,1,05,1.86,100.70,M,0.0,M,0.0,0000*6A
$GAGSV,2,1,5,1,47,131,41.7,24,23,315,31.3,26,34,044,32.0,31,75,321,38.9*6C
$GAGSV,2,2,5,33,87,074,31.9*74
$GPRMC,182221.68,A,3718.678181,N,00555.825422,W,030.2,330.4,210221,,,A*4D
$GPGGA,182222.69,3718.682106,N,00555.838370,W,1,05,1.86,82.92,M,0.0,M,0.0,0000*59
$GAGSV,2,1,5,1,47,131,41.8,24,23,315,28.3,26,34,044,28.5,31,75,321,36.4*66
$GAGSV,2,2,5,33,87,074,33.0*7F
$GPRMC,182222.69,A,3718.682106,N,00555.838370,W,030.0,328.6,210221,,,A*40
$GPGGA,182223.68,3718.687950,N,00555.838030,W,1,05,1.86,93.92,M,0.0,M,0.0,0000*50
$GAGSV,2,1,5,1,47,131,41.1,24,23,315,31.9,26,34,044,29.5,31,75,321,37.8*61
$GAGSV,2,2,5,33,87,074,33.2*7D
$GPRMC,182223.68,A,3718.687950,N,00555.838030,W,029.3,325.9,210221,,,A*40
$GPGGA,182224.70,3718.692209,N,00555.848941,W,1,05,1.86,81.70,M,0.0,M,0.0,0000*5A
$GAGSV,2,1,5,1,47,131,40.5,24,23,315,31.4,26,34,044,28.9,31,75,321,39.4*66
$GAGSV,2,2,5,33,87,074,32.1*7F
$GPRMC,182224.70,A,3718.692209,N,00555.848941,W,030.6,326.7,210221,,,A*45
$GPGGA,182225.69,3718.703272,N,00555.847618,W,1,05,1.86,93.33,M,0.0,M,0.0,0000*5E
$GAGSV,2,1,5,1,47,131,41.4,24,23,315,32.5,26,34,044,28.9,31,75,321,38.7*66
$GAGSV,2,2,5,33,87,073,33.0*78
$GPRMC,182225.69,A,3718.703272,N,00555.847618,W,030.1,327.7,210221,,,A*43
$GPGGA,182226.68,3718.714367,N,00555.853031,W,1,05,1.86,92.25,M,0.0,M,0.0,0000*51
$GAGSV,2,1,5,1,47,131,40.0,24,23,315,34.0,26,34,044,30.8,31,75,321,38.0*6F
$GAGSV,2,2,5,33,87,073,30.4*7F
$GPRMC,182226.68,A,3718.714367,N,00555.853031,W,030.6,332.4,210221,,,A*4A
$GPGGA,182227.70,3718.719846,N,00555.856373,W,1,05,1.86,98.70,M,0.0,M,0.0,0000*56
$GAGSV,2,1,5,1,47,131,40.9,24,23,315,34.1,26,34,044,28.4,31,75,321,36.5*69
$GAGSV,2,2,5,33,87,073,30.4*7F
$GPRMC,182227.70,A,3718.719846,N,00555.856373,W,029.5,328.3,210221,,,A*40
$GPGGA,182228.69,3718.720494,N,00555.867560,W,1,05,1.86,103.38,M,0.0,M,0.0,0000*61
$GAGSV,2,1,5,1,47,131,40.7,24,23,315,32.3,26,34,044,28.3,31,75,321,36.4*65
$GAGSV,2,2,5,33,87,073,29.3*70
$GPRMC,182228.69,A,3718.720494,N,00555.867560,W,029.0,326.1,210221,,,A*41
$GPGGA,182229.70,,,,,1,04, Inf,,M,0.0,M,0.0,0000*29
$GPRMC,182229.70,A,,,,,,,210221,,,A*62
$GPGGA,182230.69,,,,,1,04, Inf,,M,0.0,M,0.0,0000*29
$GPRMC,182230.69,A,,,,,,,210221,,,A*62
$GPGGA,182231.68,3718.749996,N,00555.873266,W,1,06,1.28,112.76,M,0.0,M,0.0,0000*61
$GAGSV,2,1,6,1,47,132,41.4,12,37,220,29.4,24,23,315,29.9,26,34,044,28.5*68
$GAGSV,2,2,6,31,75,321,35.0,33,87,073,31.3*52
$GPRMC,182231.68,A,3718.749996,N,00555.873266,W,028.9,331.3,210221,,,A*40
$GPGGA,182232.71,3718.751983,N,00555.882660,W,1,06,1.28,86.67,M,0.0,M,0.0,0000*57
$GAGSV,2,1,6,1,47,132,43.0,12,37,220,28.9,24,24,315,33.6,26,34,044,31.6*6A
$GAGSV,2,2,6,31,75,321,30.6,33,87,073,33.4*54
$GPRMC,182232.71,A,3718.751983,N,00555.882660,W,028.5,328.9,210221,,,A*44
$GPGGA,182233.70,3718.753995,N,00555.894535,W,1,04,1.94,88.06,M,0.0,M,0.0,0000*5A
$GAGSV,1,1,4,1,47,132,42.5,24,24,315,34.1,26,34,044,32.6,33,87,073,33.5*66
$GPRMC,182233.70,A,3718.753995,N,00555.894535,W,028.7,330.1,210221,,,A*46
$GPGGA,182234.70,3718.764923,N,00555.896130,W,1,05,1.39,96.04,M,0.0,M,0.0,0000*5C
$GAGSV,2,1,5,1,47,132,42.6,12,37,220,30.5,24,24,315,34.5,26,34,044,30.1*69
$GAGSV,2,2,5,33,87,073,34.1*7E
$GPRMC,182234.70,A,3718.764923,N,00555.896130,W,029.4,330.9,210221,,,A*41
$GPGGA,182235.71,3718.774772,N,00555.901097,W,1,06,1.28,115.31,M,0.0,M,0.0,0000*6B
$GAGSV,2,1,6,1,47,132,42.4,12,38,220,28.9,24,24,315,34.3,26,34,044,31.0*64
$GAGSV,2,2,6,31,75,321,30.4,33,87,072,32.8*5A
$GPRMC,182235.71,A,3718.774772,N,00555.901097,W,028.5,331.1,210221,,,A*40
$GPGGA,182236.70,3718.779051,N,00555.909835,W,1,05,1.86,102.68,M,0.0,M,0.0,0000*67
$GAGSV,2,1,5,1,47,132,43.2,24,24,315,33.9,26,34,044,30.4,31,75,321,31.1*60
$GAGSV,2,2,5,33,87,072,32.8*70
$GPRMC,182236.70,A,3718.779051,N,00555.909835,W,028.5,328.3,210221,,,A*4B
$GPGGA,182237.70,3718.786988,N,00555.909195,W,1,06,1.28,97.33,M,0.0,M,0.0,0000*5C
$GAGSV,2,1,6,1,47,132,43.2,12,38,220,30.2,24,24,315,33.1,26,34,044,32.2*65
$GAGSV,2,2,6,31,75,321,32.7,33,87,072,35.5*51
$GPRMC,182237.70,A,3718.786988,N,00555.909195,W,028.0,331.0,210221,,,A*4A
$GPGGA,182238.71,3718.801770,N,00555.905753,W,1,05,1.81,78.81,M,0.0,M,0.0,0000*53
$GAGSV,2,1,5,1,47,132,43.1,12,38,220,30.1,24,24,315,33.9,31,75,321,33.4*6A
$GAGSV,2,2,5,33,87,072,35.6*79
$GPRMC,182238.71,A,3718.801770,N,00555.905753,W,028.2,329.6,210221,,,A*40
$GPGGA,182239.70,3718.801558,N,00555.922365,W,1,05,1.81,111.39,M,0.0,M,0.0,0000*62
$GAGSV,2,1,5,1,47,132,42.8,12,38,220,30.0,24,24,315,36.2,31,75,321,31.3*68
$GAGSV,2,2,5,33,87,072,31.0*7B
$GPRMC,182239.70,A,3718.801558,N,00555.922365,W,026.0,332.3,210221,,,A*4F
$GPGGA,182240.71,,,,,1,02, Inf,,M,0.0,M,0.0,0000*21
$GPRMC,182240.71,A,,,,,,,210221,,,A*6C
$GPGGA,182241.71,3718.804818,N,00555.931901,W,1,04,1.94,96.55,M,0.0,M,0.0,0000*5B
$GAGSV,1,1,4,1,47,132,41.8,24,24,315,39.1,26,34,044,30.3,33,87,072,30.9*6C
$GPRMC,182241.71,A,3718.804818,N,00555.931901,W,011.8,322.0,210221,,,A*49
$GPGGA,182242.70,,,,,1,04, Inf,,M,0.0,M,0.0,0000*24
$GPRMC,182242.70,A,,,,,,,210221,,,A*6F
$GPGGA,182243.69,3718.820380,N,00555.922507,W,1,05,1.85,95.04,M,0.0,M,0.0,0000*52
$GAGSV,2,1,5,1,47,132,41.5,24,24,315,37.1,26,34,044,28.7,31,75,321,29.7*6C
$GAGSV,2,2,5,33,87,072,30.5*7F
$GPRMC,182243.69,A,3718.820380,N,00555.922507,W,004.0,010.8,210221,,,A*40
$GPGGA,182244.70,,,,,1,04, Inf,,M,0.0,M,0.0,0000*22
$GPRMC,182244.70,A,,,,,,,210221,,,A*69
$GPGGA,182245.70,,,,,1,04, Inf,,M,0.0,M,0.0,0000*23
$GPRMC,182245.70,A,,,,,,,210221,,,A*68
$GPGGA,182246.71,3718.815466,N,00555.931540,W,1,05,1.85,98.32,M,0.0,M,0.0,0000*5E
$GAGSV,2,1,5,1,47,132,42.3,24,24,315,34.7,26,34,044,30.4,31,75,321,37.9*67
$GAGSV,2,2,5,33,87,071,35.4*78
$GPRMC,182246.71,A,3718.815466,N,00555.931540,W,001.9,004.1,210221,,,A*44
$GPGGA,182247.70,,,,,1,04, Inf,,M,0.0,M,0.0,0000*21
$GPRMC,182247.70,A,,,,,,,210221,,,A*6A
$GPGGA,182248.71,3718.817404,N,00555.932258,W,1,05,1.85,83.41,M,0.0,M,0.0,0000*55
$GAGSV,2,1,5,1,47,132,42.8,24,24,315,36.5,26,34,044,35.7,31,75,321,37.8*6B
$GAGSV,2,2,5,33,87,071,33.0*7A
$GPRMC,182248.71,A,3718.817404,N,00555.932258,W,006.8,323.6,210221,,,A*46
$GPGGA,182249.71,3718.821857,N,00555.930227,W,1,05,1.85,84.08,M,0.0,M,0.0,0000*5B
$GAGSV,2,1,5,1,47,132,42.0,24,24,315,31.9,26,34,044,37.0,31,75,321,38.3*69
$GAGSV,2,2,5,33,87,071,30.3*7A
$GPRMC,182249.71,A,3718.821857,N,00555.930227,W,008.9,331.2,210221,,,A*4A
$GPGGA,182250.72,3718.821519,N,00555.935343,W,1,05,1.85,79.74,M,0.0,M,0.0,0000*58
$GAGSV,2,1,5,1,47,132,43.4,24,24,315,32.9,26,34,044,36.4,31,75,321,39.1*69
$GAGSV,2,2,5,33,87,071,32.7*7C
$GPRMC,182250.72,A,3718.821519,N,00555.935343,W,010.7,331.4,210221,,,A*41
$GPGGA,182251.71,3718.825317,N,00555.930335,W,1,06,1.28,90.34,M,0.0,M,0.0,0000*55
$GAGSV,2,1,6,1,47,132,38.6,12,38,220,29.8,24,24,315,30.1,26,34,044,41.3*69
$GAGSV,2,2,6,31,75,321,36.6,33,87,071,35.1*53
$GPRMC,182251.71,A,3718.825317,N,00555.930335,W,011.1,339.9,210221,,,A*49
$GPGGA,182252.70,3718.827163,N,00555.932692,W,1,05,1.85,82.99,M,0.0,M,0.0,0000*5E
$GAGSV,2,1,5,1,47,132,35.6,24,24,315,34.2,26,34,044,42.6,31,75,321,38.1*67
$GAGSV,2,2,5,33,87,071,32.7*7C
$GPRMC,182252.70,A,3718.827163,N,00555.932692,W,013.2,347.0,210221,,,A*43
$GPGGA,182253.72,3718.836858,N,00555.931857,W,1,05,1.85,87.50,M,0.0,M,0.0,0000*58
$GAGSV,2,1,5,1,47,132,34.6,24,24,315,40.2,26,34,044,37.4,31,75,321,42.3*6A
$GAGSV,2,2,5,33,87,071,30.5*7C
$GPRMC,182253.72,A,3718.836858,N,00555.931857,W,015.4,359.1,210221,,,A*4B
$GPGGA,182254.71,3718.837956,N,00555.935787,W,1,05,1.85,96.56,M,0.0,M,0.0,0000*52
$GAGSV,2,1,5,1,47,132,33.5,24,24,315,39.7,26,34,044,35.1,31,75,321,39.9*64
$GAGSV,2,2,5,33,87,071,29.9*78
$GPRMC,182254.71,A,3718.837956,N,00555.935787,W,016.5,009.6,210221,,,A*44
$GPGGA,182255.72,3718.840260,N,00555.934886,W,1,04,8.63,88.88,M,0.0,M,0.0,0000*5D
$GAGSV,1,1,4,24,24,315,32.0,26,34,044,37.5,31,75,321,41.4,33,87,070,30.6*54
$GPRMC,182255.72,A,3718.840260,N,00555.934886,W,020.7,014.8,210221,,,A*42
$GPGGA,182256.72,3718.874236,N,00555.930551,W,1,04,8.64,129.97,M,0.0,M,0.0,0000*6A
$GAGSV,1,1,4,24,24,315,36.9,26,34,044,39.4,31,75,321,40.1,33,87,070,34.7*57
$GPRMC,182256.72,A,3718.874236,N,00555.930551,W,019.1,014.4,210221,,,A*46
$GPGGA,182257.71,3718.849057,N,00555.932834,W,1,05,1.85,96.34,M,0.0,M,0.0,0000*54
$GAGSV,2,1,5,1,47,132,31.6,24,24,315,38.9,26,34,044,35.1,31,75,321,39.6*65
$GAGSV,2,2,5,33,87,070,31.2*7B
$GPRMC,182257.71,A,3718.849057,N,00555.932834,W,020.1,011.1,210221,,,A*49
$GPGGA,182258.72,3718.850764,N,00555.934788,W,1,05,1.85,94.06,M,0.0,M,0.0,0000*5A
$GAGSV,2,1,5,1,47,132,35.9,24,24,315,42.0,26,34,044,30.4,31,75,321,40.3*61
$GAGSV,2,2,5,33,87,070,32.7*7D
$GPRMC,182258.72,A,3718.850764,N,00555.934788,W,020.2,007.6,210221,,,A*47
$GPGGA,182259.71,3718.860518,N,00555.933374,W,1,05,1.85,92.97,M,0.0,M,0.0,0000*5C
$GAGSV,2,1,5,1,47,132,36.9,24,24,315,42.0,26,34,044,34.4,31,75,321,39.3*68
$GAGSV,2,2,5,33,87,070,32.6*7C
$GPRMC,182259.71,A,3718.860518,N,00555.933374,W,020.6,004.3,210221,,,A*4D
$GPGGA,182300.73,3718.874191,N,00555.922952,W,1,05,1.85,92.45,M,0.0,M,0.0,0000*52
$GAGSV,2,1,5,1,47,132,36.3,24,24,315,39.9,26,34,044,34.9,31,75,321,40.1*66
$GAGSV,2,2,5,33,87,070,32.7*7D
$GPRMC,182300.73,A,3718.874191,N,00555.922952,W,022.6,001.2,210221,,,A*4A
$GPGGA,182301.72,3718.873135,N,00555.934258,W,1,05,1.85,91.79,M,0.0,M,0.0,0000*51
$GAGSV,2,1,5,1,47,132,37.2,24,24,315,34.4,26,34,044,29.0,31,75,321,40.3*61
$GAGSV,2,2,5,33,87,070,30.6*7E
$GPRMC,182301.72,A,3718.873135,N,00555.934258,W,023.8,359.2,210221,,,A*44
$GPGGA,182302.73,3718.884467,N,00555.933351,W,1,05,1.74,96.96,M,0.0,M,0.0,0000*5E
$GAGSV,2,1,5,1,47,132,37.2,12,38,220,29.1,26,34,044,37.4,31,75,321,39.8*69
$GAGSV,2,2,5,33,87,070,30.4*7C
$GPRMC,182302.73,A,3718.884467,N,00555.933351,W,022.3,347.6,210221,,,A*42
$GPGGA,182303.72,,,,,1,03, Inf,,M,0.0,M,0.0,0000*25
$GPRMC,182303.72,A,,,,,,,210221,,,A*69
$GPGGA,182304.71,3718.904000,N,00555.927037,W,1,04,1.86,120.25,M,0.0,M,0.0,0000*68
$GAGSV,1,1,4,1,47,132,40.2,24,24,315,32.0,26,34,044,32.9,31,75,321,39.2*6D
$GPRMC,182304.71,A,3718.904000,N,00555.927037,W,022.8,329.6,210221,,,A*4F
$GPGGA,182305.73,3718.900536,N,00555.940873,W,1,04,1.82,110.33,M,0.0,M,0.0,0000*66
$GAGSV,1,1,4,1,47,132,41.5,12,38,220,28.9,24,24,315,37.0,31,75,321,40.5*67
$GPRMC,182305.73,A,3718.900536,N,00555.940873,W,022.6,316.0,210221,,,A*45
$GPGGA,182306.72,,,,,1,03, Inf,,M,0.0,M,0.0,0000*20
$GPRMC,182306.72,A,,,,,,,210221,,,A*6C
$GPGGA,182307.71,3718.910298,N,00555.950238,W,1,06,1.28,112.46,M,0.0,M,0.0,0000*62
$GAGSV,2,1,6,1,47,132,35.0,12,38,220,31.0,24,24,315,28.3,26,34,044,35.7*6F
$GAGSV,2,2,6,31,75,321,35.1,33,87,069,32.8*50
$GPRMC,182307.71,A,3718.910298,N,00555.950238,W,021.5,307.2,210221,,,A*41
$GPGGA,182308.72,3718.910687,N,00555.961061,W,1,06,1.28,113.72,M,0.0,M,0.0,0000*6E
$GAGSV,2,1,6,1,47,132,38.9,12,38,220,29.0,24,24,315,35.6,26,34,044,31.4*6C
$GAGSV,2,2,6,31,75,320,35.1,33,86,069,30.4*5E
$GPRMC,182308.72,A,3718.910687,N,00555.961061,W,023.1,299.4,210221,,,A*4D
$GPGGA,182309.72,3718.916059,N,00555.958904,W,1,06,1.28,103.61,M,0.0,M,0.0,0000*6F
$GAGSV,2,1,6,1,47,132,36.5,12,38,220,33.2,24,24,315,39.2,26,34,044,30.8*62
$GAGSV,2,2,6,31,75,320,33.6,33,86,069,29.3*50
$GPRMC,182309.72,A,3718.916059,N,00555.958904,W,024.3,291.6,210221,,,A*40
$GPGGA,182310.73,3718.923010,N,00555.974624,W,1,06,1.28,117.32,M,0.0,M,0.0,0000*6D
$GAGSV,2,1,6,1,47,132,31.4,12,38,220,29.3,24,24,315,37.7,26,34,044,38.4*61
$GAGSV,2,2,6,31,75,320,33.8,33,86,069,34.6*57
$GPRMC,182310.73,A,3718.923010,N,00555.974624,W,022.4,290.7,210221,,,A*40
$GPGGA,182311.72,3718.918513,N,00555.981263,W,1,05,1.67,101.44,M,0.0,M,0.0,0000*60
$GAGSV,2,1,5,12,38,220,28.5,24,24,315,37.9,26,34,044,39.3,31,75,320,34.1*5E
$GAGSV,2,2,5,33,86,069,34.4*71
$GPRMC,182311.72,A,3718.918513,N,00555.981263,W,022.5,294.5,210221,,,A*44
$GPGGA,182312.74,3718.922775,N,00555.988014,W,1,06,1.28,111.41,M,0.0,M,0.0,0000*69
$GAGSV,2,1,6,1,47,132,36.4,12,38,220,33.6,24,24,315,39.0,26,34,044,39.5*61
$GAGSV,2,2,6,31,75,320,34.6,33,86,069,34.2*5A
$GPRMC,182312.74,A,3718.922775,N,00555.988014,W,020.0,288.7,210221,,,A*49
$GPGGA,182313.73,3718.922831,N,00555.989894,W,1,06,1.28,93.03,M,0.0,M,0.0,0000*5C
$GAGSV,2,1,6,1,47,132,41.0,12,38,220,31.8,24,24,315,31.1,26,34,044,36.5*6F
$GAGSV,2,2,6,31,75,320,29.4,33,86,069,37.9*5C
$GPRMC,182313.73,A,3718.922831,N,00555.989894,W,018.3,301.9,210221,,,A*47
$GPGGA,182314.72,3718.927648,N,00555.999569,W,1,06,1.28,86.42,M,0.0,M,0.0,0000*50
$GAGSV,2,1,6,1,47,132,37.5,12,38,220,32.1,24,24,315,29.0,26,34,044,38.0*62
$GAGSV,2,2,6,31,75,320,34.2,33,86,069,38.7*57
$GPRMC,182314.72,A,3718.927648,N,00555.999569,W,018.3,307.8,210221,,,A*4D
$GPGGA,182315.73,3718.931187,N,00556.004457,W,1,06,1.28,93.67,M,0.0,M,0.0,0000*52
$GAGSV,2,1,6,1,47,132,39.1,12,38,220,33.8,24,24,315,30.3,26,34,044,41.3*66
$GAGSV,2,2,6,31,75,320,41.3,33,86,069,36.6*5B
$GPRMC,182315.73,A,3718.931187,N,00556.004457,W,019.0,318.7,210221,,,A*4F
$GPGGA,182316.73,3718.934138,N,00556.007429,W,1,06,1.28,95.10,M,0.0,M,0.0,0000*5C
$GAGSV,2,1,6,1,47,132,40.4,12,38,220,34.4,24,24,315,36.7,26,34,044,32.5*66
$GAGSV,2,2,6,31,75,320,43.9,33,86,069,35.5*53
$GPRMC,182316.73,A,3718.934138,N,00556.007429,W,019.8,326.1,210221,,,A*44
$GPGGA,182317.74,3718.931286,N,00556.041444,W,1,04,6.39,11.78,M,0.0,M,0.0,0000*57
$GAGSV,1,1,4,1,47,132,40.3,26,34,044,34.4,31,75,320,41.4,33,86,069,33.3*6B
$GPRMC,182317.74,A,3718.931286,N,00556.041444,W,021.7,324.9,210221,,,A*46
$GPGGA,182318.73,,,,,1,03, Inf,,M,0.0,M,0.0,0000*2E
$GPRMC,182318.73,A,,,,,,,210221,,,A*62
$GPGGA,182319.72,,,,,1,03, Inf,,M,0.0,M,0.0,0000*2E
$GPRMC,182319.72,A,,,,,,,210221,,,A*62
$GPGGA,182320.72,,,,,1,03, Inf,,M,0.0,M,0.0,0000*24
$GPRMC,182320.72,A,,,,,,,210221,,,A*68
$GPGGA,182321.73,,,,,1,03, Inf,,M,0.0,M,0.0,0000*24
$GPRMC,182321.73,A,,,,,,,210221,,,A*68
$GPGGA,182322.72,,,,,1,03, Inf,,M,0.0,M,0.0,0000*26
$GPRMC,182322.72,A,,,,,,,210221,,,A*6A
$GPGGA,182323.73,,,,,1,03, Inf,,M,0.0,M,0.0,0000*26
$GPRMC,182323.73,A,,,,,,,210221,,,A*6A
$GPGGA,182324.72,,,,,1,03, Inf,,M,0.0,M,0.0,0000*20
$GPRMC,182324.72,A,,,,,,,210221,,,A*6C
$GPGGA,182325.73,,,,,1,03, Inf,,M,0.0,M,0.0,0000*20
$GPRMC,182325.73,A,,,,,,,210221,,,A*6C
$GPGGA,182326.73,,,,,1,03, Inf,,M,0.0,M,0.0,0000*23
$GPRMC,182326.73,A,,,,,,,210221,,,A*6F
$GPGGA,182327.72,,,,,1,03, Inf,,M,0.0,M,0.0,0000*23
$GPRMC,182327.72,A,,,,,,,210221,,,A*6F
$GPGGA,182328.74,3719.005418,N,00556.061580,W,1,05,1.74,97.39,M,0.0,M,0.0,0000*5A
$GAGSV,2,1,5,1,47,132,40.4,12,38,220,30.1,26,34,044,33.0,31,75,320,39.0*6E
$GAGSV,2,2,5,33,86,068,30.7*77
$GPRMC,182328.74,A,3719.005418,N,00556.061580,W,025.8,329.3,210221,,,A*43
$GPGGA,182329.73,3719.008526,N,00556.066434,W,1,05,1.74,91.07,M,0.0,M,0.0,0000*5F
$GAGSV,2,1,5,1,47,132,40.5,12,38,220,30.3,26,34,044,33.2,31,75,320,38.7*69
$GAGSV,2,2,5,33,86,067,29.4*73
$GPRMC,182329.73,A,3719.008526,N,00556.066434,W,026.8,331.5,210221,,,A*41
$GPGGA,182330.74,,,,,1,03, Inf,,M,0.0,M,0.0,0000*23
$GPRMC,182330.74,A,,,,,,,210221,,,A*6F
$GPGGA,182331.74,3719.023424,N,00556.080295,W,1,05,1.74,67.70,M,0.0,M,0.0,0000*57
$GAGSV,2,1,5,1,47,132,40.7,12,38,220,29.5,26,34,044,33.5,31,75,320,38.6*63
$GAGSV,2,2,5,33,86,067,30.2*7D
$GPRMC,182331.74,A,3719.023424,N,00556.080295,W,025.5,330.1,210221,,,A*4B
$GPGGA,182332.75,3719.026514,N,00556.074295,W,1,05,1.74,101.55,M,0.0,M,0.0,0000*6F
$GAGSV,2,1,5,1,47,132,39.6,12,38,220,28.6,26,34,044,33.1,31,75,320,39.1*6C
$GAGSV,2,2,5,33,86,067,28.5*73
$GPRMC,182332.75,A,3719.026514,N,00556.074295,W,025.6,327.9,210221,,,A*48
$GPGGA,182333.74,3719.033928,N,00556.078240,W,1,04,1.75,126.92,M,0.0,M,0.0,0000*62
$GAGSV,1,1,4,1,47,132,39.0,12,38,220,28.8,26,34,044,33.2,31,75,320,39.5*61
$GPRMC,182333.74,A,3719.033928,N,00556.078240,W,025.6,327.7,210221,,,A*45
$GPGGA,182334.73,3719.043334,N,00556.081448,W,1,04,1.85,126.15,M,0.0,M,0.0,0000*6A
$GAGSV,1,1,4,1,47,132,40.6,24,24,315,29.8,26,34,044,33.8,31,75,320,38.9*60
$GPRMC,182334.73,A,3719.043334,N,00556.081448,W,025.7,331.3,210221,,,A*4F
$GPGGA,182335.74,,,,,1,03, Inf,,M,0.0,M,0.0,0000*26
$GPRMC,182335.74,A,,,,,,,210221,,,A*6A
$GPGGA,182336.74,,,,,1,03, Inf,,M,0.0,M,0.0,0000*25
$GPRMC,182336.74,A,,,,,,,210221,,,A*69
$GPGGA,182337.73,3719.061049,N,00556.099142,W,1,05,1.29,98.68,M,0.0,M,0.0,0000*5F
$GAGSV,2,1,5,1,47,132,39.5,12,38,220,28.5,24,24,315,28.9,26,34,044,31.9*68
$GAGSV,2,2,5,31,75,320,38.1*78
$GPRMC,182337.73,A,3719.061049,N,00556.099142,W,025.0,329.0,210221,,,A*4E
$GPGGA,182338.74,3719.066062,N,00556.106672,W,1,05,1.74,88.62,M,0.0,M,0.0,0000*59
$GAGSV,2,1,5,1,47,132,40.4,12,38,220,30.3,26,34,044,34.7,31,75,320,39.2*6E
$GAGSV,2,2,5,33,86,067,29.1*76
$GPRMC,182338.74,A,3719.066062,N,00556.106672,W,024.5,330.2,210221,,,A*45
$GPGGA,182339.73,3719.068840,N,00556.108681,W,1,05,1.74,113.65,M,0.0,M,0.0,0000*6F
$GAGSV,2,1,5,1,47,132,41.3,12,38,220,28.9,26,34,044,34.4,31,75,320,37.6*62
$GAGSV,2,2,5,33,86,067,30.1*7E
$GPRMC,182339.73,A,3719.068840,N,00556.108681,W,024.2,331.8,210221,,,A*4B
$GPGGA,182340.75,3719.072337,N,00556.127973,W,1,04,6.39,57.16,M,0.0,M,0.0,0000*52
$GAGSV,1,1,4,1,47,132,41.7,26,34,044,35.4,31,75,320,37.1,33,86,067,29.6*6B
$GPRMC,182340.75,A,3719.072337,N,00556.127973,W,022.5,327.7,210221,,,A*45
$GPGGA,182341.74,3719.085425,N,00556.115364,W,1,06,1.28,105.46,M,0.0,M,0.0,0000*65
$GAGSV,2,1,6,1,47,132,40.5,12,38,221,32.6,24,24,315,36.7,26,34,044,35.8*68
$GAGSV,2,2,6,31,75,320,38.5,33,86,066,34.4*5C
$GPRMC,182341.74,A,3719.085425,N,00556.115364,W,021.9,326.3,210221,,,A*4E
$GPGGA,182342.73,,,,,1,04, Inf,,M,0.0,M,0.0,0000*26
$GPRMC,182342.73,A,,,,,,,210221,,,A*6D
$GPGGA,182343.74,3719.091650,N,00556.123095,W,1,06,1.28,103.57,M,0.0,M,0.0,0000*6C
$GAGSV,2,1,6,1,47,132,42.6,12,38,221,29.7,24,24,315,42.2,26,34,044,35.1*6D
$GAGSV,2,2,6,31,75,320,36.6,33,86,066,35.3*57
$GPRMC,182343.74,A,3719.091650,N,00556.123095,W,017.2,326.1,210221,,,A*4D
$GPGGA,182344.74,3719.095227,N,00556.124802,W,1,06,1.28,94.04,M,0.0,M,0.0,0000*53
$GAGSV,2,1,6,1,47,132,41.4,12,38,221,30.2,24,24,315,34.9,26,34,044,30.6*69
$GAGSV,2,2,6,31,75,320,41.5,33,86,066,35.7*50
$GPRMC,182344.74,A,3719.095227,N,00556.124802,W,016.9,338.4,210221,,,A*4B
$GPGGA,182345.73,3719.085634,N,00556.142836,W,1,05,1.84,80.15,M,0.0,M,0.0,0000*55
$GAGSV,2,1,5,1,47,132,42.8,24,24,315,31.3,26,34,044,30.9,31,75,320,36.6*6F
$GAGSV,2,2,5,33,86,066,36.3*7B
$GPRMC,182345.73,A,3719.085634,N,00556.142836,W,018.7,350.9,210221,,,A*4E
$GPGGA,182346.72,3719.103863,N,00556.130644,W,1,06,1.28,108.87,M,0.0,M,0.0,0000*65
$GAGSV,2,1,6,1,47,132,39.1,12,38,221,35.2,24,24,315,34.2,26,34,044,28.6*64
$GAGSV,2,2,6,31,75,320,39.5,33,86,066,34.4*5D
$GPRMC,182346.72,A,3719.103863,N,00556.130644,W,017.5,349.6,210221,,,A*4B
$GPGGA,182347.74,,,,,1,04, Inf,,M,0.0,M,0.0,0000*24
$GPRMC,182347.74,A,,,,,,,210221,,,A*6F
$GPGGA,182348.75,3719.114494,N,00556.127864,W,1,05,1.84,108.88,M,0.0,M,0.0,0000*6E
$GAGSV,2,1,5,1,47,132,41.1,24,24,315,33.6,26,34,044,39.7,31,75,320,35.9*69
$GAGSV,2,2,5,33,86,066,33.8*75
$GPRMC,182348.75,A,3719.114494,N,00556.127864,W,018.7,343.2,210221,,,A*49
$GPGGA,182349.76,3719.117320,N,00556.138384,W,1,05,1.84,108.71,M,0.0,M,0.0,0000*6A
$GAGSV,2,1,5,1,47,132,43.5,24,24,315,31.9,26,34,044,33.8,31,75,320,33.6*6E
$GAGSV,2,2,5,33,86,066,32.7*7B
$GPRMC,182349.76,A,3719.117320,N,00556.138384,W,019.1,331.9,210221,,,A*42
$GPGGA,182350.75,3719.122368,N,00556.142993,W,1,05,1.81,117.42,M,0.0,M,0.0,0000*61
$GAGSV,2,1,5,1,47,132,42.0,12,38,221,31.7,24,24,315,38.2,31,75,320,40.1*6C
$GAGSV,2,2,5,33,86,066,34.8*72
$GPRMC,182350.75,A,3719.122368,N,00556.142993,W,020.6,325.9,210221,,,A*4A
$GPGGA,182351.75,3719.129469,N,00556.143879,W,1,05,1.74,112.62,M,0.0,M,0.0,0000*64
$GAGSV,2,1,5,1,47,132,40.8,12,38,221,31.1,26,34,044,40.5,31,75,320,40.1*6C
$GAGSV,2,2,5,33,86,066,33.2*7F
$GPRMC,182351.75,A,3719.129469,N,00556.143879,W,019.4,319.4,210221,,,A*48
$GPGGA,182352.76,3719.133988,N,00556.148253,W,1,06,1.28,117.70,M,0.0,M,0.0,0000*68
$GAGSV,2,1,6,1,47,132,39.8,12,38,221,36.7,24,24,315,29.8,26,34,044,38.1*6B
$GAGSV,2,2,6,31,75,320,38.8,33,86,066,31.4*54
$GPRMC,182352.76,A,3719.133988,N,00556.148253,W,021.1,317.1,210221,,,A*4D
$GPGGA,182353.75,3719.137886,N,00556.153899,W,1,05,1.74,99.72,M,0.0,M,0.0,0000*58
$GAGSV,2,1,5,1,47,132,39.8,12,38,221,35.2,26,34,044,39.8,31,75,320,40.8*6F
$GAGSV,2,2,5,33,86,065,30.9*74
$GPRMC,182353.75,A,3719.137886,N,00556.153899,W,021.8,320.3,210221,,,A*4D
$GPGGA,182354.74,3719.140525,N,00556.159204,W,1,06,1.28,98.39,M,0.0,M,0.0,0000*5A
$GAGSV,2,1,6,1,47,132,40.9,12,38,221,30.4,24,24,315,36.6,26,34,044,42.2*6F
$GAGSV,2,2,6,31,75,320,42.3,33,86,065,33.2*55
$GPRMC,182354.74,A,3719.140525,N,00556.159204,W,022.0,321.4,210221,,,A*46
$GPGGA,182355.76,3719.149415,N,00556.159197,W,1,06,1.28,100.59,M,0.0,M,0.0,0000*6D
$GAGSV,2,1,6,1,47,132,40.7,12,38,221,34.6,24,24,315,36.4,26,34,044,32.1*61
$GAGSV,2,2,6,31,75,320,42.5,33,86,065,29.1*5B
$GPRMC,182355.76,A,3719.149415,N,00556.159197,W,021.1,324.3,210221,,,A*47
$GPGGA,182356.75,3719.153378,N,00556.164811,W,1,05,1.80,103.95,M,0.0,M,0.0,0000*61
$GAGSV,2,1,5,1,47,132,42.1,12,38,221,37.4,24,24,315,35.8,31,75,320,41.0*6F
$GAGSV,2,2,5,33,86,065,31.9*75
$GPRMC,182356.75,A,3719.153378,N,00556.164811,W,022.1,325.3,210221,,,A*4B
$GPGGA,182357.74,3719.155588,N,00556.173818,W,1,06,1.28,117.30,M,0.0,M,0.0,0000*6A
$GAGSV,2,1,6,1,47,132,42.2,12,38,221,35.3,24,24,315,37.4,26,34,044,29.4*6C
$GAGSV,2,2,6,31,75,320,40.5,33,86,065,29.1*59
$GPRMC,182357.74,A,3719.155588,N,00556.173818,W,022.4,324.1,210221,,,A*4D
$GPGGA,182358.75,3719.160122,N,00556.177913,W,1,06,1.28,102.78,M,0.0,M,0.0,0000*60
$GAGSV,2,1,6,1,47,132,42.0,12,38,221,32.1,24,24,315,38.7,26,34,044,32.2*6B
$GAGSV,2,2,6,31,75,320,41.9,33,86,065,29.4*51
$GPRMC,182358.75,A,3719.160122,N,00556.177913,W,022.8,322.2,210221,,,A*46
$GPGGA,182359.74,3719.167216,N,00556.182725,W,1,04,1.85,112.13,M,0.0,M,0.0,0000*6B
$GAGSV,1,1,4,1,47,132,40.6,24,24,315,34.8,26,34,044,39.1,31,75,320,40.9*60
$GPRMC,182359.74,A,3719.167216,N,00556.182725,W,022.9,321.1,210221,,,A*45
$GPGGA,182400.76,3719.170924,N,00556.182975,W,1,05,1.29,122.71,M,0.0,M,0.0,0000*65
$GAGSV,2,1,5,1,47,132,39.1,12,38,221,33.0,24,24,315,30.4,26,34,044,42.1*6A
$GAGSV,2,2,5,31,75,320,41.9*7E
$GPRMC,182400.76,A,3719.170924,N,00556.182975,W,023.1,319.7,210221,,,A*4F
$GPGGA,182401.75,3719.179577,N,00556.193132,W,1,04,1.75,118.74,M,0.0,M,0.0,0000*6B
$GAGSV,1,1,4,1,47,132,37.4,12,38,221,33.5,26,34,044,40.2,31,75,320,41.1*62
$GPRMC,182401.75,A,3719.179577,N,00556.193132,W,021.8,318.9,210221,,,A*41
$GPGGA,182402.74,3719.183259,N,00556.199683,W,1,05,1.29,103.29,M,0.0,M,0.0,0000*6A
$GAGSV,2,1,5,1,47,132,37.6,12,38,221,34.9,24,24,315,29.3,26,34,044,41.1*61
$GAGSV,2,2,5,31,75,320,41.0*77
$GPRMC,182402.74,A,3719.183259,N,00556.199683,W,023.1,317.3,210221,,,A*44
$GPGGA,182403.76,3719.186357,N,00556.202259,W,1,06,1.28,113.36,M,0.0,M,0.0,0000*6C
$GAGSV,2,1,6,1,47,132,38.0,12,38,221,28.4,24,24,315,34.5,26,34,044,36.7*67
$GAGSV,2,2,6,31,75,320,39.1,33,86,065,28.3*50
$GPRMC,182403.76,A,3719.186357,N,00556.202259,W,024.3,316.2,210221,,,A*4A
$GPGGA,182404.75,3719.190856,N,00556.208704,W,1,05,1.29,101.20,M,0.0,M,0.0,0000*64
$GAGSV,2,1,5,1,47,132,39.8,12,38,221,28.7,24,24,315,34.2,26,34,044,37.2*6D
$GAGSV,2,2,5,31,75,320,38.3*7A
$GPRMC,182404.75,A,3719.190856,N,00556.208704,W,023.5,312.6,210221,,,A*45
$GPGGA,182405.76,3719.197648,N,00556.210974,W,1,04,1.85,127.58,M,0.0,M,0.0,0000*6C
$GAGSV,1,1,4,1,47,132,40.1,24,24,315,28.3,26,34,044,34.9,31,75,320,36.8*64
$GPRMC,182405.76,A,3719.197648,N,00556.210974,W,023.4,310.5,210221,,,A*41
$GPGGA,182406.75,3719.203863,N,00556.214996,W,1,04,1.75,107.39,M,0.0,M,0.0,0000*67
$GAGSV,1,1,4,1,47,132,41.1,12,38,221,32.8,26,34,044,37.2,31,75,320,40.3*69
$GPRMC,182406.75,A,3719.203863,N,00556.214996,W,024.1,310.7,210221,,,A*40
$GPGGA,182407.75,3719.207642,N,00556.225769,W,1,04,1.75,116.38,M,0.0,M,0.0,0000*62
$GAGSV,1,1,4,1,47,132,41.3,12,38,221,29.8,26,34,044,36.2,31,75,320,38.6*6A
$GPRMC,182407.75,A,3719.207642,N,00556.225769,W,023.8,307.9,210221,,,A*42
$GPGGA,182408.76,,,,,1,03, Inf,,M,0.0,M,0.0,0000*2D
$GPRMC,182408.76,A,,,,,,,210221,,,A*61
$GPGGA,182409.75,3719.213283,N,00556.241681,W,1,04,1.75,95.18,M,0.0,M,0.0,0000*5D
$GAGSV,1,1,4,1,47,132,40.3,12,38,221,31.0,26,34,044,34.9,31,75,320,36.8*63
$GPRMC,182409.75,A,3719.213283,N,00556.241681,W,025.0,305.7,210221,,,A*47
$GPGGA,182410.76,3719.218463,N,00556.246646,W,1,05,1.74,109.70,M,0.0,M,0.0,0000*63
$GAGSV,2,1,5,1,47,132,40.1,12,38,221,34.3,26,34,044,34.3,31,75,320,35.6*62
$GAGSV,2,2,5,33,86,064,28.6*73
$GPRMC,182410.76,A,3719.218463,N,00556.246646,W,025.0,303.9,210221,,,A*4B
$GPGGA,182411.76,3719.220831,N,00556.253524,W,1,05,1.29,110.20,M,0.0,M,0.0,0000*64
$GAGSV,2,1,5,1,47,132,39.5,12,38,221,35.3,24,24,315,30.6,26,34,044,35.5*6D
$GAGSV,2,2,5,31,75,320,34.9*7C
$GPRMC,182411.76,A,3719.220831,N,00556.253524,W,026.1,301.4,210221,,,A*44
$GPGGA,182412.77,3719.222293,N,00556.263644,W,1,05,1.29,104.26,M,0.0,M,0.0,0000*63
$GAGSV,2,1,5,1,47,132,40.3,12,38,221,31.4,24,24,315,34.2,26,34,044,36.5*65
$GAGSV,2,2,5,31,75,320,35.0*74
$GPRMC,182412.77,A,3719.222293,N,00556.263644,W,026.2,302.1,210221,,,A*45
$GPGGA,182413.76,3719.228136,N,00556.271845,W,1,05,1.29,109.28,M,0.0,M,0.0,0000*6A
$GAGSV,2,1,5,1,47,132,39.9,12,38,221,32.9,24,24,315,37.1,26,34,044,33.2*6D
$GAGSV,2,2,5,31,75,320,36.5*72
$GPRMC,182413.76,A,3719.228136,N,00556.271845,W,027.1,297.0,210221,,,A*41
$GPGGA,182414.75,3719.229599,N,00556.277021,W,1,05,1.29,108.44,M,0.0,M,0.0,0000*69
$GAGSV,2,1,5,1,47,132,37.6,12,38,221,35.0,24,24,315,37.0,26,34,044,33.2*63
$GAGSV,2,2,5,31,75,320,35.2*76
$GPRMC,182414.75,A,3719.229599,N,00556.277021,W,026.9,298.0,210221,,,A*4F
$GPGGA,182415.77,3719.233314,N,00556.287140,W,1,05,1.29,97.99,M,0.0,M,0.0,0000*5C
$GAGSV,2,1,5,1,47,132,36.4,12,38,221,35.8,24,24,315,39.4,26,34,044,34.4*63
$GAGSV,2,2,5,31,75,320,36.0*77
$GPRMC,182415.77,A,3719.233314,N,00556.287140,W,027.7,295.0,210221,,,A*4F
$GPGGA,182416.76,3719.236571,N,00556.293315,W,1,05,1.29,103.80,M,0.0,M,0.0,0000*6D
$GAGSV,2,1,5,1,47,132,33.4,12,38,221,34.1,24,24,315,39.8,26,34,044,37.5*60
$GAGSV,2,2,5,31,75,320,36.4*73
$GPRMC,182416.76,A,3719.236571,N,00556.293315,W,027.9,293.2,210221,,,A*40
$GPGGA,182417.75,3719.247378,N,00556.304174,W,1,04,1.85,124.54,M,0.0,M,0.0,0000*67
$GAGSV,1,1,4,1,47,132,32.5,24,24,315,39.8,26,34,044,38.9,31,75,320,38.3*67
$GPRMC,182417.75,A,3719.247378,N,00556.304174,W,028.6,290.9,210221,,,A*49
$GPGGA,182418.76,3719.249889,N,00556.314887,W,1,04,1.85,127.60,M,0.0,M,0.0,0000*60
$GAGSV,1,1,4,1,47,132,33.3,24,24,315,36.2,26,34,044,38.6,31,75,320,37.8*6E
$GPRMC,182418.76,A,3719.249889,N,00556.314887,W,028.7,288.1,210221,,,A*4A
$GPGGA,182419.76,3719.244951,N,00556.324111,W,1,04,1.85,99.55,M,0.0,M,0.0,0000*5F
$GAGSV,1,1,4,1,47,132,35.0,24,24,315,34.3,26,34,044,38.6,31,75,320,38.0*6F
$GPRMC,182419.76,A,3719.244951,N,00556.324111,W,028.6,287.4,210221,,,A*4C
$GPGGA,182420.77,3719.246152,N,00556.335992,W,1,05,1.84,100.31,M,0.0,M,0.0,0000*6D
$GAGSV,2,1,5,1,47,132,32.5,24,24,315,33.6,26,34,044,39.6,31,75,320,37.6*65
$GAGSV,2,2,5,33,86,063,29.4*77
$GPRMC,182420.77,A,3719.246152,N,00556.335992,W,029.2,286.7,210221,,,A*4A
$GPGGA,182421.76,3719.250995,N,00556.342039,W,1,04,1.85,118.44,M,0.0,M,0.0,0000*6A
$GAGSV,1,1,4,1,47,132,33.2,24,24,315,35.7,26,34,044,40.1,31,76,320,38.5*60
$GPRMC,182421.76,A,3719.250995,N,00556.342039,W,029.2,286.6,210221,,,A*47
$GPGGA,182422.75,3719.251565,N,00556.354365,W,1,04,1.85,107.44,M,0.0,M,0.0,0000*6B
$GAGSV,1,1,4,1,47,132,34.5,24,24,315,36.4,26,34,044,39.6,31,76,320,38.6*6A
$GPRMC,182422.75,A,3719.251565,N,00556.354365,W,029.0,286.7,210221,,,A*4B
$GPGGA,182423.77,3719.250221,N,00556.363935,W,1,04,1.85,110.35,M,0.0,M,0.0,0000*65
$GAGSV,1,1,4,1,47,132,33.5,24,24,315,36.5,26,34,044,38.6,31,76,320,38.8*63
$GPRMC,182423.77,A,3719.250221,N,00556.363935,W,028.9,286.6,210221,,,A*4C
$GPGGA,182424.76,3719.257857,N,00556.375773,W,1,05,1.84,112.99,M,0.0,M,0.0,0000*60
$GAGSV,2,1,5,1,47,132,33.6,24,24,315,34.3,26,34,044,32.7,31,76,320,39.3*67
$GAGSV,2,2,5,33,86,063,29.7*74
$GPRMC,182424.76,A,3719.257857,N,00556.375773,W,027.8,287.4,210221,,,A*40
$GPGGA,182425.77,3719.251727,N,00556.385841,W,1,04,1.85,116.87,M,0.0,M,0.0,0000*64
$GAGSV,1,1,4,1,47,132,31.0,24,24,315,31.7,26,34,044,32.9,31,76,320,35.7*66
$GPRMC,182425.77,A,3719.251727,N,00556.385841,W,028.3,290.9,210221,,,A*40
$GPGGA,182426.76,3719.261429,N,00556.390819,W,1,04,1.85,121.34,M,0.0,M,0.0,0000*6D
$GAGSV,1,1,4,1,47,132,31.2,24,24,315,33.9,26,34,044,29.2,31,76,320,35.8*66
$GPRMC,182426.76,A,3719.261429,N,00556.390819,W,025.7,295.3,210221,,,A*43
$GPGGA,182427.76,,,,,1,03, Inf,,M,0.0,M,0.0,0000*20
$GPRMC,182427.76,A,,,,,,,210221,,,A*6C
$GPGGA,182428.77,3719.260366,N,00556.407396,W,1,05,1.29,115.56,M,0.0,M,0.0,0000*6E
$GAGSV,2,1,5,1,47,132,32.6,12,38,221,30.4,24,24,315,32.1,26,34,044,32.8*68
$GAGSV,2,2,5,31,76,320,37.5*70
$GPRMC,182428.77,A,3719.260366,N,00556.407396,W,025.7,285.9,210221,,,A*4F
$GPGGA,182429.76,3719.267213,N,00556.415293,W,1,06,1.28,127.80,M,0.0,M,0.0,0000*65
$GAGSV,2,1,6,1,47,132,34.0,12,38,221,29.4,24,24,315,35.3,26,34,044,35.2*6B
$GAGSV,2,2,6,31,76,320,36.6,33,86,063,28.7*59
$GPRMC,182429.76,A,3719.267213,N,00556.415293,W,024.9,286.4,210221,,,A*4D
$GPGGA,182430.77,3719.266360,N,00556.423749,W,1,04,1.85,115.92,M,0.0,M,0.0,0000*68
$GAGSV,1,1,4,1,47,132,32.7,24,24,315,32.4,26,34,044,32.7,31,76,320,36.7*6F
$GPRMC,182430.77,A,3719.266360,N,00556.423749,W,024.7,286.5,210221,,,A*48
$GPGGA,182431.77,3719.277211,N,00556.431661,W,1,05,1.80,124.10,M,0.0,M,0.0,0000*6A
$GAGSV,2,1,5,1,47,132,30.5,12,38,221,29.5,24,24,315,35.2,31,76,320,39.3*65
$GAGSV,2,2,5,33,86,063,29.8*7B
$GPRMC,182431.77,A,3719.277211,N,00556.431661,W,023.0,286.1,210221,,,A*42
$GPGGA,182432.78,3719.272557,N,00556.439619,W,1,04,1.85,134.78,M,0.0,M,0.0,0000*6A
$GAGSV,1,1,4,1,47,132,30.1,24,24,315,34.3,26,34,044,30.1,31,76,320,36.5*6C
$GPRMC,182432.78,A,3719.272557,N,00556.439619,W,021.0,284.5,210221,,,A*4D
$GPGGA,182433.77,,,,,1,03, Inf,,M,0.0,M,0.0,0000*24
$GPRMC,182433.77,A,,,,,,,210221,,,A*68
$GPGGA,182434.76,3719.311043,N,00556.464011,W,1,04,9.76,194.03,M,0.0,M,0.0,0000*62
$GAGSV,1,1,4,24,24,315,34.1,26,34,044,28.7,31,76,320,42.1,33,86,062,30.6*59
$GPRMC,182434.76,A,3719.311043,N,00556.464011,W,019.2,292.2,210221,,,A*4E
$GPGGA,182435.77,3719.273989,N,00556.461927,W,1,05,1.80,109.54,M,0.0,M,0.0,0000*67
$GAGSV,2,1,5,1,47,132,34.2,12,38,221,28.6,24,24,315,38.0,31,76,320,39.3*6B
$GAGSV,2,2,5,33,86,062,31.5*7E
$GPRMC,182435.77,A,3719.273989,N,00556.461927,W,017.5,304.4,210221,,,A*4C
$GPGGA,182436.77,3719.275427,N,00556.470920,W,1,05,1.80,118.33,M,0.0,M,0.0,0000*6D
$GAGSV,2,1,5,1,47,132,36.8,12,38,221,29.8,24,24,315,38.5,31,76,320,40.3*67
$GAGSV,2,2,5,33,86,062,32.7*7F
$GPRMC,182436.77,A,3719.275427,N,00556.470920,W,018.1,302.3,210221,,,A*4D
$GPGGA,182437.76,,,,,1,04, Inf,,M,0.0,M,0.0,0000*26
$GPRMC,182437.76,A,,,,,,,210221,,,A*6D
$GPGGA,182438.75,3719.289100,N,00556.473383,W,1,05,1.29,131.35,M,0.0,M,0.0,0000*6C
$GAGSV,2,1,5,1,46,132,38.9,12,38,221,30.1,24,24,315,40.8,26,34,044,32.1*6C
$GAGSV,2,2,5,31,76,320,36.7*73
$GPRMC,182438.75,A,3719.289100,N,00556.473383,W,019.6,299.8,210221,,,A*4C
$GPGGA,182439.77,3719.293375,N,00556.480348,W,1,04,1.85,135.31,M,0.0,M,0.0,0000*68
$GAGSV,1,1,4,1,46,132,39.0,24,24,315,40.1,26,34,044,35.2,31,76,320,37.7*61
$GPRMC,182439.77,A,3719.293375,N,00556.480348,W,020.3,293.3,210221,,,A*41
$GPGGA,182440.75,3719.305068,N,00556.493503,W,1,04,1.84,147.78,M,0.0,M,0.0,0000*67
$GAGSV,1,1,4,1,46,132,31.1,24,24,315,37.3,26,34,044,29.6,31,76,320,37.4*60
$GPRMC,182440.75,A,3719.305068,N,00556.493503,W,020.0,286.1,210221,,,A*42
$GPGGA,182441.75,3719.294549,N,00556.500986,W,1,04,1.68,114.53,M,0.0,M,0.0,0000*6E
$GAGSV,1,1,4,12,38,221,30.7,24,24,315,37.3,26,34,044,37.1,31,76,320,40.5*54
$GPRMC,182441.75,A,3719.294549,N,00556.500986,W,019.2,279.1,210221,,,A*4E
$GPGGA,182442.76,3719.292640,N,00556.504125,W,1,05,1.29,116.34,M,0.0,M,0.0,0000*60
$GAGSV,2,1,5,1,46,132,35.1,12,38,221,35.7,24,24,315,34.4,26,34,044,37.2*63
$GAGSV,2,2,5,31,76,320,41.0*74
$GPRMC,182442.76,A,3719.292640,N,00556.504125,W,020.0,273.0,210221,,,A*44
$GPGGA,182443.76,3719.289614,N,00556.508141,W,1,05,1.29,102.52,M,0.0,M,0.0,0000*61
$GAGSV,2,1,5,1,46,132,29.7,12,38,221,36.8,24,24,315,30.9,26,34,044,36.9*67
$GAGSV,2,2,5,31,76,320,37.9*7C
$GPRMC,182443.76,A,3719.289614,N,00556.508141,W,021.6,268.5,210221,,,A*48
$GPGGA,182444.76,,,,,1,04, Inf,,M,0.0,M,0.0,0000*22
$GPRMC,182444.76,A,,,,,,,210221,,,A*69
$GPGGA,182445.78,3719.287434,N,00556.520990,W,1,05,1.29,78.38,M,0.0,M,0.0,0000*59
$GAGSV,2,1,5,1,46,132,36.6,12,38,221,36.7,24,24,315,35.4,26,34,044,40.4*63
$GAGSV,2,2,5,31,76,320,31.2*71
$GPRMC,182445.78,A,3719.287434,N,00556.520990,W,021.0,245.6,210221,,,A*4A
$GPGGA,182446.77,3719.273739,N,00556.519205,W,1,04,1.68,86.12,M,0.0,M,0.0,0000*50
$GAGSV,1,1,4,12,38,221,30.3,24,24,315,32.6,26,34,044,33.1,31,76,320,29.2*5C
$GPRMC,182446.77,A,3719.273739,N,00556.519205,W,021.2,223.5,210221,,,A*4F
$GPGGA,182447.78,3719.281793,N,00556.539160,W,1,05,1.29,125.84,M,0.0,M,0.0,0000*62
$GAGSV,2,1,5,1,46,132,32.6,12,38,221,35.1,24,24,315,34.6,26,34,044,36.8*6C
$GAGSV,2,2,5,31,76,320,36.8*7C
$GPRMC,182447.78,A,3719.281793,N,00556.539160,W,020.6,211.4,210221,,,A*4B
$GPGGA,182448.76,3719.279113,N,00556.540543,W,1,05,1.29,135.41,M,0.0,M,0.0,0000*69
$GAGSV,2,1,5,1,46,132,39.1,12,38,221,36.7,24,24,315,41.1,26,34,044,36.3*6B
$GAGSV,2,2,5,31,76,320,38.5*7F
$GPRMC,182448.76,A,3719.279113,N,00556.540543,W,021.1,199.8,210221,,,A*41
$GPGGA,182449.77,3719.269671,N,00556.541775,W,1,05,1.29,137.24,M,0.0,M,0.0,0000*6C
$GAGSV,2,1,5,1,46,132,40.6,12,38,221,33.2,24,24,315,37.5,26,34,044,28.5*6E
$GAGSV,2,2,5,31,76,320,34.9*7F
$GPRMC,182449.77,A,3719.269671,N,00556.541775,W,021.2,184.5,210221,,,A*47
$GPGGA,182450.78,,,,,1,04, Inf,,M,0.0,M,0.0,0000*29
$GPRMC,182450.78,A,,,,,,,210221,,,A*62
$GPGGA,182451.77,3719.261308,N,00556.535908,W,1,04,1.82,116.74,M,0.0,M,0.0,0000*67
$GAGSV,1,1,4,1,46,132,43.0,12,38,221,34.8,24,24,315,37.5,31,76,320,34.0*6D
$GPRMC,182451.77,A,3719.261308,N,00556.535908,W,021.6,154.7,210221,,,A*41
$GPGGA,182452.78,3719.249895,N,00556.539058,W,1,04,1.84,94.04,M,0.0,M,0.0,0000*54
$GAGSV,1,1,4,1,46,132,42.5,24,24,315,30.8,26,34,044,35.5,31,76,320,37.6*60
$GPRMC,182452.78,A,3719.249895,N,00556.539058,W,022.9,143.5,210221,,,A*40
$GPGGA,182453.78,3719.249235,N,00556.522789,W,1,05,1.74,114.19,M,0.0,M,0.0,0000*6F
$GAGSV,2,1,5,1,46,132,42.3,12,38,221,35.1,26,34,044,39.0,31,76,320,33.4*69
$GAGSV,2,2,5,33,86,061,31.0*78
$GPRMC,182453.78,A,3719.249235,N,00556.522789,W,022.3,130.5,210221,,,A*4E
$GPGGA,182454.77,3719.243472,N,00556.511218,W,1,05,1.37,49.60,M,0.0,M,0.0,0000*55
$GAGSV,2,1,5,1,46,132,36.1,12,38,221,32.3,24,24,315,35.6,26,34,044,28.5*69
$GAGSV,2,2,5,33,86,061,30.2*7B
$GPRMC,182454.77,A,3719.243472,N,00556.511218,W,023.7,122.5,210221,,,A*42
$GPGGA,182455.78,3719.245054,N,00556.511235,W,1,05,1.29,119.57,M,0.0,M,0.0,0000*6D
$GAGSV,2,1,5,1,46,132,36.8,12,38,221,28.9,24,24,315,29.8,26,34,044,34.1*6B
$GAGSV,2,2,5,31,76,320,34.3*75
$GPRMC,182455.78,A,3719.245054,N,00556.511235,W,023.3,125.0,210221,,,A*43
$GPGGA,182456.78,3719.239365,N,00556.507275,W,1,06,1.28,110.12,M,0.0,M,0.0,0000*6D
$GAGSV,2,1,6,1,46,132,46.4,12,38,221,36.5,24,24,315,28.9,26,34,044,34.4*65
$GAGSV,2,2,6,31,76,320,38.0,33,86,061,31.5*59
$GPRMC,182456.78,A,3719.239365,N,00556.507275,W,022.7,138.4,210221,,,A*44
$GPGGA,182457.77,3719.231097,N,00556.504456,W,1,04,1.94,98.78,M,0.0,M,0.0,0000*59
$GAGSV,1,1,4,1,46,132,42.2,12,38,221,29.1,26,34,044,34.8,33,86,061,31.4*6B
$GPRMC,182457.77,A,3719.231097,N,00556.504456,W,023.7,155.5,210221,,,A*43
$GPGGA,182458.78,,,,,1,04, Inf,,M,0.0,M,0.0,0000*21
$GPRMC,182458.78,A,,,,,,,210221,,,A*6A
$GPGGA,182459.77,3719.220618,N,00556.490801,W,1,04,1.82,85.96,M,0.0,M,0.0,0000*5F
$GAGSV,1,1,4,1,46,132,37.3,12,38,221,35.9,24,24,315,35.7,31,76,320,28.6*66
$GPRMC,182459.77,A,3719.220618,N,00556.490801,W,026.0,164.7,210221,,,A*4C
$GPGGA,182500.79,3719.213982,N,00556.492133,W,1,04,1.82,99.63,M,0.0,M,0.0,0000*5D
$GAGSV,1,1,4,1,46,132,39.5,12,38,221,33.7,24,24,315,37.5,31,76,320,33.5*6F
$GPRMC,182500.79,A,3719.213982,N,00556.492133,W,027.6,165.4,210221,,,A*4C
$GPGGA,182501.78,3719.204855,N,00556.493646,W,1,05,1.29,129.50,M,0.0,M,0.0,0000*6E
$GAGSV,2,1,5,1,46,132,37.3,12,38,221,33.0,24,24,315,35.5,26,34,044,30.7*60
$GAGSV,2,2,5,31,76,320,33.0*71
$GPRMC,182501.78,A,3719.204855,N,00556.493646,W,028.6,169.9,210221,,,A*4B
$GPGGA,182502.78,3719.194634,N,00556.490079,W,1,06,1.28,107.29,M,0.0,M,0.0,0000*67
$GAGSV,2,1,6,1,46,132,39.3,12,38,221,33.2,24,24,315,34.2,26,34,044,33.9*64
$GAGSV,2,2,6,31,76,320,34.8,33,86,060,30.5*5D
$GPRMC,182502.78,A,3719.194634,N,00556.490079,W,030.0,166.6,210221,,,A*4D
$GPGGA,182503.77,3719.182267,N,00556.494823,W,1,04,1.84,95.64,M,0.0,M,0.0,0000*58
$GAGSV,1,1,4,1,46,132,38.4,24,24,315,33.6,26,34,044,34.4,31,76,320,36.2*64
$GPRMC,182503.77,A,3719.182267,N,00556.494823,W,030.3,167.7,210221,,,A*46
$GPGGA,182504.78,3719.177341,N,00556.492484,W,1,05,1.83,95.09,M,0.0,M,0.0,0000*55
$GAGSV,2,1,5,1,46,132,38.6,24,24,315,32.6,26,34,044,35.7,31,76,320,33.5*65
$GAGSV,2,2,5,33,86,060,28.4*75
$GPRMC,182504.78,A,3719.177341,N,00556.492484,W,029.5,166.8,210221,,,A*46
$GPGGA,182505.77,3719.170687,N,00556.486262,W,1,04,1.84,107.14,M,0.0,M,0.0,0000*68
$GAGSV,1,1,4,1,46,132,39.5,24,24,315,33.4,26,33,044,39.3,31,76,320,34.8*63
$GPRMC,182505.77,A,3719.170687,N,00556.486262,W,033.4,168.6,210221,,,A*41
$GPGGA,182506.78,3719.159529,N,00556.486899,W,1,05,1.83,88.90,M,0.0,M,0.0,0000*5A
$GAGSV,2,1,5,1,46,132,38.2,24,24,315,34.1,26,33,044,38.8,31,76,320,38.0*6B
$GAGSV,2,2,5,33,86,060,32.0*7A
$GPRMC,182506.78,A,3719.159529,N,00556.486899,W,031.4,166.7,210221,,,A*42
$GPGGA,182507.78,3719.152220,N,00556.479326,W,1,06,1.28,94.87,M,0.0,M,0.0,0000*58
$GAGSV,2,1,6,1,46,132,39.3,12,38,221,31.1,24,24,315,33.9,26,33,044,38.0*6C
$GAGSV,2,2,6,31,76,320,38.2,33,86,060,28.3*54
$GPRMC,182507.78,A,3719.152220,N,00556.479326,W,032.8,169.5,210221,,,A*4B
$GPGGA,182508.77,3719.146528,N,00556.476207,W,1,05,1.29,111.52,M,0.0,M,0.0,0000*69
$GAGSV,2,1,5,1,46,132,41.5,12,38,221,33.0,24,24,315,35.5,26,33,044,37.8*68
$GAGSV,2,2,5,31,76,320,39.3*78
$GPRMC,182508.77,A,3719.146528,N,00556.476207,W,032.8,170.4,210221,,,A*45
$GPGGA,182509.78,3719.139360,N,00556.470323,W,1,06,1.28,101.90,M,0.0,M,0.0,0000*69
$GAGSV,2,1,6,1,46,133,39.2,12,38,221,34.6,24,24,315,38.0,26,33,044,33.4*63
$GAGSV,2,2,6,31,76,320,40.2,33,86,060,29.9*50
$GPRMC,182509.78,A,3719.139360,N,00556.470323,W,032.6,170.7,210221,,,A*45
$GPGGA,182510.78,3719.127851,N,00556.472037,W,1,06,1.28,95.04,M,0.0,M,0.0,0000*52
$GAGSV,2,1,6,1,46,133,41.7,12,38,221,35.1,24,24,315,36.7,26,33,044,35.7*63
$GAGSV,2,2,6,31,76,320,40.7,33,86,060,30.9*5D
$GPRMC,182510.78,A,3719.127851,N,00556.472037,W,033.3,171.8,210221,,,A*45
$GPGGA,182511.77,3719.120445,N,00556.469806,W,1,06,1.28,100.78,M,0.0,M,0.0,0000*64
$GAGSV,2,1,6,1,46,133,42.1,12,38,221,33.6,24,24,315,37.7,26,33,044,32.3*65
$GAGSV,2,2,6,31,76,320,40.7,33,86,060,29.1*5D
$GPRMC,182511.77,A,3719.120445,N,00556.469806,W,032.7,172.5,210221,,,A*4E
$GPGGA,182512.78,3719.111738,N,00556.465543,W,1,06,1.28,94.73,M,0.0,M,0.0,0000*54
$GAGSV,2,1,6,1,46,133,42.3,12,38,221,34.0,24,24,315,38.7,26,33,044,32.4*6E
$GAGSV,2,2,6,31,76,320,41.2,33,86,060,30.5*55
$GPRMC,182512.78,A,3719.111738,N,00556.465543,W,033.6,172.7,210221,,,A*4B
$GPGGA,182513.77,3719.103433,N,00556.464622,W,1,06,1.28,91.45,M,0.0,M,0.0,0000*54
$GAGSV,2,1,6,1,46,133,42.9,12,38,221,34.2,24,24,315,37.3,26,33,044,33.2*6A
$GAGSV,2,2,6,31,76,320,40.7,33,86,060,30.4*50
$GPRMC,182513.77,A,3719.103433,N,00556.464622,W,034.1,173.5,210221,,,A*48
$GPGGA,182514.78,3719.092561,N,00556.467267,W,1,05,1.29,108.59,M,0.0,M,0.0,0000*6B
