# 
# Header Description:
# 
# Version: v2.0.0.1 Platform: 10 Manufacturer: Xiaomi Model: M2010J19CG
# 
# Raw,ElapsedRealtimeMillis,TimeNanos,LeapSecond,TimeUncertaintyNanos,FullBiasNanos,BiasNanos,BiasUncertaintyNanos,DriftNanosPerSecond,DriftUncertaintyNanosPerSecond,HardwareClockDiscontinuityCount,Svid,TimeOffsetNanos,State,ReceivedSvTimeNanos,ReceivedSvTimeUncertaintyNanos,Cn0DbHz,PseudorangeRateMetersPerSecond,PseudorangeRateUncertaintyMetersPerSecond,AccumulatedDeltaRangeState,AccumulatedDeltaRangeMeters,AccumulatedDeltaRangeUncertaintyMeters,CarrierFrequencyHz,CarrierCycles,CarrierPhase,CarrierPhaseUncertainty,MultipathIndicator,SnrInDb,ConstellationType,AgcDb,CarrierFrequencyHz
# 
# Fix,Provider,Latitude,Longitude,Altitude,Speed,Accuracy,(UTC)TimeInMs
# 
# Nav,Svid,Type,Status,MessageId,Sub-messageId,Data(Bytes)
# 
Raw,180828934,4220501842000000,18,,-1293746378821831658,0.545628547668457,1000.5681542679667,14.612891227129449,3.9421392357357457,2969,16,0.0,16399,66080593581109,7,40.7,-337.8851013183594,0.04700000211596489,16,-0.0,1902.9177342976868,1.57542003E9,,,,0,,1,0.0,1.57542003E9
Raw,180828935,4220501842000000,18,,-1293746378821831658,0.545628547668457,1000.5681542679667,14.612891227129449,3.9421392357357457,2969,18,0.0,16399,66080594373996,12,35.7,255.93020629882812,0.06949999928474426,16,-0.0,1902.9177342976868,1.57542003E9,,,,0,,1,0.0,1.57542003E9
Raw,180828935,4220501842000000,18,,-1293746378821831658,0.545628547668457,1000.5681542679667,14.612891227129449,3.9421392357357457,2969,26,0.0,16399,66080596251333,8,39.6,-31.175500869750977,0.054499998688697815,16,-0.0,1902.9177342976868,1.57542003E9,,,,0,,1,0.0,1.57542003E9
Raw,180828935,4220501842000000,18,,-1293746378821831658,0.545628547668457,1000.5681542679667,14.612891227129449,3.9421392357357457,2969,27,0.0,16399,66080589878355,10,38.4,-390.7029724121094,0.05209999904036522,16,-0.0,1902.9177342976868,1.57542003E9,,,,0,,1,0.0,1.57542003E9
Raw,180828935,4220501842000000,18,,-1293746378821831658,0.545628547668457,1000.5681542679667,14.612891227129449,3.9421392357357457,2969,29,0.0,16399,66080583233333,6,42.2,533.4033813476562,0.05939999967813492,16,-0.0,1902.9177342976868,1.57542003E9,,,,0,,1,0.0,1.57542003E9
Raw,180828936,4220501842000000,18,,-1293746378821831658,0.545628547668457,1000.5681542679667,14.612891227129449,3.9421392357357457,2969,31,0.0,16399,66080587902534,10,37.8,606.123291015625,0.04909999668598175,16,-0.0,1902.9177342976868,1.57542003E9,,,,0,,1,0.0,1.57542003E9
Raw,180828936,4220501842000000,18,,-1293746378821831658,0.545628547668457,1000.5681542679667,14.612891227129449,3.9421392357357457,2969,22,0.0,49359,76862586110163,27,28.5,-642.5077514648438,0.8105000257492065,16,0.0,0.0,1.60031245E9,,,,0,,3,0.0,1.60031245E9
Raw,180828936,4220501842000000,18,,-1293746378821831658,0.545628547668457,1000.5681542679667,14.612891227129449,3.9421392357357457,2969,12,0.0,49359,76862581652313,24,29.6,-787.2080078125,1.3920000791549683,16,-0.0,1872.002391714177,1.60143744E9,,,,0,,3,0.0,1.60143744E9
Raw,180828937,4220501842000000,18,,-1293746378821831658,0.545628547668457,1000.5681542679667,14.612891227129449,3.9421392357357457,2969,21,0.0,49359,76862597391056,9,39.9,-219.15635681152344,0.25999999046325684,16,-0.0,1868.720428711333,1.60424998E9,,,,0,,3,0.0,1.60424998E9
Raw,180828937,4220501842000000,18,,-1293746378821831658,0.545628547668457,1000.5681542679667,14.612891227129449,3.9421392357357457,2969,1,0.0,23567,66080580807513,21,30.6,345.919921875,0.2806999981403351,16,-0.0,1902.9177342976868,1.57542003E9,,,,0,,6,0.0,1.57542003E9
Raw,180828937,4220501842000000,18,,-1293746378821831658,0.545628547668457,1000.5681542679667,14.612891227129449,3.9421392357357457,2969,12,0.0,23567,66080584767220,9,39.8,-435.29736328125,0.06450000405311584,16,-0.0,1902.9177342976868,1.57542003E9,,,,0,,6,0.0,1.57542003E9
Raw,180828937,4220501842000000,18,,-1293746378821831658,0.545628547668457,1000.5681542679667,14.612891227129449,3.9421392357357457,2969,24,0.0,23567,66080574626990,12,37.2,-479.071044921875,0.08150000125169754,16,-0.0,1902.9177342976868,1.57542003E9,,,,0,,6,0.0,1.57542003E9
Raw,180828938,4220501842000000,18,,-1293746378821831658,0.545628547668457,1000.5681542679667,14.612891227129449,3.9421392357357457,2969,26,0.0,23567,66080580840743,16,33.5,441.8080139160156,0.10439999401569366,16,-0.0,1902.9177342976868,1.57542003E9,,,,0,,6,0.0,1.57542003E9
Raw,180828938,4220501842000000,18,,-1293746378821831658,0.545628547668457,1000.5681542679667,14.612891227129449,3.9421392357357457,2969,33,0.0,23567,66080585846589,17,33.2,20.09792709350586,0.12889999151229858,16,-0.0,1902.9177342976868,1.57542003E9,,,,0,,6,0.0,1.57542003E9
NMEA,$GPGSV,3,1,12,10,10,149,25,16,53,320,41,18,58,060,36,23,21,120,24,1*6B
,1613931663802
NMEA,$GPGSV,3,2,12,25,02,122,23,26,82,011,40,27,34,274,38,29,15,061,42,1*6F
,1613931663802
NMEA,$GPGSV,3,3,12,31,33,191,38,04,00,000,,08,00,000,,20,28,119,,1*6A
,1613931663802
NMEA,$GLGSV,2,1,07,74,67,158,22,86,11,232,29,73,16,150,24,76,00,000,30,1*77
,1613931663802
NMEA,$GLGSV,2,2,07,84,47,022,16,85,58,258,40,68,01,046,,1*41
,1613931663802
NMEA,$GAGSV,2,1,06,01,47,130,31,12,36,219,40,24,22,313,37,26,34,043,34,7*7C
,1613931663802
NMEA,$GAGSV,2,2,06,31,73,320,26,33,86,084,33,7*74
,1613931663802
NMEA,$GNGSA,A,3,10,16,18,20,23,26,27,29,31,,,,0.9,0.6,0.7,1*3D
,1613931663806
NMEA,$GNGSA,A,3,73,74,84,85,86,,,,,,,,0.9,0.6,0.7,2*32
,1613931663806
NMEA,$GNGSA,A,3,01,12,24,26,31,33,,,,,,,0.9,0.6,0.7,3*39
,1613931663806
NMEA,$GNGSA,A,3,11,13,,,,,,,,,,,0.9,0.6,0.7,4*3E
,1613931663806
NMEA,$GNVTG,,T,,M,0.0,N,0.0,K,A*3D
,1613931663806
NMEA,$GNDTM,P90,,0000.000025,S,00000.000001,E,0.985,W84*5C
,1613931663806
NMEA,$GNRMC,182103.00,A,3718.280054,N,00555.529140,W,0.0,,210221,4.0,W,A,V*78
,1613931663806
NMEA,$GNGNS,182103.00,3718.280054,N,00555.529140,W,AAAANN,22,0.6,43.9,51.0,,,V*0D
,1613931663806
NMEA,$GNGGA,182103.00,3718.280054,N,00555.529140,W,1,12,0.6,43.9,M,51.0,M,,*5E
,1613931663806
Fix,gps,37.304668,-5.925486,94.942139,0.000000,3.790092,1613931663000
Raw,180829954,4220502834000000,18,,-1293746378820833082,0.3522462844848633,1001.0248515754938,14.699194879918812,6.866144290813952,2970,8,0.0,16399,66081569897560,19,31.4,-522.2850341796875,0.17720000445842743,16,-0.0,1902.9177342976868,1.57542003E9,,,,0,,1,0.0,1.57542003E9
Raw,180829954,4220502834000000,18,,-1293746378820833082,0.3522462844848633,1001.0248515754938,14.699194879918812,6.866144290813952,2970,10,0.0,16399,66081572472877,31,27.2,-563.4976196289062,0.6694999933242798,16,0.0,0.0,1.57542003E9,,,,0,,1,0.0,1.57542003E9
Raw,180829954,4220502834000000,18,,-1293746378820833082,0.3522462844848633,1001.0248515754938,14.699194879918812,6.866144290813952,2970,16,0.0,16399,66081584583735,10,37.8,-337.853515625,0.044599998742341995,16,-0.0,1902.9177342976868,1.57542003E9,,,,0,,1,0.0,1.57542003E9
Raw,180829955,4220502834000000,18,,-1293746378820833082,0.3522462844848633,1001.0248515754938,14.699194879918812,6.866144290813952,2970,18,0.0,16399,66081585374588,12,36.1,256.1108093261719,0.0559999980032444,16,-0.0,1902.9177342976868,1.57542003E9,,,,0,,1,0.0,1.57542003E9
Raw,180829955,4220502834000000,18,,-1293746378820833082,0.3522462844848633,1001.0248515754938,14.699194879918812,6.866144290813952,2970,20,0.0,16399,66081578383932,14,33.8,-420.7721862792969,0.09049999713897705,16,-0.0,1902.9177342976868,1.57542003E9,,,,0,,1,0.0,1.57542003E9
Raw,180829955,4220502834000000,18,,-1293746378820833082,0.3522462844848633,1001.0248515754938,14.699194879918812,6.866144290813952,2970,23,0.0,16399,66081576502055,19,31.2,-472.068603515625,0.18770000338554382,16,-0.0,1902.9177342976868,1.57542003E9,,,,0,,1,0.0,1.57542003E9
Raw,180829955,4220502834000000,18,,-1293746378820833082,0.3522462844848633,1001.0248515754938,14.699194879918812,6.866144290813952,2970,26,0.0,16399,66081587252936,12,35.6,-30.333480834960938,0.05900000035762787,16,-0.0,1902.9177342976868,1.57542003E9,,,,0,,1,0.0,1.57542003E9
Raw,180829956,4220502834000000,18,,-1293746378820833082,0.3522462844848633,1001.0248515754938,14.699194879918812,6.866144290813952,2970,27,0.0,16399,66081580881090,10,38.0,-389.9931335449219,0.06859999895095825,16,-0.0,1902.9177342976868,1.57542003E9,,,,0,,1,0.0,1.57542003E9
Raw,180829956,4220502834000000,18,,-1293746378820833082,0.3522462844848633,1001.0248515754938,14.699194879918812,6.866144290813952,2970,29,0.0,16399,66081574233065,9,38.6,533.0696411132812,0.05550000071525574,16,-0.0,1902.9177342976868,1.57542003E9,,,,0,,1,0.0,1.57542003E9
Raw,180829957,4220502834000000,18,,-1293746378820833082,0.3522462844848633,1001.0248515754938,14.699194879918812,6.866144290813952,2970,31,0.0,16399,66081578902018,11,36.6,606.6365966796875,0.07020000368356705,16,-0.0,1902.9177342976868,1.57542003E9,,,,0,,1,0.0,1.57542003E9
Raw,180829957,4220502834000000,18,,-1293746378820833082,0.3522462844848633,1001.0248515754938,14.699194879918812,6.866144290813952,2970,22,0.0,49359,76863577113732,19,31.3,-641.529541015625,0.38920000195503235,16,-0.0,1873.3183770502228,1.60031245E9,,,,0,,3,0.0,1.60031245E9
Raw,180829957,4220502834000000,18,,-1293746378820833082,0.3522462844848633,1001.0248515754938,14.699194879918812,6.866144290813952,2970,12,0.0,49359,76863572656060,21,30.0,-785.6660766601562,0.46869999170303345,16,-0.0,1872.002391714177,1.60143744E9,,,,0,,3,0.0,1.60143744E9
Raw,180829957,4220502834000000,18,,-1293746378820833082,0.3522462844848633,1001.0248515754938,14.699194879918812,6.866144290813952,2970,20,0.0,49359,76863586179935,27,28.5,514.6192016601562,0.8105000257492065,16,0.0,0.0,1.60312499E9,,,,0,,3,0.0,1.60312499E9
Raw,180829958,4220502834000000,18,,-1293746378820833082,0.3522462844848633,1001.0248515754938,14.699194879918812,6.866144290813952,2970,21,0.0,49359,76863588393275,7,41.1,-218.56336975097656,0.2395000010728836,16,-0.0,1868.720428711333,1.60424998E9,,,,0,,3,0.0,1.60424998E9
Raw,180829958,4220502834000000,18,,-1293746378820833082,0.3522462844848633,1001.0248515754938,14.699194879918812,6.866144290813952,2970,1,0.0,23567,66081571807855,16,34.0,346.711669921875,0.10889999568462372,16,-0.0,1902.9177342976868,1.57542003E9,,,,0,,6,0.0,1.57542003E9
Raw,180829958,4220502834000000,18,,-1293746378820833082,0.3522462844848633,1001.0248515754938,14.699194879918812,6.866144290813952,2970,12,0.0,23567,66081575770112,9,39.3,-434.56243896484375,0.0690000057220459,16,-0.0,1902.9177342976868,1.57542003E9,,,,0,,6,0.0,1.57542003E9
Raw,180829959,4220502834000000,18,,-1293746378820833082,0.3522462844848633,1001.0248515754938,14.699194879918812,6.866144290813952,2970,24,0.0,23567,66081565630050,14,34.5,-478.4535827636719,0.0949999988079071,16,-0.0,1902.9177342976868,1.57542003E9,,,,0,,6,0.0,1.57542003E9
Raw,180829959,4220502834000000,18,,-1293746378820833082,0.3522462844848633,1001.0248515754938,14.699194879918812,6.866144290813952,2970,26,0.0,23567,66081571840774,17,32.8,442.7557678222656,0.13189999759197235,16,-0.0,1902.9177342976868,1.57542003E9,,,,0,,6,0.0,1.57542003E9
Raw,180829959,4220502834000000,18,,-1293746378820833082,0.3522462844848633,1001.0248515754938,14.699194879918812,6.866144290813952,2970,31,0.0,23567,66081576215503,21,31.2,-145.07833862304688,0.2867000102996826,16,-0.0,1902.9177342976868,1.57542003E9,,,,0,,6,0.0,1.57542003E9
Raw,180829960,4220502834000000,18,,-1293746378820833082,0.3522462844848633,1001.0248515754938,14.699194879918812,6.866144290813952,2970,33,0.0,23567,66081576847998,13,35.9,20.725841522216797,0.08509999513626099,16,-0.0,1902.9177342976868,1.57542003E9,,,,0,,6,0.0,1.57542003E9
NMEA,$GPGSV,3,1,12,08,00,000,31,10,10,149,27,16,53,320,38,18,58,060,36,1*6A
,1613931664803
NMEA,$GPGSV,3,2,12,20,28,119,34,23,21,120,31,26,82,011,36,27,34,274,38,1*60
,1613931664803
NMEA,$GPGSV,3,3,12,29,15,061,39,31,33,191,37,04,00,000,,25,02,122,,1*6A
,1613931664803
NMEA,$GLGSV,2,1,07,86,11,232,31,76,00,000,30,84,47,022,29,85,58,258,41,1*7F
,1613931664803
NMEA,$GLGSV,2,2,07,74,67,158,,73,16,150,,68,01,046,,1*4B
,1613931664803
NMEA,$GAGSV,2,1,06,01,47,130,34,12,36,219,39,24,22,313,35,26,34,043,33,7*72
,1613931664803
NMEA,$GAGSV,2,2,06,31,73,320,31,33,86,084,36,7*77
,1613931664803
NMEA,$GNGSA,A,3,10,16,18,20,23,26,27,29,31,,,,0.9,0.6,0.7,1*3D
,1613931664816
NMEA,$GNGSA,A,3,73,74,84,85,86,,,,,,,,0.9,0.6,0.7,2*32
,1613931664816
NMEA,$GNGSA,A,3,01,12,24,26,31,33,,,,,,,0.9,0.6,0.7,3*39
,1613931664816
NMEA,$GNGSA,A,3,11,13,,,,,,,,,,,0.9,0.6,0.7,4*3E
,1613931664816
NMEA,$GNVTG,57.6,T,57.6,M,0.3,N,0.6,K,A*38
,1613931664816
NMEA,$GNDTM,P90,,0000.000025,S,00000.000001,E,0.985,W84*5C
,1613931664816
NMEA,$GNRMC,182104.00,A,3718.280195,N,00555.528896,W,0.3,57.6,210221,4.0,W,A,V*69
,1613931664816
NMEA,$GNGNS,182104.00,3718.280195,N,00555.528896,W,AAAANN,22,0.6,44.6,51.0,,,V*0D
,1613931664816
NMEA,$GNGGA,182104.00,3718.280195,N,00555.528896,W,1,12,0.6,44.6,M,51.0,M,,*5E
,1613931664816
Fix,gps,37.304670,-5.925482,95.643433,0.170000,3.790092,1613931664000
Raw,180830940,4220503827000000,18,,-1293746378820356875,-0.9560585021972656,1002.0486079156399,16.42116747833616,13.815851703754603,2971,8,0.0,16399,66082562423067,27,27.8,-523.0411987304688,0.684499979019165,16,0.0,0.0,1.57542003E9,,,,0,,1,0.0,1.57542003E9
Raw,180830940,4220503827000000,18,,-1293746378820356875,-0.9560585021972656,1002.0486079156399,16.42116747833616,13.815851703754603,2971,10,0.0,16399,66082564998516,13,34.6,-565.2780151367188,0.06109999865293503,16,-0.0,1902.9177342976868,1.57542003E9,,,,0,,1,0.0,1.57542003E9
Raw,180830941,4220503827000000,18,,-1293746378820356875,-0.9560585021972656,1002.0486079156399,16.42116747833616,13.815851703754603,2971,16,0.0,16399,66082577108569,17,32.0,-338.42559814453125,0.12290000170469284,16,-0.0,1902.9177342976868,1.57542003E9,,,,0,,1,0.0,1.57542003E9
Raw,180830941,4220503827000000,18,,-1293746378820356875,-0.9560585021972656,1002.0486079156399,16.42116747833616,13.815851703754603,2971,20,0.0,16399,66082570909015,17,31.8,-420.7722473144531,0.11239999532699585,16,-0.0,1902.9177342976868,1.57542003E9,,,,0,,1,0.0,1.57542003E9
Raw,180830941,4220503827000000,18,,-1293746378820356875,-0.9560585021972656,1002.0486079156399,16.42116747833616,13.815851703754603,2971,23,0.0,16399,66082569027369,16,33.1,-472.36273193359375,0.08789999783039093,16,-0.0,1902.9177342976868,1.57542003E9,,,,0,,1,0.0,1.57542003E9
Raw,180830942,4220503827000000,18,,-1293746378820356875,-0.9560585021972656,1002.0486079156399,16.42116747833616,13.815851703754603,2971,26,0.0,16399,66082579776819,10,38.4,-31.55381202697754,0.06710000336170197,16,-0.0,1902.9177342976868,1.57542003E9,,,,0,,1,0.0,1.57542003E9
Raw,180830942,4220503827000000,18,,-1293746378820356875,-0.9560585021972656,1002.0486079156399,16.42116747833616,13.815851703754603,2971,27,0.0,16399,66082573406162,6,43.4,-391.2252502441406,0.0414000004529953,16,-0.0,1902.9177342976868,1.57542003E9,,,,0,,1,0.0,1.57542003E9
Raw,180830942,4220503827000000,18,,-1293746378820356875,-0.9560585021972656,1002.0486079156399,16.42116747833616,13.815851703754603,2971,29,0.0,16399,66082566755087,14,33.6,532.8794555664062,0.07249999791383743,16,-0.0,1902.9177342976868,1.57542003E9,,,,0,,1,0.0,1.57542003E9
Raw,180830943,4220503827000000,18,,-1293746378820356875,-0.9560585021972656,1002.0486079156399,16.42116747833616,13.815851703754603,2971,31,0.0,16399,66082571423724,27,27.9,605.8094482421875,0.6679999828338623,16,0.0,0.0,1.57542003E9,,,,0,,1,0.0,1.57542003E9
Raw,180830943,4220503827000000,18,,-1293746378820356875,-0.9560585021972656,1002.0486079156399,16.42116747833616,13.815851703754603,2971,22,0.0,49359,76864569639735,27,28.0,-642.2080688476562,0.8149999976158142,16,0.0,0.0,1.60031245E9,,,,0,,3,0.0,1.60031245E9
Raw,180830943,4220503827000000,18,,-1293746378820356875,-0.9560585021972656,1002.0486079156399,16.42116747833616,13.815851703754603,2971,9,0.0,49359,76864571120530,21,30.0,778.0560302734375,0.46719998121261597,16,-0.0,1872.6600783192619,1.60087501E9,,,,0,,3,0.0,1.60087501E9
Raw,180830944,4220503827000000,18,,-1293746378820356875,-0.9560585021972656,1002.0486079156399,16.42116747833616,13.815851703754603,2971,12,0.0,49359,76864565182654,21,30.5,-788.8435668945312,0.45819997787475586,16,-0.0,1872.002391714177,1.60143744E9,,,,0,,3,0.0,1.60143744E9
Raw,180830944,4220503827000000,18,,-1293746378820356875,-0.9560585021972656,1002.0486079156399,16.42116747833616,13.815851703754603,2971,21,0.0,49359,76864580917737,14,34.9,-219.41732788085938,0.29350000619888306,16,-0.0,1868.720428711333,1.60424998E9,,,,0,,3,0.0,1.60424998E9
Raw,180830945,4220503827000000,18,,-1293746378820356875,-0.9560585021972656,1002.0486079156399,16.42116747833616,13.815851703754603,2971,24,0.0,23567,66082558155412,13,35.4,-479.60406494140625,0.08810000121593475,16,-0.0,1902.9177342976868,1.57542003E9,,,,0,,6,0.0,1.57542003E9
Raw,180830945,4220503827000000,18,,-1293746378820356875,-0.9560585021972656,1002.0486079156399,16.42116747833616,13.815851703754603,2971,26,0.0,23567,66082564363067,24,29.6,442.6236877441406,1.1965000629425049,16,-0.0,1902.9177342976868,1.57542003E9,,,,0,,6,0.0,1.57542003E9
NMEA,$GPGSV,3,1,11,08,00,000,28,10,10,149,35,16,53,320,32,20,28,119,32,1*6F
,1613931665801
NMEA,$GPGSV,3,2,11,23,21,120,33,26,82,011,38,27,34,274,43,29,15,061,34,1*6A
,1613931665801
NMEA,$GPGSV,3,3,11,31,33,191,28,04,00,000,,25,02,122,,1*55
,1613931665801
NMEA,$GLGSV,2,1,06,86,11,232,28,73,16,150,30,76,00,000,31,85,58,258,35,1*74
,1613931665801
NMEA,$GLGSV,2,2,06,74,67,158,,68,01,046,,1*7D
,1613931665801
NMEA,$GAGSV,1,1,03,24,22,313,35,26,34,043,30,31,73,320,28,7*4B
,1613931665801
NMEA,$GNGSA,A,3,10,16,18,20,23,26,27,29,31,,,,0.9,0.6,0.7,1*3D
,1613931665808
NMEA,$GNGSA,A,3,73,74,84,85,86,,,,,,,,0.9,0.6,0.7,2*32
,1613931665808
NMEA,$GNGSA,A,3,01,12,24,26,31,33,,,,,,,0.9,0.6,0.7,3*39
,1613931665808
NMEA,$GNGSA,A,3,11,13,,,,,,,,,,,0.9,0.6,0.7,4*3E
,1613931665808
NMEA,$GNVTG,,T,,M,0.0,N,0.0,K,A*3D
,1613931665808
NMEA,$GNDTM,P90,,0000.000025,S,00000.000001,E,0.985,W84*5C
,1613931665808
NMEA,$GNRMC,182105.00,A,3718.280258,N,00555.528906,W,0.0,,210221,4.0,W,A,V*7B
,1613931665808
NMEA,$GNGNS,182105.00,3718.280258,N,00555.528906,W,AAAANN,22,0.6,44.9,51.0,,,V*09
,1613931665808
NMEA,$GNGGA,182105.00,3718.280258,N,00555.528906,W,1,12,0.6,44.9,M,51.0,M,,*5A
,1613931665808
Fix,gps,37.304671,-5.925482,95.942749,0.000000,3.790092,1613931665000
Raw,180831920,4220504839000000,18,,-1293746378819358430,-0.1471710205078125,1001.2062266469002,12.720248622232113,7.8608042278354455,2972,16,0.0,16399,66083588111362,16,33.3,-338.84149169921875,0.08639999479055405,16,-0.0,1902.9177342976868,1.57542003E9,,,,0,,1,0.0,1.57542003E9
Raw,180831921,4220504839000000,18,,-1293746378819358430,-0.1471710205078125,1001.2062266469002,12.720248622232113,7.8608042278354455,2972,20,0.0,16399,66083581912179,27,28.5,-422.2331237792969,0.6330000162124634,16,0.0,0.0,1.57542003E9,,,,0,,1,0.0,1.57542003E9
Raw,180831921,4220504839000000,18,,-1293746378819358430,-0.1471710205078125,1001.2062266469002,12.720248622232113,7.8608042278354455,2972,23,0.0,16399,66083580030635,31,26.7,-471.2146911621094,0.7414999604225159,16,0.0,0.0,1.57542003E9,,,,0,,1,0.0,1.57542003E9
Raw,180831921,4220504839000000,18,,-1293746378819358430,-0.1471710205078125,1001.2062266469002,12.720248622232113,7.8608042278354455,2972,26,0.0,16399,66083590778508,14,33.7,-32.175682067871094,0.07850000262260437,16,-0.0,1902.9177342976868,1.57542003E9,,,,0,,1,0.0,1.57542003E9
Raw,180831921,4220504839000000,18,,-1293746378819358430,-0.1471710205078125,1001.2062266469002,12.720248622232113,7.8608042278354455,2972,27,0.0,16399,66083584409157,16,33.2,-391.6524658203125,0.0803999975323677,16,-0.0,1902.9177342976868,1.57542003E9,,,,0,,1,0.0,1.57542003E9
Raw,180831921,4220504839000000,18,,-1293746378819358430,-0.1471710205078125,1001.2062266469002,12.720248622232113,7.8608042278354455,2972,31,0.0,16399,66083582423386,35,26.1,605.2100219726562,0.7444999814033508,16,0.0,0.0,1.57542003E9,,,,0,,1,0.0,1.57542003E9
Raw,180831921,4220504839000000,18,,-1293746378819358430,-0.1471710205078125,1001.2062266469002,12.720248622232113,7.8608042278354455,2972,21,0.0,49359,76865591920090,16,33.0,-219.2876434326172,0.29089999198913574,16,-0.0,1868.720428711333,1.60424998E9,,,,0,,3,0.0,1.60424998E9
Raw,180831922,4220504839000000,18,,-1293746378819358430,-0.1471710205078125,1001.2062266469002,12.720248622232113,7.8608042278354455,2972,24,0.0,23567,66083569158639,21,31.1,-480.3272399902344,0.28220000863075256,16,-0.0,1902.9177342976868,1.57542003E9,,,,0,,6,0.0,1.57542003E9
Raw,180831922,4220504839000000,18,,-1293746378819358430,-0.1471710205078125,1001.2062266469002,12.720248622232113,7.8608042278354455,2972,31,0.0,23567,66083579741907,21,30.8,-147.06759643554688,0.27920001745224,16,-0.0,1902.9177342976868,1.57542003E9,,,,0,,6,0.0,1.57542003E9
Raw,180831922,4220504839000000,18,,-1293746378819358430,-0.1471710205078125,1001.2062266469002,12.720248622232113,7.8608042278354455,2972,33,0.0,23567,66083580373246,21,30.5,19.175582885742188,0.2806999981403351,16,-0.0,1902.9177342976868,1.57542003E9,,,,0,,6,0.0,1.57542003E9
NMEA,$GPGSV,3,1,09,16,53,320,33,20,28,119,29,23,21,120,27,26,82,011,34,1*68
,1613931666801
NMEA,$GPGSV,3,2,09,27,34,274,33,31,33,191,26,04,00,000,,18,58,060,,1*66
,1613931666801
NMEA,$GPGSV,3,3,09,25,02,122,,1*59
,1613931666801
NMEA,$GLGSV,1,1,04,85,58,258,33,74,67,158,,84,47,022,,68,01,046,,1*7F
,1613931666801
NMEA,$GAGSV,2,1,05,24,22,313,31,31,73,320,31,33,86,084,31,01,47,130,,7*75
,1613931666801
NMEA,$GAGSV,2,2,05,12,36,219,,7*4A
,1613931666801
NMEA,$GNGSA,A,3,10,16,18,20,23,26,27,29,31,,,,0.9,0.6,0.7,1*3D
,1613931666807
NMEA,$GNGSA,A,3,73,74,84,85,86,,,,,,,,0.9,0.6,0.7,2*32
,1613931666807
NMEA,$GNGSA,A,3,01,12,24,26,31,33,,,,,,,0.9,0.6,0.7,3*39
,1613931666807
NMEA,$GNGSA,A,3,11,13,,,,,,,,,,,0.9,0.6,0.7,4*3E
,1613931666807
NMEA,$GNVTG,,T,,M,0.0,N,0.0,K,A*3D
,1613931666807
NMEA,$GNDTM,P90,,0000.000025,S,00000.000001,E,0.985,W84*5C
,1613931666807
NMEA,$GNRMC,182106.00,A,3718.280190,N,00555.528836,W,0.0,,210221,4.0,W,A,V*7D
,1613931666807
NMEA,$GNGNS,182106.00,3718.280190,N,00555.528836,W,AAAANN,22,0.6,44.8,51.0,,,V*0E
,1613931666807
NMEA,$GNGGA,182106.00,3718.280190,N,00555.528836,W,1,12,0.6,44.8,M,51.0,M,,*5D
,1613931666807
Fix,gps,37.304670,-5.925481,95.795166,0.000000,3.790092,1613931666000
NMEA,$GPGSV,3,1,12,08,00,000,32,16,53,320,41,18,58,060,34,20,28,119,31,1*6F
,1613931667805
NMEA,$GPGSV,3,2,12,23,21,120,31,25,02,122,28,26,82,011,34,27,34,274,42,1*67
,1613931667805
NMEA,$GPGSV,3,3,12,29,15,061,30,31,33,191,32,04,00,000,,10,10,149,,1*6E
,1613931667805
NMEA,$GLGSV,2,1,07,76,00,000,34,85,58,258,31,74,67,158,,86,11,232,,1*74
,1613931667805
NMEA,$GLGSV,2,2,07,73,16,150,,84,47,022,,68,01,046,,1*4A
,1613931667805
NMEA,$GAGSV,2,1,05,01,47,130,44,24,22,313,41,26,34,043,30,31,73,320,35,7*71
,1613931667805
NMEA,$GAGSV,2,2,05,12,36,219,,7*4A
,1613931667805
NMEA,$GNGSA,A,3,10,16,18,20,23,26,27,29,31,,,,0.9,0.6,0.7,1*3D
,1613931667817
NMEA,$GNGSA,A,3,73,74,84,85,86,,,,,,,,0.9,0.6,0.7,2*32
,1613931667817
NMEA,$GNGSA,A,3,01,12,24,26,31,33,,,,,,,0.9,0.6,0.7,3*39
,1613931667817
NMEA,$GNGSA,A,3,11,,,,,,,,,,,,0.9,0.6,0.7,4*3C
,1613931667817
Raw,180832977,4220505835000000,18,,-1293746378818442454,-0.6957015991210938,1001.5188017860055,11.299580907903849,10.08203534579574,2973,8,0.0,16399,66084568512191,17,32.2,-523.91748046875,0.10939999669790268,16,-0.0,1902.9177342976868,1.57542003E9,,,,0,,1,0.0,1.57542003E9
Raw,180832977,4220505835000000,18,,-1293746378818442454,-0.6957015991210938,1001.5188017860055,11.299580907903849,10.08203534579574,2973,16,0.0,16399,66084583196493,7,40.8,-338.4381408691406,0.06200000271201134,16,-0.0,1902.9177342976868,1.57542003E9,,,,0,,1,0.0,1.57542003E9
Raw,180832977,4220505835000000,18,,-1293746378818442454,-0.6957015991210938,1001.5188017860055,11.299580907903849,10.08203534579574,2973,18,0.0,16399,66084583981503,14,34.1,255.51136779785156,0.09800000488758087,16,-0.0,1902.9177342976868,1.57542003E9,,,,0,,1,0.0,1.57542003E9
Raw,180832977,4220505835000000,18,,-1293746378818442454,-0.6957015991210938,1001.5188017860055,11.299580907903849,10.08203534579574,2973,20,0.0,16399,66084576997510,19,31.0,-421.560791015625,0.18770000338554382,16,-0.0,1902.9177342976868,1.57542003E9,,,,0,,1,0.0,1.57542003E9
Raw,180832978,4220505835000000,18,,-1293746378818442454,-0.6957015991210938,1001.5188017860055,11.299580907903849,10.08203534579574,2973,23,0.0,16399,66084575116196,21,30.5,-472.5048522949219,0.27320000529289246,16,-0.0,1902.9177342976868,1.57542003E9,,,,0,,1,0.0,1.57542003E9
Raw,180832978,4220505835000000,18,,-1293746378818442454,-0.6957015991210938,1001.5188017860055,11.299580907903849,10.08203534579574,2973,25,0.0,16399,66084567599578,27,28.1,622.4410400390625,0.612000048160553,16,0.0,0.0,1.57542003E9,,,,0,,1,0.0,1.57542003E9
Raw,180832979,4220505835000000,18,,-1293746378818442454,-0.6957015991210938,1001.5188017860055,11.299580907903849,10.08203534579574,2973,26,0.0,16399,66084585862569,14,33.9,-31.744163513183594,0.07100000232458115,16,-0.0,1902.9177342976868,1.57542003E9,,,,0,,1,0.0,1.57542003E9
Raw,180832979,4220505835000000,18,,-1293746378818442454,-0.6957015991210938,1001.5188017860055,11.299580907903849,10.08203534579574,2973,27,0.0,16399,66084579494401,6,41.7,-391.18756103515625,0.05340000241994858,16,-0.0,1902.9177342976868,1.57542003E9,,,,0,,1,0.0,1.57542003E9
Raw,180832979,4220505835000000,18,,-1293746378818442454,-0.6957015991210938,1001.5188017860055,11.299580907903849,10.08203534579574,2973,29,0.0,16399,66084572837081,21,30.2,532.4602661132812,0.2687000036239624,16,-0.0,1902.9177342976868,1.57542003E9,,,,0,,1,0.0,1.57542003E9
Raw,180832979,4220505835000000,18,,-1293746378818442454,-0.6957015991210938,1001.5188017860055,11.299580907903849,10.08203534579574,2973,31,0.0,16399,66084577505428,17,32.0,605.6890258789062,0.12290000170469284,16,-0.0,1902.9177342976868,1.57542003E9,,,,0,,1,0.0,1.57542003E9
Raw,180832980,4220505835000000,18,,-1293746378818442454,-0.6957015991210938,1001.5188017860055,11.299580907903849,10.08203534579574,2973,12,0.0,49359,76866571273469,16,33.5,-787.9893798828125,0.29089999198913574,16,-0.0,1872.002391714177,1.60143744E9,,,,0,,3,0.0,1.60143744E9
Raw,180832980,4220505835000000,18,,-1293746378818442454,-0.6957015991210938,1001.5188017860055,11.299580907903849,10.08203534579574,2973,21,0.0,49359,76866587004953,21,30.5,-219.46759033203125,0.4611999988555908,16,-0.0,1868.720428711333,1.60424998E9,,,,0,,3,0.0,1.60424998E9
Raw,180832980,4220505835000000,18,,-1293746378818442454,-0.6957015991210938,1001.5188017860055,11.299580907903849,10.08203534579574,2973,1,0.0,23567,66084570413791,6,43.7,345.3084411621094,0.05490000545978546,16,-0.0,1902.9177342976868,1.57542003E9,,,,0,,6,0.0,1.57542003E9
Raw,180832980,4220505835000000,18,,-1293746378818442454,-0.6957015991210938,1001.5188017860055,11.299580907903849,10.08203534579574,2973,24,0.0,23567,66084564244265,7,41.4,-479.8601379394531,0.06350000202655792,16,-0.0,1902.9177342976868,1.57542003E9,,,,0,,6,0.0,1.57542003E9
Raw,180832980,4220505835000000,18,,-1293746378818442454,-0.6957015991210938,1001.5188017860055,11.299580907903849,10.08203534579574,2973,26,0.0,23567,66084570445730,24,29.7,441.35137939453125,1.19350004196167,16,-0.0,1902.9177342976868,1.57542003E9,,,,0,,6,0.0,1.57542003E9
Raw,180832981,4220505835000000,18,,-1293746378818442454,-0.6957015991210938,1001.5188017860055,11.299580907903849,10.08203534579574,2973,31,0.0,23567,66084574826412,13,35.3,-146.01683044433594,0.08810000121593475,16,-0.0,1902.9177342976868,1.57542003E9,,,,0,,6,0.0,1.57542003E9
NMEA,$GNVTG,,T,,M,0.0,N,0.0,K,A*3D
,1613931667817
NMEA,$GNDTM,P90,,0000.000025,S,00000.000001,E,0.985,W84*5C
,1613931667817
NMEA,$GNRMC,182107.00,A,3718.280169,N,00555.528712,W,0.0,,210221,4.0,W,A,V*73
,1613931667817
NMEA,$GNGNS,182107.00,3718.280169,N,00555.528712,W,AAAANN,21,0.6,45.1,51.0,,,V*0B
,1613931667817
NMEA,$GNGGA,182107.00,3718.280169,N,00555.528712,W,1,12,0.6,45.1,M,51.0,M,,*5B
,1613931667817
Fix,gps,37.304669,-5.925479,96.071045,0.000000,3.790092,1613931667000
Fix,gps,37.304667,-5.925480,95.767822,0.000000,3.790092,1613931668000
Raw,180833946,4220506845000000,18,,-1293746378818222624,-0.09329414367675781,1001.1490667238832,11.845554102758692,7.399442332534287,2974,10,0.0,16399,66085580870042,19,31.2,-563.8463745117188,0.19370000064373016,16,-0.0,1902.9177342976868,1.57542003E9,,,,0,,1,0.0,1.57542003E9
Raw,180833947,4220506845000000,18,,-1293746378818222624,-0.09329414367675781,1001.1490667238832,11.845554102758692,7.399442332534287,2974,16,0.0,16399,66085592977795,4,45.6,-336.57952880859375,0.03420000150799751,16,-0.0,1902.9177342976868,1.57542003E9,,,,0,,1,0.0,1.57542003E9
Raw,180833947,4220506845000000,18,,-1293746378818222624,-0.09329414367675781,1001.1490667238832,11.845554102758692,7.399442332534287,2974,18,0.0,16399,66085593760751,11,36.9,257.59027099609375,0.06270000338554382,16,-0.0,1902.9177342976868,1.57542003E9,,,,0,,1,0.0,1.57542003E9
Raw,180833948,4220506845000000,18,,-1293746378818222624,-0.09329414367675781,1001.1490667238832,11.845554102758692,7.399442332534287,2974,20,0.0,16399,66085586779088,14,34.3,-419.677490234375,0.07249999791383743,16,-0.0,1902.9177342976868,1.57542003E9,,,,0,,1,0.0,1.57542003E9
Raw,180833949,4220506845000000,18,,-1293746378818222624,-0.09329414367675781,1001.1490667238832,11.845554102758692,7.399442332534287,2974,23,0.0,16399,66085584897881,14,34.3,-470.5265197753906,0.06949999928474426,16,-0.0,1902.9177342976868,1.57542003E9,,,,0,,1,0.0,1.57542003E9
Raw,180833949,4220506845000000,18,,-1293746378818222624,-0.09329414367675781,1001.1490667238832,11.845554102758692,7.399442332534287,2974,26,0.0,16399,66085595642885,11,37.4,-29.792346954345703,0.065700002014637,16,-0.0,1902.9177342976868,1.57542003E9,,,,0,,1,0.0,1.57542003E9
Raw,180833950,4220506845000000,18,,-1293746378818222624,-0.09329414367675781,1001.1490667238832,11.845554102758692,7.399442332534287,2974,27,0.0,16399,66085589275887,8,39.8,-389.5654602050781,0.04399999976158142,16,-0.0,1902.9177342976868,1.57542003E9,,,,0,,1,0.0,1.57542003E9
Raw,180833950,4220506845000000,18,,-1293746378818222624,-0.09329414367675781,1001.1490667238832,11.845554102758692,7.399442332534287,2974,31,0.0,16399,66085587283532,12,36.1,607.2823486328125,0.05900000035762787,16,-0.0,1902.9177342976868,1.57542003E9,,,,0,,1,0.0,1.57542003E9
Raw,180833950,4220506845000000,18,,-1293746378818222624,-0.09329414367675781,1001.1490667238832,11.845554102758692,7.399442332534287,2974,12,0.0,49359,76867581056232,17,32.0,-785.6963500976562,0.32889997959136963,16,-0.0,1872.002391714177,1.60143744E9,,,,0,,3,0.0,1.60143744E9
Raw,180833950,4220506845000000,18,,-1293746378818222624,-0.09329414367675781,1001.1490667238832,11.845554102758692,7.399442332534287,2974,20,0.0,49359,76867594562182,35,26.8,513.9459838867188,0.9324999451637268,16,0.0,0.0,1.60312499E9,,,,0,,3,0.0,1.60312499E9
Raw,180833951,4220506845000000,18,,-1293746378818222624,-0.09329414367675781,1001.1490667238832,11.845554102758692,7.399442332534287,2974,21,0.0,49359,76867596785703,21,30.7,-217.6089324951172,0.47470003366470337,16,-0.0,1868.720428711333,1.60424998E9,,,,0,,3,0.0,1.60424998E9
Raw,180833951,4220506845000000,18,,-1293746378818222624,-0.09329414367675781,1001.1490667238832,11.845554102758692,7.399442332534287,2974,1,0.0,23567,66085580192802,6,43.2,347.1668395996094,0.054899998009204865,16,-0.0,1902.9177342976868,1.57542003E9,,,,0,,6,0.0,1.57542003E9
Raw,180833951,4220506845000000,18,,-1293746378818222624,-0.09329414367675781,1001.1490667238832,11.845554102758692,7.399442332534287,2974,24,0.0,23567,66085574026049,8,41.1,-478.1285400390625,0.06350000202655792,16,-0.0,1902.9177342976868,1.57542003E9,,,,0,,6,0.0,1.57542003E9
NMEA,$GPGSV,3,1,09,10,10,149,31,16,53,320,46,18,58,060,37,20,28,119,34,1*63
,1613931668806
NMEA,$GPGSV,3,2,09,23,21,120,34,26,82,011,37,27,34,274,40,31,33,191,36,1*69
,1613931668806
NMEA,$GPGSV,3,3,09,04,00,000,,1*59
,1613931668806
NMEA,$GLGSV,2,1,07,76,00,000,32,84,47,022,27,85,58,258,31,74,67,158,,1*75
,1613931668806
NMEA,$GLGSV,2,2,07,86,11,232,,73,16,150,,68,01,046,,1*48
,1613931668806
NMEA,$GAGSV,1,1,04,01,47,130,43,24,22,313,41,12,36,219,,33,86,084,,7*7C
,1613931668806
NMEA,$GNGSA,A,3,10,16,18,20,23,26,27,29,31,,,,1.0,0.6,0.7,1*35
,1613931668816
NMEA,$GNGSA,A,3,73,84,85,86,,,,,,,,,1.0,0.6,0.7,2*39
,1613931668816
NMEA,$GNGSA,A,3,01,12,24,26,31,33,,,,,,,1.0,0.6,0.7,3*31
,1613931668816
NMEA,$GNVTG,,T,,M,0.0,N,0.0,K,A*3D
,1613931668816
NMEA,$GNDTM,P90,,0000.000025,S,00000.000001,E,0.985,W84*5C
,1613931668816
NMEA,$GNRMC,182108.00,A,3718.280042,N,00555.528806,W,0.0,,210221,4.0,W,A,V*7E
,1613931668816
NMEA,$GNGNS,182108.00,3718.280042,N,00555.528806,W,AAANNN,19,0.6,44.8,51.0,,,V*0A
,1613931668816
NMEA,$GNGGA,182108.00,3718.280042,N,00555.528806,W,1,12,0.6,44.8,M,51.0,M,,*5E
,1613931668816
Fix,gps,37.304670,-5.925487,95.484009,0.900000,3.790092,1613931669000
Raw,180834953,4220507821000000,18,,-1293746378817716647,0.2691001892089844,1000.9189136326313,17.84407708353443,6.902866288303344,2975,10,0.0,16399,66086556365778,31,26.8,-563.4119873046875,0.7354999780654907,16,0.0,0.0,1.57542003E9,,,,0,,1,0.0,1.57542003E9
Raw,180834953,4220507821000000,18,,-1293746378817716647,0.2691001892089844,1000.9189136326313,17.84407708353443,6.902866288303344,2975,16,0.0,16399,66086568472955,4,45.6,-337.3516845703125,0.028200000524520874,16,-0.0,1902.9177342976868,1.57542003E9,,,,0,,1,0.0,1.57542003E9
Raw,180834953,4220507821000000,18,,-1293746378817716647,0.2691001892089844,1000.9189136326313,17.84407708353443,6.902866288303344,2975,20,0.0,16399,66086562274524,13,35.5,-419.2264404296875,0.08810000121593475,16,-0.0,1902.9177342976868,1.57542003E9,,,,0,,1,0.0,1.57542003E9
Raw,180834953,4220507821000000,18,,-1293746378817716647,0.2691001892089844,1000.9189136326313,17.84407708353443,6.902866288303344,2975,23,0.0,16399,66086560393518,19,31.0,-470.1327209472656,0.19370000064373016,16,-0.0,1902.9177342976868,1.57542003E9,,,,0,,1,0.0,1.57542003E9
Raw,180834954,4220507821000000,18,,-1293746378817716647,0.2691001892089844,1000.9189136326313,17.84407708353443,6.902866288303344,2975,25,0.0,16399,66086552869688,27,27.8,623.6209106445312,0.6694999933242798,16,0.0,0.0,1.57542003E9,,,,0,,1,0.0,1.57542003E9
Raw,180834954,4220507821000000,18,,-1293746378817716647,0.2691001892089844,1000.9189136326313,17.84407708353443,6.902866288303344,2975,26,0.0,16399,66086571137039,10,38.2,-30.0595760345459,0.05510000139474869,16,-0.0,1902.9177342976868,1.57542003E9,,,,0,,1,0.0,1.57542003E9
Raw,180834954,4220507821000000,18,,-1293746378817716647,0.2691001892089844,1000.9189136326313,17.84407708353443,6.902866288303344,2975,27,0.0,16399,66086564771229,6,42.1,-390.307373046875,0.030899999663233757,16,-0.0,1902.9177342976868,1.57542003E9,,,,0,,1,0.0,1.57542003E9
Raw,180834954,4220507821000000,18,,-1293746378817716647,0.2691001892089844,1000.9189136326313,17.84407708353443,6.902866288303344,2975,29,0.0,16399,66086558107799,24,29.0,534.3602294921875,1.1875,16,-0.0,1902.9177342976868,1.57542003E9,,,,0,,1,0.0,1.57542003E9
Raw,180834955,4220507821000000,18,,-1293746378817716647,0.2691001892089844,1000.9189136326313,17.84407708353443,6.902866288303344,2975,31,0.0,16399,66086562775616,14,33.8,607.9956665039062,0.09650000184774399,16,-0.0,1902.9177342976868,1.57542003E9,,,,0,,1,0.0,1.57542003E9
Raw,180834955,4220507821000000,18,,-1293746378817716647,0.2691001892089844,1000.9189136326313,17.84407708353443,6.902866288303344,2975,12,0.0,49359,76868556552781,13,35.5,-787.54736328125,0.2791000008583069,16,-0.0,1872.002391714177,1.60143744E9,,,,0,,3,0.0,1.60143744E9
Raw,180834955,4220507821000000,18,,-1293746378817716647,0.2691001892089844,1000.9189136326313,17.84407708353443,6.902866288303344,2975,20,0.0,49359,76868570054780,24,29.6,514.784912109375,1.3755000829696655,16,-0.0,1870.0318021494788,1.60312499E9,,,,0,,3,0.0,1.60312499E9
Raw,180834955,4220507821000000,18,,-1293746378817716647,0.2691001892089844,1000.9189136326313,17.84407708353443,6.902866288303344,2975,21,0.0,49359,76868572280604,14,34.9,-218.1367950439453,0.2815000116825104,16,-0.0,1868.720428711333,1.60424998E9,,,,0,,3,0.0,1.60424998E9
Raw,180834956,4220507821000000,18,,-1293746378817716647,0.2691001892089844,1000.9189136326313,17.84407708353443,6.902866288303344,2975,1,0.0,23567,66086555685736,8,40.4,347.4997253417969,0.05900000035762787,16,-0.0,1902.9177342976868,1.57542003E9,,,,0,,6,0.0,1.57542003E9
Raw,180834956,4220507821000000,18,,-1293746378817716647,0.2691001892089844,1000.9189136326313,17.84407708353443,6.902866288303344,2975,12,0.0,23567,66086559660966,13,35.9,-434.2471008300781,0.0835999995470047,16,-0.0,1902.9177342976868,1.57542003E9,,,,0,,6,0.0,1.57542003E9
Raw,180834956,4220507821000000,18,,-1293746378817716647,0.2691001892089844,1000.9189136326313,17.84407708353443,6.902866288303344,2975,24,0.0,23567,66086549521657,7,41.7,-479.3506774902344,0.05900000035762787,16,-0.0,1902.9177342976868,1.57542003E9,,,,0,,6,0.0,1.57542003E9
Raw,180834956,4220507821000000,18,,-1293746378817716647,0.2691001892089844,1000.9189136326313,17.84407708353443,6.902866288303344,2975,33,0.0,23567,66086560731222,27,28.8,22.036006927490234,0.6315000057220459,16,0.0,0.0,1.57542003E9,,,,0,,6,0.0,1.57542003E9
NMEA,$GPGSV,3,1,10,10,10,149,27,16,53,320,46,20,28,119,36,23,21,120,31,1*6B
,1613931669806
NMEA,$GPGSV,3,2,10,25,02,122,28,26,82,011,38,27,34,274,42,29,15,061,29,1*69
,1613931669806
NMEA,$GPGSV,3,3,10,31,33,191,34,04,00,000,,1*6D
,1613931669806
NMEA,$GLGSV,2,1,07,76,00,000,36,84,47,022,30,85,58,258,35,74,67,158,,1*73
,1613931669806
NMEA,$GLGSV,2,2,07,86,11,232,,73,16,150,,68,01,046,,1*48
,1613931669806
NMEA,$GAGSV,2,1,06,01,47,130,40,12,36,219,36,24,22,313,42,33,86,084,29,7*73
,1613931669806
NMEA,$GAGSV,2,2,06,26,34,043,,31,73,320,,7*76
,1613931669806
NMEA,$GNGSA,A,3,10,16,18,20,23,26,27,29,31,,,,1.0,0.6,0.7,1*35
,1613931669825
NMEA,$GNGSA,A,3,73,84,85,86,,,,,,,,,1.0,0.6,0.7,2*39
,1613931669825
NMEA,$GNGSA,A,3,01,12,24,26,31,33,,,,,,,1.0,0.6,0.7,3*31
,1613931669825
NMEA,$GNVTG,323.6,T,323.6,M,1.7,N,3.2,K,A*3A
,1613931669825
NMEA,$GNDTM,P90,,0000.000025,S,00000.000001,E,0.985,W84*5C
,1613931669825
NMEA,$GNRMC,182109.00,A,3718.280174,N,00555.529214,W,1.7,323.6,210221,4.0,W,A,V*5F
,1613931669825
NMEA,$GNGNS,182109.00,3718.280174,N,00555.529214,W,AAANNN,19,0.6,44.5,51.0,,,V*0A
,1613931669825
NMEA,$GNGGA,182109.00,3718.280174,N,00555.529214,W,1,12,0.6,44.5,M,51.0,M,,*5E
,1613931669825
NMEA,$GPGSV,3,1,11,08,00,000,31,10,10,149,30,16,53,320,42,18,58,060,40,1*63
,1613931670806
Raw,180835953,4220508834000000,18,,-1293746378817527369,0.06703758239746094,1001.3438295572996,16.04139323268171,9.031809280683637,2976,8,0.0,16399,66087566602343,19,31.0,-522.185546875,0.17270000278949738,16,-0.0,1902.9177342976868,1.57542003E9,,,,0,,1,0.0,1.57542003E9
Raw,180835954,4220508834000000,18,,-1293746378817527369,0.06703758239746094,1001.3438295572996,16.04139323268171,9.031809280683637,2976,10,0.0,16399,66087569178560,21,29.9,-561.6878051757812,0.26420000195503235,16,-0.0,1902.9177342976868,1.57542003E9,,,,0,,1,0.0,1.57542003E9
Raw,180835954,4220508834000000,18,,-1293746378817527369,0.06703758239746094,1001.3438295572996,16.04139323268171,9.031809280683637,2976,16,0.0,16399,66087581284825,6,42.2,-336.9521789550781,0.05640000104904175,16,-0.0,1902.9177342976868,1.57542003E9,,,,0,,1,0.0,1.57542003E9
Raw,180835954,4220508834000000,18,,-1293746378817527369,0.06703758239746094,1001.3438295572996,16.04139323268171,9.031809280683637,2976,18,0.0,16399,66087582063805,9,39.5,258.7546081542969,0.06750000268220901,16,-0.0,1902.9177342976868,1.57542003E9,,,,0,,1,0.0,1.57542003E9
Raw,180835955,4220508834000000,18,,-1293746378817527369,0.06703758239746094,1001.3438295572996,16.04139323268171,9.031809280683637,2976,20,0.0,16399,66087575086643,21,30.5,-417.2033996582031,0.27320000529289246,16,-0.0,1902.9177342976868,1.57542003E9,,,,0,,1,0.0,1.57542003E9
Raw,180835955,4220508834000000,18,,-1293746378817527369,0.06703758239746094,1001.3438295572996,16.04139323268171,9.031809280683637,2976,23,0.0,16399,66087573205801,11,37.3,-467.92999267578125,0.06270000338554382,16,-0.0,1902.9177342976868,1.57542003E9,,,,0,,1,0.0,1.57542003E9
Raw,180835956,4220508834000000,18,,-1293746378817527369,0.06703758239746094,1001.3438295572996,16.04139323268171,9.031809280683637,2976,26,0.0,16399,66087583947843,10,37.7,-29.1268310546875,0.0731000006198883,16,-0.0,1902.9177342976868,1.57542003E9,,,,0,,1,0.0,1.57542003E9
Raw,180835956,4220508834000000,18,,-1293746378817527369,0.06703758239746094,1001.3438295572996,16.04139323268171,9.031809280683637,2976,27,0.0,16399,66087577583261,5,43.9,-390.2315368652344,0.04540000110864639,16,-0.0,1902.9177342976868,1.57542003E9,,,,0,,1,0.0,1.57542003E9
Raw,180835956,4220508834000000,18,,-1293746378817527369,0.06703758239746094,1001.3438295572996,16.04139323268171,9.031809280683637,2976,29,0.0,16399,66087570916648,24,28.6,536.462646484375,1.1755000352859497,16,-0.0,1902.9177342976868,1.57542003E9,,,,0,,1,0.0,1.57542003E9
Raw,180835957,4220508834000000,18,,-1293746378817527369,0.06703758239746094,1001.3438295572996,16.04139323268171,9.031809280683637,2976,31,0.0,16399,66087575584205,9,38.8,609.39453125,0.05700000002980232,16,-0.0,1902.9177342976868,1.57542003E9,,,,0,,1,0.0,1.57542003E9
Raw,180835958,4220508834000000,18,,-1293746378817527369,0.06703758239746094,1001.3438295572996,16.04139323268171,9.031809280683637,2976,9,0.0,49359,76869575278111,17,32.4,782.3328247070312,0.3199000060558319,16,-0.0,1872.6600783192619,1.60087501E9,,,,0,,3,0.0,1.60087501E9
Raw,180835958,4220508834000000,18,,-1293746378817527369,0.06703758239746094,1001.3438295572996,16.04139323268171,9.031809280683637,2976,12,0.0,49359,76869569366208,17,32.4,-787.6452026367188,0.3109000027179718,16,-0.0,1872.002391714177,1.60143744E9,,,,0,,3,0.0,1.60143744E9
Raw,180835958,4220508834000000,18,,-1293746378817527369,0.06703758239746094,1001.3438295572996,16.04139323268171,9.031809280683637,2976,20,0.0,49359,76869582863965,27,28.9,515.3672485351562,0.8345000147819519,16,0.0,0.0,1.60312499E9,,,,0,,3,0.0,1.60312499E9
Raw,180835958,4220508834000000,18,,-1293746378817527369,0.06703758239746094,1001.3438295572996,16.04139323268171,9.031809280683637,2976,21,0.0,49359,76869585092031,13,35.4,-217.5374755859375,0.29260000586509705,16,-0.0,1868.720428711333,1.60424998E9,,,,0,,3,0.0,1.60424998E9
Raw,180835959,4220508834000000,18,,-1293746378817527369,0.06703758239746094,1001.3438295572996,16.04139323268171,9.031809280683637,2976,1,0.0,23567,66087568495262,6,43.2,349.3748779296875,0.0609000027179718,16,-0.0,1902.9177342976868,1.57542003E9,,,,0,,6,0.0,1.57542003E9
Raw,180835959,4220508834000000,18,,-1293746378817527369,0.06703758239746094,1001.3438295572996,16.04139323268171,9.031809280683637,2976,12,0.0,23567,66087572473155,24,29.4,-432.98089599609375,1.1965000629425049,16,-0.0,1902.9177342976868,1.57542003E9,,,,0,,6,0.0,1.57542003E9
Raw,180835959,4220508834000000,18,,-1293746378817527369,0.06703758239746094,1001.3438295572996,16.04139323268171,9.031809280683637,2976,24,0.0,23567,66087562333998,9,39.8,-479.2538146972656,0.06750000268220901,16,-0.0,1902.9177342976868,1.57542003E9,,,,0,,6,0.0,1.57542003E9
Raw,180835960,4220508834000000,18,,-1293746378817527369,0.06703758239746094,1001.3438295572996,16.04139323268171,9.031809280683637,2976,26,0.0,23567,66087568526254,12,36.7,444.4536437988281,0.08449999988079071,16,-0.0,1902.9177342976868,1.57542003E9,,,,0,,6,0.0,1.57542003E9
Raw,180835960,4220508834000000,18,,-1293746378817527369,0.06703758239746094,1001.3438295572996,16.04139323268171,9.031809280683637,2976,31,0.0,23567,66087572912738,17,32.3,-145.07986450195312,0.13339999318122864,16,-0.0,1902.9177342976868,1.57542003E9,,,,0,,6,0.0,1.57542003E9
NMEA,$GPGSV,3,2,11,20,28,119,31,23,21,120,37,26,82,011,38,27,34,274,44,1*65
,1613931670806
NMEA,$GPGSV,3,3,11,29,15,061,29,31,33,191,39,04,00,000,,1*52
,1613931670806
NMEA,$GLGSV,2,1,07,73,16,150,32,76,00,000,32,84,47,022,29,85,58,258,35,1*77
,1613931670806
NMEA,$GLGSV,2,2,07,74,67,158,,86,11,232,,68,01,046,,1*41
,1613931670806
NMEA,$GAGSV,2,1,05,01,47,130,43,12,36,219,29,24,22,313,40,26,34,043,37,7*76
,1613931670806
NMEA,$GAGSV,2,2,05,31,73,320,32,7*40
,1613931670806
NMEA,$GNGSA,A,3,10,16,18,20,23,26,27,29,31,,,,1.0,0.6,0.7,1*35
,1613931670813
NMEA,$GNGSA,A,3,73,84,85,86,,,,,,,,,1.0,0.6,0.7,2*39
,1613931670813
NMEA,$GNGSA,A,3,01,12,24,26,31,33,,,,,,,1.0,0.6,0.7,3*31
,1613931670813
NMEA,$GNVTG,305.4,T,305.4,M,4.8,N,9.0,K,A*38
,1613931670813
NMEA,$GNDTM,P90,,0000.000025,S,00000.000001,E,0.985,W84*5C
,1613931670813
NMEA,$GNRMC,182110.00,A,3718.280856,N,00555.530583,W,4.8,305.4,210221,4.0,W,A,V*53
,1613931670813
NMEA,$GNGNS,182110.00,3718.280856,N,00555.530583,W,AAANNN,19,0.6,44.6,51.0,,,V*09
,1613931670813
NMEA,$GNGGA,182110.00,3718.280856,N,00555.530583,W,1,12,0.6,44.6,M,51.0,M,,*5D
,1613931670813
Fix,gps,37.304681,-5.925510,95.618469,2.490000,3.790092,1613931670000
Fix,gps,37.304695,-5.925535,95.072998,3.180000,3.790092,1613931671000
Raw,180836938,4220509826000000,18,,-1293746378817330580,-0.025911331176757812,1001.2587299570441,20.256733393475052,8.891874413066075,2977,4,0.0,16399,66088557408511,31,27.5,360.61602783203125,0.6769999861717224,16,0.0,0.0,1.57542003E9,,,,0,,1,0.0,1.57542003E9
Raw,180836939,4220509826000000,18,,-1293746378817330580,-0.025911331176757812,1001.2587299570441,20.256733393475052,8.891874413066075,2977,8,0.0,16399,66088558407227,21,29.9,-523.9552001953125,0.2777000069618225,16,-0.0,1902.9177342976868,1.57542003E9,,,,0,,1,0.0,1.57542003E9
Raw,180836939,4220509826000000,18,,-1293746378817330580,-0.025911331176757812,1001.2587299570441,20.256733393475052,8.891874413066075,2977,16,0.0,16399,66088573089169,5,43.8,-337.2380065917969,0.03940000385046005,16,-0.0,1902.9177342976868,1.57542003E9,,,,0,,1,0.0,1.57542003E9
Raw,180836940,4220509826000000,18,,-1293746378817330580,-0.025911331176757812,1001.2587299570441,20.256733393475052,8.891874413066075,2977,18,0.0,16399,66088573866185,7,41.0,259.3023986816406,0.04700000211596489,16,-0.0,1902.9177342976868,1.57542003E9,,,,0,,1,0.0,1.57542003E9
Raw,180836940,4220509826000000,18,,-1293746378817330580,-0.025911331176757812,1001.2587299570441,20.256733393475052,8.891874413066075,2977,20,0.0,16399,66088566891268,14,33.6,-416.2075500488281,0.07249999791383743,16,-0.0,1902.9177342976868,1.57542003E9,,,,0,,1,0.0,1.57542003E9
Raw,180836940,4220509826000000,18,,-1293746378817330580,-0.025911331176757812,1001.2587299570441,20.256733393475052,8.891874413066075,2977,23,0.0,16399,66088565010519,17,31.8,-466.9855041503906,0.13490000367164612,16,-0.0,1902.9177342976868,1.57542003E9,,,,0,,1,0.0,1.57542003E9
Raw,180836941,4220509826000000,18,,-1293746378817330580,-0.025911331176757812,1001.2587299570441,20.256733393475052,8.891874413066075,2977,26,0.0,16399,66088575751183,11,36.7,-29.489334106445312,0.065700002014637,16,-0.0,1902.9177342976868,1.57542003E9,,,,0,,1,0.0,1.57542003E9
Raw,180836941,4220509826000000,18,,-1293746378817330580,-0.025911331176757812,1001.2587299570441,20.256733393475052,8.891874413066075,2977,27,0.0,16399,66088569387782,5,44.8,-390.66259765625,0.03140000253915787,16,-0.0,1902.9177342976868,1.57542003E9,,,,0,,1,0.0,1.57542003E9
Raw,180836941,4220509826000000,18,,-1293746378817330580,-0.025911331176757812,1001.2587299570441,20.256733393475052,8.891874413066075,2977,29,0.0,16399,66088562718199,17,31.9,536.438720703125,0.13040000200271606,16,-0.0,1902.9177342976868,1.57542003E9,,,,0,,1,0.0,1.57542003E9
Raw,180836941,4220509826000000,18,,-1293746378817330580,-0.025911331176757812,1001.2587299570441,20.256733393475052,8.891874413066075,2977,31,0.0,16399,66088567385473,19,30.8,609.066650390625,0.17419999837875366,16,-0.0,1902.9177342976868,1.57542003E9,,,,0,,1,0.0,1.57542003E9
Raw,180836942,4220509826000000,18,,-1293746378817330580,-0.025911331176757812,1001.2587299570441,20.256733393475052,8.891874413066075,2977,10,0.0,49359,76870578120879,24,29.1,329.3992004394531,1.3875000476837158,16,-0.0,1875.955906227098,1.59806246E9,,,,0,,3,0.0,1.59806246E9
Raw,180836942,4220509826000000,18,,-1293746378817330580,-0.025911331176757812,1001.2587299570441,20.256733393475052,8.891874413066075,2977,9,0.0,49359,76870567078868,16,33.9,782.9786376953125,0.2849000096321106,16,-0.0,1872.6600783192619,1.60087501E9,,,,0,,3,0.0,1.60087501E9
Raw,180836942,4220509826000000,18,,-1293746378817330580,-0.025911331176757812,1001.2587299570441,20.256733393475052,8.891874413066075,2977,21,0.0,49359,76870576895944,16,33.6,-218.1975860595703,0.29839998483657837,16,-0.0,1868.720428711333,1.60424998E9,,,,0,,3,0.0,1.60424998E9
Raw,180836943,4220509826000000,18,,-1293746378817330580,-0.025911331176757812,1001.2587299570441,20.256733393475052,8.891874413066075,2977,1,0.0,23567,66088560297319,9,40.1,350.113525390625,0.07050000131130219,16,-0.0,1902.9177342976868,1.57542003E9,,,,0,,6,0.0,1.57542003E9
Raw,180836943,4220509826000000,18,,-1293746378817330580,-0.025911331176757812,1001.2587299570441,20.256733393475052,8.891874413066075,2977,12,0.0,23567,66088564277873,27,29.2,-433.0798645019531,0.5975000262260437,16,0.0,0.0,1.57542003E9,,,,0,,6,0.0,1.57542003E9
Raw,180836943,4220509826000000,18,,-1293746378817330580,-0.025911331176757812,1001.2587299570441,20.256733393475052,8.891874413066075,2977,24,0.0,23567,66088554138831,17,32.4,-479.93084716796875,0.13040000200271606,16,-0.0,1902.9177342976868,1.57542003E9,,,,0,,6,0.0,1.57542003E9
Raw,180836944,4220509826000000,18,,-1293746378817330580,-0.025911331176757812,1001.2587299570441,20.256733393475052,8.891874413066075,2977,26,0.0,23567,66088560328013,21,30.3,445.0242004394531,0.2867000102996826,16,-0.0,1902.9177342976868,1.57542003E9,,,,0,,6,0.0,1.57542003E9
Raw,180836944,4220509826000000,18,,-1293746378817330580,-0.025911331176757812,1001.2587299570441,20.256733393475052,8.891874413066075,2977,31,0.0,23567,66088564716458,12,37.1,-144.5346221923828,0.08449999988079071,16,-0.0,1902.9177342976868,1.57542003E9,,,,0,,6,0.0,1.57542003E9
NMEA,$GPGSV,3,1,11,04,00,000,28,08,00,000,30,16,53,320,44,18,58,060,41,1*64
,1613931671803
NMEA,$GPGSV,3,2,11,20,28,119,34,23,21,120,32,26,82,011,37,27,34,274,45,1*6B
,1613931671803
NMEA,$GPGSV,3,3,11,29,15,061,32,31,33,191,31,25,02,122,,1*50
,1613931671803
NMEA,$GLGSV,2,1,05,74,67,158,29,73,16,150,34,85,58,258,34,86,11,232,,1*7E
,1613931671803
NMEA,$GLGSV,2,2,05,68,01,046,,1*40
,1613931671803
NMEA,$GAGSV,2,1,06,01,47,130,40,12,36,219,29,24,22,313,32,26,34,043,30,7*74
,1613931671803
NMEA,$GAGSV,2,2,06,31,73,320,37,33,86,084,,7*74
,1613931671803
NMEA,$GNGSA,A,3,10,16,18,20,23,26,27,29,31,,,,1.0,0.7,0.7,1*34
,1613931671814
NMEA,$GNGSA,A,3,73,74,84,85,,,,,,,,,1.0,0.7,0.7,2*35
,1613931671814
NMEA,$GNGSA,A,3,01,12,24,26,31,33,,,,,,,1.0,0.7,0.7,3*30
,1613931671814
NMEA,$GNVTG,305.0,T,305.0,M,6.2,N,11.4,K,A*0D
,1613931671814
NMEA,$GNDTM,P90,,0000.000025,S,00000.000001,E,0.985,W84*5C
,1613931671814
NMEA,$GNRMC,182111.00,A,3718.281705,N,00555.532101,W,6.2,305.0,210221,4.0,W,A,V*5A
,1613931671814
NMEA,$GNGNS,182111.00,3718.281705,N,00555.532101,W,AAANNN,19,0.7,44.1,51.0,,,V*0A
,1613931671814
NMEA,$GNGGA,182111.00,3718.281705,N,00555.532101,W,1,12,0.7,44.1,M,51.0,M,,*5E
,1613931671814
NMEA,$GPGSV,3,1,11,08,00,000,31,16,53,320,45,18,58,060,35,20,28,119,35,1*6E
,1613931672805
NMEA,$GPGSV,3,2,11,23,21,120,31,25,02,122,28,26,82,011,36,27,34,274,43,1*67
,1613931672805
NMEA,$GPGSV,3,3,11,29,15,061,33,31,33,191,34,10,10,149,,1*5C
,1613931672805
Raw,180837951,4220510820000000,18,,-1293746378816510683,0.7747726440429688,1001.1469712480903,20.178546355875223,8.55072924340626,2978,8,0.0,16399,66089551589137,21,30.5,-524.969482421875,0.2671999931335449,16,-0.0,1902.9177342976868,1.57542003E9,,,,0,,1,0.0,1.57542003E9
Raw,180837952,4220510820000000,18,,-1293746378816510683,0.7747726440429688,1001.1469712480903,20.178546355875223,8.55072924340626,2978,16,0.0,16399,66089566270375,5,44.7,-338.8791198730469,0.026900000870227814,16,-0.0,1902.9177342976868,1.57542003E9,,,,0,,1,0.0,1.57542003E9
Raw,180837952,4220510820000000,18,,-1293746378816510683,0.7747726440429688,1001.1469712480903,20.178546355875223,8.55072924340626,2978,18,0.0,16399,66089567045429,13,34.9,258.4867858886719,0.06560000032186508,16,-0.0,1902.9177342976868,1.57542003E9,,,,0,,1,0.0,1.57542003E9
Raw,180837952,4220510820000000,18,,-1293746378816510683,0.7747726440429688,1001.1469712480903,20.178546355875223,8.55072924340626,2978,20,0.0,16399,66089560072753,13,34.6,-416.30828857421875,0.08509999513626099,16,-0.0,1902.9177342976868,1.57542003E9,,,,0,,1,0.0,1.57542003E9
Raw,180837953,4220510820000000,18,,-1293746378816510683,0.7747726440429688,1001.1469712480903,20.178546355875223,8.55072924340626,2978,23,0.0,16399,66089558192195,19,30.6,-467.0856628417969,0.1907000094652176,16,-0.0,1902.9177342976868,1.57542003E9,,,,0,,1,0.0,1.57542003E9
Raw,180837953,4220510820000000,18,,-1293746378816510683,0.7747726440429688,1001.1469712480903,20.178546355875223,8.55072924340626,2978,25,0.0,16399,66089550657498,27,28.1,626.8558959960938,0.6165000200271606,16,0.0,0.0,1.57542003E9,,,,0,,1,0.0,1.57542003E9
Raw,180837953,4220510820000000,18,,-1293746378816510683,0.7747726440429688,1001.1469712480903,20.178546355875223,8.55072924340626,2978,26,0.0,16399,66089568931402,12,36.3,-29.454763412475586,0.060499999672174454,16,-0.0,1902.9177342976868,1.57542003E9,,,,0,,1,0.0,1.57542003E9
Raw,180837954,4220510820000000,18,,-1293746378816510683,0.7747726440429688,1001.1469712480903,20.178546355875223,8.55072924340626,2978,27,0.0,16399,66089562569185,6,43.4,-392.5174560546875,0.05490000545978546,16,-0.0,1902.9177342976868,1.57542003E9,,,,0,,1,0.0,1.57542003E9
Raw,180837954,4220510820000000,18,,-1293746378816510683,0.7747726440429688,1001.1469712480903,20.178546355875223,8.55072924340626,2978,29,0.0,16399,66089555896592,17,32.5,535.7838745117188,0.11990000307559967,16,-0.0,1902.9177342976868,1.57542003E9,,,,0,,1,0.0,1.57542003E9
Raw,180837954,4220510820000000,18,,-1293746378816510683,0.7747726440429688,1001.1469712480903,20.178546355875223,8.55072924340626,2978,31,0.0,16399,66089560563494,16,33.5,608.2886962890625,0.10439999401569366,16,-0.0,1902.9177342976868,1.57542003E9,,,,0,,1,0.0,1.57542003E9
Raw,180837955,4220510820000000,18,,-1293746378816510683,0.7747726440429688,1001.1469712480903,20.178546355875223,8.55072924340626,2978,9,0.0,49359,76871560256392,27,28.2,782.7423095703125,0.8314999938011169,16,0.0,0.0,1.60087501E9,,,,0,,3,0.0,1.60087501E9
Raw,180837955,4220510820000000,18,,-1293746378816510683,0.7747726440429688,1001.1469712480903,20.178546355875223,8.55072924340626,2978,12,0.0,49359,76871554354797,24,29.9,-790.2482299804688,1.3815001249313354,16,-0.0,1872.002391714177,1.60143744E9,,,,0,,3,0.0,1.60143744E9
Raw,180837955,4220510820000000,18,,-1293746378816510683,0.7747726440429688,1001.1469712480903,20.178546355875223,8.55072924340626,2978,21,0.0,49359,76871570076706,14,34.7,-219.03109741210938,0.2785000205039978,16,-0.0,1868.720428711333,1.60424998E9,,,,0,,3,0.0,1.60424998E9
Raw,180837955,4220510820000000,18,,-1293746378816510683,0.7747726440429688,1001.1469712480903,20.178546355875223,8.55072924340626,2978,1,0.0,23567,66089553476265,12,37.0,349.69110107421875,0.085999995470047,16,-0.0,1902.9177342976868,1.57542003E9,,,,0,,6,0.0,1.57542003E9
Raw,180837955,4220510820000000,18,,-1293746378816510683,0.7747726440429688,1001.1469712480903,20.178546355875223,8.55072924340626,2978,12,0.0,23567,66089557459365,13,36.0,-434.2312927246094,0.09260000288486481,16,-0.0,1902.9177342976868,1.57542003E9,,,,0,,6,0.0,1.57542003E9
Raw,180837956,4220510820000000,18,,-1293746378816510683,0.7747726440429688,1001.1469712480903,20.178546355875223,8.55072924340626,2978,24,0.0,23567,66089547320519,16,33.7,-482.4180908203125,0.10889999568462372,16,-0.0,1902.9177342976868,1.57542003E9,,,,0,,6,0.0,1.57542003E9
Raw,180837956,4220510820000000,18,,-1293746378816510683,0.7747726440429688,1001.1469712480903,20.178546355875223,8.55072924340626,2978,31,0.0,23567,66089557897041,13,35.6,-145.92881774902344,0.08659999817609787,16,-0.0,1902.9177342976868,1.57542003E9,,,,0,,6,0.0,1.57542003E9
Raw,180837956,4220510820000000,18,,-1293746378816510683,0.7747726440429688,1001.1469712480903,20.178546355875223,8.55072924340626,2978,33,0.0,23567,66089558525112,21,31.2,21.36753273010254,0.28369998931884766,16,-0.0,1902.9177342976868,1.57542003E9,,,,0,,6,0.0,1.57542003E9
NMEA,$GLGSV,2,1,06,73,16,150,28,76,00,000,30,85,58,258,35,86,11,232,,1*76
,1613931672805
NMEA,$GLGSV,2,2,06,84,47,022,,68,01,046,,1*7C
,1613931672805
NMEA,$GAGSV,2,1,05,01,47,130,37,12,36,219,36,24,22,313,34,31,73,320,36,7*7A
,1613931672805
NMEA,$GAGSV,2,2,05,33,86,084,31,7*46
,1613931672805
NMEA,$GNGSA,A,3,10,16,18,20,23,26,27,29,31,,,,1.0,0.7,0.7,1*34
,1613931672812
NMEA,$GNGSA,A,3,73,74,84,85,,,,,,,,,1.0,0.7,0.7,2*35
,1613931672812
NMEA,$GNGSA,A,3,01,12,24,26,31,33,,,,,,,1.0,0.7,0.7,3*30
,1613931672812
NMEA,$GNVTG,307.1,T,307.1,M,8.5,N,15.7,K,A*03
,1613931672812
NMEA,$GNDTM,P90,,0000.000025,S,00000.000001,E,0.985,W84*5C
,1613931672812
NMEA,$GNRMC,182112.00,A,3718.282906,N,00555.534077,W,8.5,307.1,210221,4.0,W,A,V*5B
,1613931672812
NMEA,$GNGNS,182112.00,3718.282906,N,00555.534077,W,AAANNN,19,0.7,43.7,51.0,,,V*00
,1613931672812
NMEA,$GNGGA,182112.00,3718.282906,N,00555.534077,W,1,12,0.7,43.7,M,51.0,M,,*54
,1613931672812
Fix,gps,37.304715,-5.925568,94.665039,4.350000,3.790092,1613931672000
Raw,180838936,4220511832000000,18,,-1293746378815690908,0.998504638671875,1001.2390557676554,16.427954387411948,8.608751192357662,2979,16,0.0,16399,66090577451786,5,44.0,-340.4892578125,0.04540000110864639,16,-0.0,1902.9177342976868,1.57542003E9,,,,0,,1,0.0,1.57542003E9
Raw,180838937,4220511832000000,18,,-1293746378815690908,0.998504638671875,1001.2390557676554,16.427954387411948,8.608751192357662,2979,18,0.0,16399,66090578224793,9,38.8,257.5555725097656,0.061500001698732376,16,-0.0,1902.9177342976868,1.57542003E9,,,,0,,1,0.0,1.57542003E9
Raw,180838937,4220511832000000,18,,-1293746378815690908,0.998504638671875,1001.2390557676554,16.427954387411948,8.608751192357662,2979,20,0.0,16399,66090571254448,12,35.6,-415.9670104980469,0.06499999761581421,16,-0.0,1902.9177342976868,1.57542003E9,,,,0,,1,0.0,1.57542003E9
Raw,180838937,4220511832000000,18,,-1293746378815690908,0.998504638671875,1001.2390557676554,16.427954387411948,8.608751192357662,2979,23,0.0,16399,66090569374083,24,29.3,-467.55242919921875,1.1740000247955322,16,-0.0,1902.9177342976868,1.57542003E9,,,,0,,1,0.0,1.57542003E9
Raw,180838938,4220511832000000,18,,-1293746378815690908,0.998504638671875,1001.2390557676554,16.427954387411948,8.608751192357662,2979,26,0.0,16399,66090580111766,19,30.7,-31.270523071289062,0.19370000064373016,16,-0.0,1902.9177342976868,1.57542003E9,,,,0,,1,0.0,1.57542003E9
Raw,180838938,4220511832000000,18,,-1293746378815690908,0.998504638671875,1001.2390557676554,16.427954387411948,8.608751192357662,2979,27,0.0,16399,66090573750776,5,43.7,-393.9034423828125,0.03940000385046005,16,-0.0,1902.9177342976868,1.57542003E9,,,,0,,1,0.0,1.57542003E9
Raw,180838938,4220511832000000,18,,-1293746378815690908,0.998504638671875,1001.2390557676554,16.427954387411948,8.608751192357662,2979,29,0.0,16399,66090567075030,14,33.7,535.0070190429688,0.07400000095367432,16,-0.0,1902.9177342976868,1.57542003E9,,,,0,,1,0.0,1.57542003E9
Raw,180838939,4220511832000000,18,,-1293746378815690908,0.998504638671875,1001.2390557676554,16.427954387411948,8.608751192357662,2979,9,0.0,49359,76872571433959,19,31.9,782.9365844726562,0.38020002841949463,16,-0.0,1872.6600783192619,1.60087501E9,,,,0,,3,0.0,1.60087501E9
Raw,180838939,4220511832000000,18,,-1293746378815690908,0.998504638671875,1001.2390557676554,16.427954387411948,8.608751192357662,2979,21,0.0,49359,76872581257772,13,35.9,-219.57789611816406,0.2865999937057495,16,-0.0,1868.720428711333,1.60424998E9,,,,0,,3,0.0,1.60424998E9
Raw,180838939,4220511832000000,18,,-1293746378815690908,0.998504638671875,1001.2390557676554,16.427954387411948,8.608751192357662,2979,1,0.0,23567,66090564655349,11,38.1,349.26434326171875,0.07320000231266022,16,-0.0,1902.9177342976868,1.57542003E9,,,,0,,6,0.0,1.57542003E9
