$GPGGA,184101.823,,,,,0,00,,,M,0.0,M,,0000*52<CR><LF>
$GPGSA,A,1,,,,,,,,,,,,,,,*1E<CR><LF>
$GPRMC,184101.823,V,,,,,,,240221,,*2C<CR><LF>
$GPGGA,184102.823,,,,,0,00,,,M,0.0,M,,0000*51<CR><LF>
$GPGSA,A,1,,,,,,,,,,,,,,,*1E<CR><LF>
$GPRMC,184102.823,V,,,,,,,240221,,*2F<CR><LF>
$GPGGA,184103.823,,,,,0,00,,,M,0.0,M,,0000*50<CR><LF>
$GPGSA,A,1,,,,,,,,,,,,,,,*1E<CR><LF>
$GPRMC,184103.823,V,,,,,,,240221,,*2E<CR><LF>
$GPGGA,184104.823,,,,,0,00,,,M,0.0,M,,0000*57<CR><LF>
$GPGSA,A,1,,,,,,,,,,,,,,,*1E<CR><LF>
$GPGSV,3,1,12,26,69,000,,18,62,000,47,20,60,000,,23,54,000,*79<CR><LF>
$GPGSV,3,2,12,16,47,000,45,10,33,000,,29,28,000,31,27,20,000,*7B<CR><LF>
$GPGSV,3,3,12,31,13,000,43,25,06,000,,15,06,000,,05,-3,000,*65<CR><LF>
$GPRMC,184104.823,V,,,,,,,240221,,*29<CR><LF>
$GPGGA,184105.821,3718.3204,N,00555.5713,W,1,03,2.4,-49.5,M,49.5,M,,0000*59<CR><LF>
$GPGSA,A,2,31,16,18,,,,,,,,,,2.6,2.4,1.0*3C<CR><LF>
$GPRMC,184105.821,A,3718.3204,N,00555.5713,W,18.40,330.70,240221,,*23<CR><LF>
$GPGGA,184106.821,3718.3254,N,00555.5749,W,1,03,2.4,-49.5,M,49.5,M,,0000*50<CR><LF>
$GPGSA,A,2,31,16,18,,,,,,,,,,2.6,2.4,1.0*3C<CR><LF>
$GPRMC,184106.821,A,3718.3254,N,00555.5749,W,20.85,330.62,240221,,*2B<CR><LF>
$GPGGA,184107.821,3718.3318,N,00555.5794,W,1,03,2.4,-49.5,M,49.5,M,,0000*58<CR><LF>
$GPGSA,A,2,31,16,18,,,,,,,,,,2.6,2.4,1.0*3C<CR><LF>
$GPRMC,184107.821,A,3718.3318,N,00555.5794,W,23.40,330.00,240221,,*2D<CR><LF>
$GPGGA,184108.821,3718.3379,N,00555.5861,W,1,03,2.4,-49.5,M,49.5,M,,0000*55<CR><LF>
$GPGSA,A,2,31,16,18,,,,,,,,,,2.6,2.4,1.0*3C<CR><LF>
$GPRMC,184108.821,A,3718.3379,N,00555.5861,W,25.00,329.95,240221,,*26<CR><LF>
$GPGGA,184109.821,3718.3435,N,00555.5878,W,1,03,2.4,-49.5,M,49.5,M,,0000*53<CR><LF>
$GPGSA,A,2,31,16,18,,,,,,,,,,2.6,2.4,1.0*3C<CR><LF>
$GPGSV,3,1,10,16,68,329,46,18,45,048,49,31,19,187,43,26,77,126,48*7E<CR><LF>
$GPGSV,3,2,10,27,44,291,46,20,36,104,42,23,31,106,41,10,22,140,42*73<CR><LF>
$GPGSV,3,3,10,08,11,273,31,29,05,073,39*74<CR><LF>
$GPRMC,184109.821,A,3718.3435,N,00555.5878,W,25.54,330.26,240221,,*21<CR><LF>
$GPGGA,184110.821,3718.3497,N,00555.5933,W,1,03,2.4,-49.5,M,49.5,M,,0000*5D<CR><LF>
$GPGSA,A,2,31,16,18,,,,,,,,,,2.6,2.4,1.0*3C<CR><LF>
$GPRMC,184110.821,A,3718.3497,N,00555.5933,W,26.46,329.94,240221,,*2E<CR><LF>
$GPGGA,184111.821,3718.3568,N,00555.6005,W,1,03,2.4,-49.5,M,49.5,M,,0000*52<CR><LF>
$GPGSA,A,2,31,16,18,,,,,,,,,,2.6,2.4,1.0*3C<CR><LF>
$GPRMC,184111.821,A,3718.3568,N,00555.6005,W,27.97,330.19,240221,,*21<CR><LF>
$GPGGA,184112.848,,,,,0,00,3.3,,M,0.0,M,,0000*73<CR><LF>
$GPGSA,A,1,,,,,,,,,,,,,3.5,3.3,1.0*37<CR><LF>
$GPRMC,184112.848,V,,,,,,,240221,,*23<CR><LF>
$GPGGA,184113.848,,,,,0,00,3.3,,M,0.0,M,,0000*72<CR><LF>
$GPGSA,A,1,,,,,,,,,,,,,3.5,3.3,1.0*37<CR><LF>
$GPRMC,184113.848,V,,,,,,,240221,,*22<CR><LF>
$GPGGA,184114.848,,,,,0,00,3.3,,M,0.0,M,,0000*75<CR><LF>
$GPGSA,A,1,,,,,,,,,,,,,3.5,3.3,1.0*37<CR><LF>
$GPGSV,3,1,10,16,68,329,46,18,45,048,48,31,19,187,43,26,77,126,48*7F<CR><LF>
$GPGSV,3,2,10,27,44,291,46,20,36,104,42,23,31,106,41,10,22,140,42*73<CR><LF>
$GPGSV,3,3,10,08,11,273,31,29,05,073,39*74<CR><LF>
$GPRMC,184114.848,V,,,,,,,240221,,*25<CR><LF>
$GPGGA,184115.848,,,,,0,00,3.3,,M,0.0,M,,0000*74<CR><LF>
$GPGSA,A,1,,,,,,,,,,,,,3.5,3.3,1.0*37<CR><LF>
$GPRMC,184115.848,V,,,,,,,240221,,*24<CR><LF>
$GPGGA,184116.848,,,,,0,00,3.3,,M,0.0,M,,0000*77<CR><LF>
$GPGSA,A,1,,,,,,,,,,,,,3.5,3.3,1.0*37<CR><LF>
$GPRMC,184116.848,V,,,,,,,240221,,*27<CR><LF>
$GPGGA,184117.848,,,,,0,00,3.3,,M,0.0,M,,0000*76<CR><LF>
$GPGSA,A,1,,,,,,,,,,,,,3.5,3.3,1.0*37<CR><LF>
$GPRMC,184117.848,V,,,,,,,240221,,*26<CR><LF>
$GPGGA,184118.848,,,,,0,00,3.3,,M,0.0,M,,0000*79<CR><LF>
$GPGSA,A,1,,,,,,,,,,,,,3.5,3.3,1.0*37<CR><LF>
$GPRMC,184118.848,V,,,,,,,240221,,*29<CR><LF>
$GPGGA,184119.848,,,,,0,00,3.3,,M,0.0,M,,0000*78<CR><LF>
$GPGSA,A,1,,,,,,,,,,,,,3.5,3.3,1.0*37<CR><LF>
$GPGSV,3,1,10,16,68,329,46,18,45,048,49,31,19,187,43,26,77,126,48*7E<CR><LF>
$GPGSV,3,2,10,27,44,291,46,20,36,104,43,23,31,106,41,10,22,140,42*72<CR><LF>
$GPGSV,3,3,10,08,11,273,31,29,05,073,39*74<CR><LF>
$GPRMC,184119.848,V,,,,,,,240221,,*28<CR><LF>
$GPGGA,184120.847,,,,,0,00,3.3,,M,0.0,M,,0000*7D<CR><LF>
$GPGSA,A,1,,,,,,,,,,,,,3.5,3.3,1.0*37<CR><LF>
$GPRMC,184120.847,V,,,,,,,240221,,*2D<CR><LF>
$GPGGA,184121.847,,,,,0,00,3.3,,M,0.0,M,,0000*7C<CR><LF>
$GPGSA,A,1,,,,,,,,,,,,,3.5,3.3,1.0*37<CR><LF>
$GPRMC,184121.847,V,,,,,,,240221,,*2C<CR><LF>
$GPGGA,184122.851,,,,,0,00,3.3,,M,0.0,M,,0000*78<CR><LF>
$GPGSA,A,1,,,,,,,,,,,,,3.5,3.3,1.0*37<CR><LF>
$GPRMC,184122.851,V,,,,,,,240221,,*28<CR><LF>
$GPGGA,184123.851,,,,,0,00,3.3,,M,0.0,M,,0000*79<CR><LF>
$GPGSA,A,1,,,,,,,,,,,,,3.5,3.3,1.0*37<CR><LF>
$GPRMC,184123.851,V,,,,,,,240221,,*29<CR><LF>
$GPGGA,184124.847,,,,,0,00,3.3,,M,0.0,M,,0000*79<CR><LF>
$GPGSA,A,1,,,,,,,,,,,,,3.5,3.3,1.0*37<CR><LF>
$GPGSV,3,1,10,16,68,329,46,18,45,048,49,31,19,187,43,26,77,126,48*7E<CR><LF>
$GPGSV,3,2,10,27,44,291,45,20,36,104,44,23,31,106,42,10,22,140,43*74<CR><LF>
$GPGSV,3,3,10,08,11,273,31,29,05,073,27*7B<CR><LF>
$GPRMC,184124.847,V,,,,,,,240221,,*29<CR><LF>
$GPGGA,184125.851,,,,,0,00,3.3,,M,0.0,M,,0000*7F<CR><LF>
$GPGSA,A,1,,,,,,,,,,,,,3.5,3.3,1.0*37<CR><LF>
$GPRMC,184125.851,V,,,,,,,240221,,*2F<CR><LF>
$GPGGA,184126.851,,,,,0,00,3.3,,M,0.0,M,,0000*7C<CR><LF>
$GPGSA,A,1,,,,,,,,,,,,,3.5,3.3,1.0*37<CR><LF>
$GPRMC,184126.851,V,,,,,,,240221,,*2C<CR><LF>
$GPGGA,184127.851,,,,,0,00,3.3,,M,0.0,M,,0000*7D<CR><LF>
$GPGSA,A,1,,,,,,,,,,,,,3.5,3.3,1.0*37<CR><LF>
$GPRMC,184127.851,V,,,,,,,240221,,*2D<CR><LF>
$GPGGA,184128.851,,,,,0,00,3.3,,M,0.0,M,,0000*72<CR><LF>
$GPGSA,A,1,,,,,,,,,,,,,3.5,3.3,1.0*37<CR><LF>
$GPRMC,184128.851,V,,,,,,,240221,,*22<CR><LF>
$GPGGA,184129.825,3718.5009,N,00555.7045,W,1,03,2.4,-49.5,M,49.5,M,,0000*5C<CR><LF>
$GPGSA,A,2,31,16,18,,,,,,,,,,2.6,2.4,1.0*3C<CR><LF>
$GPGSV,3,1,10,16,68,329,46,18,45,048,49,31,19,187,43,26,77,126,48*7E<CR><LF>
$GPGSV,3,2,10,27,44,291,45,20,36,104,44,23,31,106,43,10,22,140,43*75<CR><LF>
$GPGSV,3,3,10,08,11,273,31,29,05,073,40*7A<CR><LF>
$GPRMC,184129.825,A,3718.5009,N,00555.7045,W,28.34,329.95,240221,,*25<CR><LF>
$GPGGA,184130.825,3718.5073,N,00555.7093,W,1,03,2.4,-49.5,M,49.5,M,,0000*52<CR><LF>
$GPGSA,A,2,31,16,18,,,,,,,,,,2.6,2.4,1.0*3C<CR><LF>
$GPRMC,184130.825,A,3718.5073,N,00555.7093,W,27.12,329.23,240221,,*2D<CR><LF>
$GPGGA,184131.825,3718.5133,N,00555.7146,W,1,03,2.4,-49.5,M,49.5,M,,0000*5F<CR><LF>
$GPGSA,A,2,31,16,18,,,,,,,,,,2.6,2.4,1.0*3C<CR><LF>
$GPRMC,184131.825,A,3718.5133,N,00555.7146,W,26.01,325.29,240221,,*25<CR><LF>
$GPGGA,184132.825,3718.5187,N,00555.7201,W,1,03,2.4,-49.5,M,49.5,M,,0000*53<CR><LF>
$GPGSA,A,2,31,16,18,,,,,,,,,,2.6,2.4,1.0*3C<CR><LF>
$GPRMC,184132.825,A,3718.5187,N,00555.7201,W,25.01,320.63,240221,,*21<CR><LF>
$GPGGA,184133.825,3718.5234,N,00555.7261,W,1,03,2.4,-49.5,M,49.5,M,,0000*5F<CR><LF>
$GPGSA,A,2,31,16,18,,,,,,,,,,2.6,2.4,1.0*3C<CR><LF>
$GPRMC,184133.825,A,3718.5234,N,00555.7261,W,24.24,314.91,240221,,*21<CR><LF>
$GPGGA,184134.825,3718.5274,N,00555.7319,W,1,03,2.4,-49.5,M,49.5,M,,0000*52<CR><LF>
$GPGSA,A,2,31,16,18,,,,,,,,,,2.6,2.4,1.0*3C<CR><LF>
$GPGSV,3,1,10,16,69,329,46,18,45,048,48,31,19,187,43,26,77,126,48*7E<CR><LF>
$GPGSV,3,2,10,27,44,291,45,20,36,104,45,23,31,106,43,10,22,140,44*73<CR><LF>
$GPGSV,3,3,10,08,11,273,36,29,05,073,39*73<CR><LF>
$GPRMC,184134.825,A,3718.5274,N,00555.7319,W,22.08,310.45,240221,,*29<CR><LF>
$GPGGA,184135.825,3718.5061,N,00555.7104,W,1,09,1.1,52.5,M,49.5,M,,0000*70<CR><LF>
$GPGSA,A,3,31,16,18,29,26,27,20,23,10,,,,1.9,1.1,1.5*3A<CR><LF>
$GPRMC,184135.825,A,3718.5061,N,00555.7104,W,20.10,310.22,240221,,*2A<CR><LF>
$GPGGA,184137.000,3718.5111,N,00555.7148,W,1,09,1.1,52.0,M,49.5,M,,0000*76<CR><LF>
$GPGSA,A,3,31,16,18,29,26,27,20,23,10,,,,1.9,1.1,1.5*3A<CR><LF>
$GPRMC,184137.000,A,3718.5111,N,00555.7148,W,18.35,324.29,240221,,*29<CR><LF>
$GPGGA,184138.000,3718.5158,N,00555.7168,W,1,09,1.1,52.1,M,49.5,M,,0000*77<CR><LF>
$GPGSA,A,3,31,16,18,29,26,27,20,23,10,,,,1.9,1.1,1.5*3A<CR><LF>
$GPRMC,184138.000,A,3718.5158,N,00555.7168,W,18.41,346.34,240221,,*22<CR><LF>
$GPGGA,184139.000,3718.5213,N,00555.7174,W,1,09,1.1,52.1,M,49.5,M,,0000*77<CR><LF>
$GPGSA,A,3,31,16,18,29,26,27,20,23,10,,,,1.9,1.1,1.5*3A<CR><LF>
$GPRMC,184139.000,A,3718.5213,N,00555.7174,W,20.15,357.72,240221,,*2A<CR><LF>
$GPGGA,184140.000,3718.5273,N,00555.7176,W,1,09,1.1,52.1,M,49.5,M,,0000*7D<CR><LF>
$GPGSA,A,3,31,16,18,29,26,27,20,23,10,,,,1.9,1.1,1.5*3A<CR><LF>
$GPGSV,3,1,10,26,77,127,48,16,69,329,46,18,45,048,48,27,45,291,45*73<CR><LF>
$GPGSV,3,2,10,20,36,104,45,23,31,106,43,10,23,140,43,31,19,186,44*7E<CR><LF>
$GPGSV,3,3,10,29,05,073,45,08,11,273,37*79<CR><LF>
$GPRMC,184140.000,A,3718.5273,N,00555.7176,W,21.85,356.16,240221,,*2B<CR><LF>
$GPGGA,184141.000,3718.5335,N,00555.7187,W,1,09,1.1,52.3,M,49.5,M,,0000*73<CR><LF>
$GPGSA,A,3,31,16,18,29,26,27,20,23,10,,,,1.9,1.1,1.5*3A<CR><LF>
$GPRMC,184141.000,A,3718.5335,N,00555.7187,W,22.86,348.05,240221,,*2A<CR><LF>
$GPGGA,184142.000,3718.5397,N,00555.7212,W,1,09,1.1,52.5,M,49.5,M,,0000*71<CR><LF>
$GPGSA,A,3,31,16,18,29,26,27,20,23,10,,,,1.9,1.1,1.5*3A<CR><LF>
$GPRMC,184142.000,A,3718.5397,N,00555.7212,W,23.41,337.42,240221,,*2F<CR><LF>
$GPGGA,184143.000,3718.5454,N,00555.7253,W,1,09,1.1,52.8,M,49.5,M,,0000*70<CR><LF>
$GPGSA,A,3,31,16,18,29,26,27,20,23,10,,,,1.9,1.1,1.5*3A<CR><LF>
$GPRMC,184143.000,A,3718.5454,N,00555.7253,W,23.95,326.33,240221,,*2C<CR><LF>
$GPGGA,184144.000,3718.5506,N,00555.7308,W,1,09,1.1,53.1,M,49.5,M,,0000*76<CR><LF>
$GPGSA,A,3,31,16,18,29,26,27,20,23,10,,,,1.9,1.1,1.5*3A<CR><LF>
$GPRMC,184144.000,A,3718.5506,N,00555.7308,W,24.02,316.15,240221,,*2C<CR><LF>
$GPGGA,184145.000,3718.5552,N,00555.7369,W,1,09,1.1,53.3,M,49.5,M,,0000*73<CR><LF>
$GPGSA,A,3,31,16,18,29,26,27,20,23,10,,,,1.9,1.1,1.5*3A<CR><LF>
$GPGSV,3,1,10,26,77,127,48,16,69,329,46,18,45,048,48,27,45,291,45*73<CR><LF>
$GPGSV,3,2,10,20,36,104,45,23,31,106,44,10,23,140,44,31,19,186,44*7E<CR><LF>
$GPGSV,3,3,10,29,05,073,35,08,11,273,34*7D<CR><LF>
$GPRMC,184145.000,A,3718.5552,N,00555.7369,W,23.84,312.22,240221,,*22<CR><LF>
$GPGGA,184146.000,3718.5598,N,00555.7428,W,1,09,1.1,53.5,M,49.5,M,,0000*72<CR><LF>
$GPGSA,A,3,31,16,18,29,26,27,20,23,10,,,,1.9,1.1,1.5*3A<CR><LF>
$GPRMC,184146.000,A,3718.5598,N,00555.7428,W,23.43,318.94,240221,,*29<CR><LF>
$GPGGA,184147.000,3718.5652,N,00555.7475,W,1,09,1.1,53.7,M,49.5,M,,0000*7C<CR><LF>
$GPGSA,A,3,31,16,18,29,26,27,20,23,10,,,,1.9,1.1,1.5*3A<CR><LF>
$GPRMC,184147.000,A,3718.5652,N,00555.7475,W,23.62,331.85,240221,,*2D<CR><LF>
$GPGGA,184148.000,3718.5715,N,00555.7507,W,1,09,1.1,53.9,M,49.5,M,,0000*7B<CR><LF>
$GPGSA,A,3,31,16,18,29,26,27,20,23,10,,,,1.9,1.1,1.5*3A<CR><LF>
$GPRMC,184148.000,A,3718.5715,N,00555.7507,W,24.96,342.21,240221,,*22<CR><LF>
$GPGGA,184149.000,3718.5784,N,00555.7536,W,1,09,1.1,54.1,M,49.5,M,,0000*7F<CR><LF>
$GPGSA,A,3,31,16,18,29,26,27,20,23,10,,,,1.9,1.1,1.5*3A<CR><LF>
$GPRMC,184149.000,A,3718.5784,N,00555.7536,W,26.65,340.73,240221,,*22<CR><LF>
$GPGGA,184150.000,3718.5854,N,00555.7572,W,1,09,1.1,54.2,M,49.5,M,,0000*76<CR><LF>
$GPGSA,A,3,31,16,18,29,26,27,20,23,10,,,,1.9,1.1,1.5*3A<CR><LF>
$GPGSV,3,1,10,26,77,127,48,16,69,329,46,18,45,048,48,27,45,292,45*70<CR><LF>
$GPGSV,3,2,10,20,36,104,45,23,31,106,43,10,23,140,43,31,19,186,44*7E<CR><LF>
$GPGSV,3,3,10,08,11,273,35,29,05,073,37*7E<CR><LF>
$GPRMC,184150.000,A,3718.5854,N,00555.7572,W,28.02,334.76,240221,,*21<CR><LF>
$GPGGA,184151.000,3718.5926,N,00555.7618,W,1,09,1.1,54.4,M,49.5,M,,0000*7A<CR><LF>
$GPGSA,A,3,31,16,18,29,26,27,20,23,10,,,,1.9,1.1,1.5*3A<CR><LF>
$GPRMC,184151.000,A,3718.5926,N,00555.7618,W,29.24,331.06,240221,,*2C<CR><LF>
$GPGGA,184152.000,3718.5997,N,00555.7669,W,1,09,1.1,54.5,M,49.5,M,,0000*74<CR><LF>
$GPGSA,A,3,31,16,18,29,26,27,20,23,10,,,,1.9,1.1,1.5*3A<CR><LF>
$GPRMC,184152.000,A,3718.5997,N,00555.7669,W,29.37,330.29,240221,,*2D<CR><LF>
$GPGGA,184153.000,3718.6070,N,00555.7721,W,1,09,1.1,54.7,M,49.5,M,,0000*79<CR><LF>
$GPGSA,A,3,31,16,18,29,26,27,20,23,10,,,,1.9,1.1,1.5*3A<CR><LF>
$GPRMC,184153.000,A,3718.6070,N,00555.7721,W,30.29,330.16,240221,,*29<CR><LF>
$GPGGA,184154.000,3718.6145,N,00555.7776,W,1,09,1.1,54.8,M,49.5,M,,0000*74<CR><LF>
$GPGSA,A,3,31,16,18,29,26,27,20,23,10,,,,1.9,1.1,1.5*3A<CR><LF>
$GPRMC,184154.000,A,3718.6145,N,00555.7776,W,31.95,330.04,240221,,*2E<CR><LF>
$GPGGA,184155.000,3718.6225,N,00555.7834,W,1,09,1.1,55.0,M,49.5,M,,0000*70<CR><LF>
$GPGSA,A,3,31,16,18,29,26,27,20,23,10,,,,1.9,1.1,1.5*3A<CR><LF>
$GPGSV,3,1,10,26,77,127,48,16,69,329,46,18,45,048,48,27,45,292,45*70<CR><LF>
$GPGSV,3,2,10,20,36,104,45,23,31,106,43,10,23,140,43,31,19,186,43*79<CR><LF>
$GPGSV,3,3,10,08,11,273,29,29,05,073,37*73<CR><LF>
$GPRMC,184155.000,A,3718.6225,N,00555.7834,W,33.39,329.81,240221,,*22<CR><LF>
$GPGGA,184156.000,3718.6307,N,00555.7894,W,1,09,1.1,55.1,M,49.5,M,,0000*79<CR><LF>
$GPGSA,A,3,31,16,18,29,26,27,20,23,10,,,,1.9,1.1,1.5*3A<CR><LF>
$GPRMC,184156.000,A,3718.6307,N,00555.7894,W,34.48,329.64,240221,,*20<CR><LF>
$GPGGA,184157.000,3718.6391,N,00555.7956,W,1,09,1.1,55.3,M,49.5,M,,0000*7A<CR><LF>
$GPGSA,A,3,31,16,18,29,26,27,20,23,10,,,,1.9,1.1,1.5*3A<CR><LF>
$GPRMC,184157.000,A,3718.6391,N,00555.7956,W,35.26,329.85,240221,,*27<CR><LF>
$GPGGA,184158.000,3718.6477,N,00555.8018,W,1,09,1.1,55.4,M,49.5,M,,0000*71<CR><LF>
$GPGSA,A,3,31,16,18,29,26,27,20,23,10,,,,1.9,1.1,1.5*3A<CR><LF>
$GPRMC,184158.000,A,3718.6477,N,00555.8018,W,35.77,329.94,240221,,*2F<CR><LF>
$GPGGA,184159.000,3718.6564,N,00555.8081,W,1,09,1.1,55.6,M,49.5,M,,0000*71<CR><LF>
$GPGSA,A,3,31,16,18,29,26,27,20,23,10,,,,1.9,1.1,1.5*3A<CR><LF>
$GPRMC,184159.000,A,3718.6564,N,00555.8081,W,36.08,330.03,240221,,*20<CR><LF>
$GPGGA,184200.000,3718.6652,N,00555.8145,W,1,09,1.1,55.7,M,49.5,M,,0000*70<CR><LF>
$GPGSA,A,3,31,16,18,29,26,27,20,23,10,,,,1.9,1.1,1.5*3A<CR><LF>
$GPGSV,3,1,10,26,77,127,47,16,69,329,45,18,45,048,49,27,45,292,45*7D<CR><LF>
$GPGSV,3,2,10,20,36,104,44,23,31,106,43,10,23,140,43,31,19,186,43*78<CR><LF>
$GPGSV,3,3,10,08,11,273,29,29,05,073,35*71<CR><LF>
$GPRMC,184200.000,A,3718.6652,N,00555.8145,W,36.36,330.06,240221,,*28<CR><LF>
$GPGGA,184201.000,3718.6740,N,00555.8209,W,1,09,1.1,55.8,M,49.5,M,,0000*77<CR><LF>
$GPGSA,A,3,31,16,18,29,26,27,20,23,10,,,,1.9,1.1,1.5*3A<CR><LF>
$GPRMC,184201.000,A,3718.6740,N,00555.8209,W,36.52,330.02,240221,,*26<CR><LF>
$GPGGA,184202.000,3718.6829,N,00555.8273,W,1,09,1.1,55.9,M,49.5,M,,0000*78<CR><LF>
$GPGSA,A,3,31,16,18,29,26,27,20,23,10,,,,1.9,1.1,1.5*3A<CR><LF>
$GPRMC,184202.000,A,3718.6829,N,00555.8273,W,36.63,330.01,240221,,*29<CR><LF>
$GPGGA,184203.000,3718.6918,N,00555.8337,W,1,09,1.1,55.9,M,49.5,M,,0000*7B<CR><LF>
$GPGSA,A,3,31,16,18,29,26,27,20,23,10,,,,1.9,1.1,1.5*3A<CR><LF>
$GPRMC,184203.000,A,3718.6918,N,00555.8337,W,36.72,329.95,240221,,*2F<CR><LF>
$GPGGA,184204.000,3718.7007,N,00555.8402,W,1,09,1.1,55.9,M,49.5,M,,0000*7B<CR><LF>
$GPGSA,A,3,31,16,18,29,26,27,20,23,10,,,,1.9,1.1,1.5*3A<CR><LF>
$GPRMC,184204.000,A,3718.7007,N,00555.8402,W,36.85,329.90,240221,,*22<CR><LF>
$GPGGA,184205.000,3718.7096,N,00555.8467,W,1,09,1.1,55.8,M,49.5,M,,0000*70<CR><LF>
$GPGSA,A,3,31,16,18,29,26,27,20,23,10,,,,1.9,1.1,1.5*3A<CR><LF>
$GPGSV,3,1,10,26,77,127,48,16,69,329,46,18,45,048,49,27,45,292,45*71<CR><LF>
$GPGSV,3,2,10,20,36,104,44,23,31,106,43,10,23,140,43,31,19,186,43*78<CR><LF>
$GPGSV,3,3,10,08,11,273,30,29,05,073,38*74<CR><LF>
$GPRMC,184205.000,A,3718.7096,N,00555.8467,W,36.91,329.81,240221,,*2D<CR><LF>
$GPGGA,184206.000,3718.7185,N,00555.8532,W,1,09,1.1,55.7,M,49.5,M,,0000*7E<CR><LF>
$GPGSA,A,3,31,16,18,29,26,27,20,23,10,,,,1.9,1.1,1.5*3A<CR><LF>
$GPRMC,184206.000,A,3718.7185,N,00555.8532,W,36.97,329.99,240221,,*23<CR><LF>
$GPGGA,184207.000,3718.7275,N,00555.8596,W,1,09,1.1,55.5,M,49.5,M,,0000*7F<CR><LF>
$GPGSA,A,3,31,16,18,29,26,27,20,23,10,,,,1.9,1.1,1.5*3A<CR><LF>
$GPRMC,184207.000,A,3718.7275,N,00555.8596,W,36.95,330.09,240221,,*23<CR><LF>
$GPGGA,184208.000,3718.7364,N,00555.8661,W,1,09,1.1,55.2,M,49.5,M,,0000*7D<CR><LF>
$GPGSA,A,3,31,16,18,29,26,27,20,23,10,,,,1.9,1.1,1.5*3A<CR><LF>
$GPRMC,184208.000,A,3718.7364,N,00555.8661,W,36.93,330.06,240221,,*2F<CR><LF>
$GPGGA,184209.000,3718.7454,N,00555.8725,W,1,09,1.1,54.9,M,49.5,M,,0000*73<CR><LF>
$GPGSA,A,3,31,16,18,29,26,27,20,23,10,,,,1.9,1.1,1.5*3A<CR><LF>
$GPRMC,184209.000,A,3718.7454,N,00555.8725,W,36.78,330.10,240221,,*29<CR><LF>
$GPGGA,184210.000,3718.7542,N,00555.8789,W,1,09,1.1,54.6,M,49.5,M,,0000*74<CR><LF>
$GPGSA,A,3,31,16,18,29,26,27,20,23,10,,,,1.9,1.1,1.5*3A<CR><LF>
$GPGSV,3,1,10,26,77,127,48,16,69,329,46,18,45,048,49,27,45,292,46*72<CR><LF>
$GPGSV,3,2,10,20,36,104,43,23,31,106,42,10,23,140,42,31,19,186,43*7F<CR><LF>
$GPGSV,3,3,10,08,11,273,30,29,05,073,36*7A<CR><LF>
$GPRMC,184210.000,A,3718.7542,N,00555.8789,W,36.29,330.05,240221,,*21<CR><LF>
$GPGGA,184211.000,3718.7628,N,00555.8851,W,1,09,1.1,54.3,M,49.5,M,,0000*75<CR><LF>
$GPGSA,A,3,31,16,18,29,26,27,20,23,10,,,,1.9,1.1,1.5*3A<CR><LF>
$GPRMC,184211.000,A,3718.7628,N,00555.8851,W,34.88,329.95,240221,,*2D<CR><LF>
$GPGGA,184212.000,3718.7709,N,00555.8910,W,1,09,1.1,54.0,M,49.5,M,,0000*73<CR><LF>
$GPGSA,A,3,31,16,18,29,26,27,20,23,10,,,,1.9,1.1,1.5*3A<CR><LF>
$GPRMC,184212.000,A,3718.7709,N,00555.8910,W,32.47,329.71,240221,,*27<CR><LF>
$GPGGA,184213.000,3718.7784,N,00555.8965,W,1,09,1.1,53.7,M,49.5,M,,0000*75<CR><LF>
$GPGSA,A,3,31,16,18,29,26,27,20,23,10,,,,1.9,1.1,1.5*3A<CR><LF>
$GPRMC,184213.000,A,3718.7784,N,00555.8965,W,29.69,329.58,240221,,*2C<CR><LF>
$GPGGA,184214.000,3718.7853,N,00555.9015,W,1,09,1.1,53.5,M,49.5,M,,0000*7A<CR><LF>
$GPGSA,A,3,31,16,18,29,26,27,20,23,10,,,,1.9,1.1,1.5*3A<CR><LF>
$GPRMC,184214.000,A,3718.7853,N,00555.9015,W,28.02,330.04,240221,,*2C<CR><LF>
$GPGGA,184215.000,3718.7919,N,00555.9063,W,1,09,1.1,53.3,M,49.5,M,,0000*73<CR><LF>
$GPGSA,A,3,31,16,18,29,26,27,20,23,10,,,,1.9,1.1,1.5*3A<CR><LF>
$GPGSV,3,1,11,26,77,127,48,16,69,329,46,18,45,048,49,27,45,292,46*73<CR><LF>
$GPGSV,3,2,11,20,36,103,43,23,31,106,42,10,23,140,42,31,19,186,43*79<CR><LF>
$GPGSV,3,3,11,08,11,273,30,29,05,073,37,07,00,329,23*44<CR><LF>
$GPRMC,184215.000,A,3718.7919,N,00555.9063,W,27.00,330.25,240221,,*2D<CR><LF>
$GPGGA,184216.000,3718.7983,N,00555.9109,W,1,09,1.1,53.2,M,49.5,M,,0000*7F<CR><LF>
$GPGSA,A,3,31,16,18,29,26,27,20,23,10,,,,1.9,1.1,1.5*3A<CR><LF>
$GPRMC,184216.000,A,3718.7983,N,00555.9109,W,26.19,329.93,240221,,*2C<CR><LF>
$GPGGA,184217.000,3718.8045,N,00555.9154,W,1,09,1.1,53.1,M,49.5,M,,0000*79<CR><LF>
$GPGSA,A,3,31,16,18,29,26,27,20,23,10,,,,1.9,1.1,1.5*3A<CR><LF>
$GPRMC,184217.000,A,3718.8045,N,00555.9154,W,25.56,329.82,240221,,*21<CR><LF>
$GPGGA,184218.000,3718.8105,N,00555.9198,W,1,09,1.1,53.0,M,49.5,M,,0000*72<CR><LF>
$GPGSA,A,3,31,16,18,29,26,27,20,23,10,,,,1.9,1.1,1.5*3A<CR><LF>
$GPRMC,184218.000,A,3718.8105,N,00555.9198,W,24.98,329.71,240221,,*24<CR><LF>
$GPGGA,184219.000,3718.8164,N,00555.9242,W,1,09,1.1,53.0,M,49.5,M,,0000*70<CR><LF>
$GPGSA,A,3,31,16,18,29,26,27,20,23,10,,,,1.9,1.1,1.5*3A<CR><LF>
$GPRMC,184219.000,A,3718.8164,N,00555.9242,W,24.24,329.60,240221,,*21<CR><LF>
$GPGGA,184220.000,3718.8221,N,00555.9283,W,1,09,1.1,53.0,M,49.5,M,,0000*75<CR><LF>
$GPGSA,A,3,31,16,18,29,26,27,20,23,10,,,,1.9,1.1,1.5*3A<CR><LF>
$GPGSV,3,1,12,26,77,127,48,16,69,329,46,18,45,048,49,27,45,292,46*70<CR><LF>
$GPGSV,3,2,12,20,36,103,44,23,31,106,43,10,23,140,43,31,19,186,43*7D<CR><LF>
$GPGSV,3,3,12,08,11,273,30,29,05,073,37,07,00,329,17,37,37,138,25*7D<CR><LF>
$GPRMC,184220.000,A,3718.8221,N,00555.9283,W,23.32,330.13,240221,,*28<CR><LF>
$GPGGA,184221.000,3718.8277,N,00555.9319,W,1,09,1.1,52.9,M,49.5,M,,0000*7D<CR><LF>
$GPGSA,A,3,31,16,18,29,26,27,20,23,10,,,,1.9,1.1,1.5*3A<CR><LF>
$GPRMC,184221.000,A,3718.8277,N,00555.9319,W,22.00,335.38,240221,,*24<CR><LF>
$GPGGA,184222.000,3718.8332,N,00555.9344,W,1,09,1.1,52.9,M,49.5,M,,0000*76<CR><LF>
$GPGSA,A,3,31,16,18,29,26,27,20,23,10,,,,1.9,1.1,1.5*3A<CR><LF>
$GPRMC,184222.000,A,3718.8332,N,00555.9344,W,20.91,344.58,240221,,*25<CR><LF>
$GPGGA,184223.000,3718.8386,N,00555.9356,W,1,09,1.1,53.0,M,49.5,M,,0000*73<CR><LF>
$GPGSA,A,3,31,16,18,29,26,27,20,23,10,,,,1.9,1.1,1.5*3A<CR><LF>
$GPRMC,184223.000,A,3718.8386,N,00555.9356,W,19.05,355.19,240221,,*2A<CR><LF>
$GPGGA,184224.000,3718.8439,N,00555.9354,W,1,09,1.1,53.1,M,49.5,M,,0000*74<CR><LF>
$GPGSA,A,3,31,16,18,29,26,27,20,23,10,,,,1.9,1.1,1.5*3A<CR><LF>
$GPRMC,184224.000,A,3718.8439,N,00555.9354,W,19.42,5.68,240221,,*2F<CR><LF>
$GPGGA,184225.000,3718.8494,N,00555.9341,W,1,09,1.1,53.1,M,49.5,M,,0000*76<CR><LF>
$GPGSA,A,3,31,16,18,29,26,27,20,23,10,,,,1.9,1.1,1.5*3A<CR><LF>
$GPGSV,3,1,11,26,77,127,48,16,69,329,46,18,45,048,49,27,45,292,45*70<CR><LF>
$GPGSV,3,2,11,20,36,103,44,23,31,106,43,10,23,140,42,31,19,186,43*7F<CR><LF>
$GPGSV,3,3,11,08,11,273,37,29,05,073,40,07,00,329,21*41<CR><LF>
$GPRMC,184225.000,A,3718.8494,N,00555.9341,W,20.62,14.32,240221,,*1A<CR><LF>
$GPGGA,184226.000,3718.8550,N,00555.9320,W,1,09,1.1,53.1,M,49.5,M,,0000*7B<CR><LF>
$GPGSA,A,3,31,16,18,29,26,27,20,23,10,,,,1.9,1.1,1.5*3A<CR><LF>
$GPRMC,184226.000,A,3718.8550,N,00555.9320,W,21.65,17.93,240221,,*19<CR><LF>
$GPGGA,184227.000,3718.8610,N,00555.9298,W,1,09,1.1,53.1,M,49.5,M,,0000*7F<CR><LF>
$GPGSA,A,3,31,16,18,29,26,27,20,23,10,,,,1.9,1.1,1.5*3A<CR><LF>
$GPRMC,184227.000,A,3718.8610,N,00555.9298,W,22.99,13.54,240221,,*12<CR><LF>
$GPGGA,184228.000,3718.8674,N,00555.9284,W,1,09,1.1,53.2,M,49.5,M,,0000*7C<CR><LF>
$GPGSA,A,3,31,16,18,29,26,27,20,23,10,,,,1.9,1.1,1.5*3A<CR><LF>
$GPRMC,184228.000,A,3718.8674,N,00555.9284,W,24.37,5.79,240221,,*28<CR><LF>
$GPGGA,184229.000,3718.8743,N,00555.9280,W,1,09,1.1,53.3,M,49.5,M,,0000*7D<CR><LF>
$GPGSA,A,3,31,16,18,29,26,27,20,23,10,,,,1.9,1.1,1.5*3A<CR><LF>
$GPRMC,184229.000,A,3718.8743,N,00555.9280,W,24.98,358.59,240221,,*24<CR><LF>
$GPGGA,184230.000,3718.8812,N,00555.9288,W,1,09,1.1,53.3,M,49.5,M,,0000*76<CR><LF>
$GPGSA,A,3,31,16,18,29,26,27,20,23,10,,,,1.9,1.1,1.5*3A<CR><LF>
$GPGSV,3,1,11,26,77,127,49,16,69,329,45,18,45,048,48,27,45,292,44*72<CR><LF>
$GPGSV,3,2,11,20,36,103,44,23,31,106,43,10,23,140,41,31,19,186,43*7C<CR><LF>
$GPGSV,3,3,11,08,11,273,38,29,05,073,44,07,00,329,*49<CR><LF>
$GPRMC,184230.000,A,3718.8812,N,00555.9288,W,25.15,351.11,240221,,*2E<CR><LF>
$GPGGA,184231.000,3718.8880,N,00555.9308,W,1,09,1.1,53.4,M,49.5,M,,0000*72<CR><LF>
$GPGSA,A,3,31,16,18,29,26,27,20,23,10,,,,1.9,1.1,1.5*3A<CR><LF>
$GPRMC,184231.000,A,3718.8880,N,00555.9308,W,25.21,341.45,240221,,*2A<CR><LF>
$GPGGA,184232.000,3718.8945,N,00555.9342,W,1,09,1.1,53.4,M,49.5,M,,0000*77<CR><LF>
$GPGSA,A,3,31,16,18,29,26,27,20,23,10,,,,1.9,1.1,1.5*3A<CR><LF>
$GPRMC,184232.000,A,3718.8945,N,00555.9342,W,25.46,334.20,240221,,*2F<CR><LF>
$GPGGA,184233.000,3718.9006,N,00555.9387,W,1,09,1.1,53.5,M,49.5,M,,0000*71<CR><LF>
$GPGSA,A,3,31,16,18,29,26,27,20,23,10,,,,1.9,1.1,1.5*3A<CR><LF>
$GPRMC,184233.000,A,3718.9006,N,00555.9387,W,25.59,325.70,240221,,*23<CR><LF>
$GPGGA,184234.000,3718.9061,N,00555.9443,W,1,09,1.1,53.5,M,49.5,M,,0000*78<CR><LF>
$GPGSA,A,3,31,16,18,29,26,27,20,23,10,,,,1.9,1.1,1.5*3A<CR><LF>
$GPRMC,184234.000,A,3718.9061,N,00555.9443,W,25.68,317.06,240221,,*28<CR><LF>
$GPGGA,184235.000,3718.9110,N,00555.9508,W,1,09,1.1,53.5,M,49.5,M,,0000*70<CR><LF>
$GPGSA,A,3,31,16,18,29,26,27,20,23,10,,,,1.9,1.1,1.5*3A<CR><LF>
$GPGSV,3,1,11,26,77,127,48,16,69,329,45,18,45,048,48,27,45,292,44*73<CR><LF>
$GPGSV,3,2,11,20,36,103,45,23,31,106,43,10,23,140,43,31,19,186,43*7F<CR><LF>
$GPGSV,3,3,11,08,11,273,33,29,05,073,40,07,00,329,17*40<CR><LF>
$GPRMC,184235.000,A,3718.9110,N,00555.9508,W,25.87,309.24,240221,,*2E<CR><LF>
$GPGGA,184236.000,3718.9151,N,00555.9583,W,1,09,1.1,53.6,M,49.5,M,,0000*76<CR><LF>
$GPGSA,A,3,31,16,18,29,26,27,20,23,10,,,,1.9,1.1,1.5*3A<CR><LF>
$GPRMC,184236.000,A,3718.9151,N,00555.9583,W,26.03,300.16,240221,,*2C<CR><LF>
$GPGGA,184237.000,3718.9183,N,00555.9664,W,1,09,1.1,53.6,M,49.5,M,,0000*72<CR><LF>
$GPGSA,A,3,31,16,18,29,26,27,20,23,10,,,,1.9,1.1,1.5*3A<CR><LF>
$GPRMC,184237.000,A,3718.9183,N,00555.9664,W,26.09,294.06,240221,,*2F<CR><LF>
$GPGGA,184238.000,3718.9212,N,00555.9748,W,1,09,1.1,53.6,M,49.5,M,,0000*79<CR><LF>
$GPGSA,A,3,31,16,18,29,26,27,20,23,10,,,,1.9,1.1,1.5*3A<CR><LF>
$GPRMC,184238.000,A,3718.9212,N,00555.9748,W,25.85,292.84,240221,,*2F<CR><LF>
$GPGGA,184239.000,3718.9239,N,00555.9831,W,1,09,1.1,53.5,M,49.5,M,,0000*73<CR><LF>
$GPGSA,A,3,31,16,18,29,26,27,20,23,10,,,,1.9,1.1,1.5*3A<CR><LF>
$GPRMC,184239.000,A,3718.9239,N,00555.9831,W,25.59,292.39,240221,,*21<CR><LF>
$GPGGA,184240.000,3718.9268,N,00555.9912,W,1,09,1.1,53.4,M,49.5,M,,0000*78<CR><LF>
$GPGSA,A,3,31,16,18,29,26,27,20,23,10,,,,1.9,1.1,1.5*3A<CR><LF>
$GPGSV,3,1,11,26,77,127,48,16,69,329,46,18,45,048,47,27,45,292,46*7D<CR><LF>
$GPGSV,3,2,11,20,36,103,45,23,31,106,44,10,23,140,44,31,19,186,43*7F<CR><LF>
$GPGSV,3,3,11,08,11,273,38,29,05,073,37,07,00,329,21*4E<CR><LF>
$GPRMC,184240.000,A,3718.9268,N,00555.9912,W,25.32,297.08,240221,,*21<CR><LF>
$GPGGA,184241.000,3718.9306,N,00555.9986,W,1,09,1.1,53.2,M,49.5,M,,0000*7B<CR><LF>
$GPGSA,A,3,31,16,18,29,26,27,20,23,10,,,,1.9,1.1,1.5*3A<CR><LF>
$GPRMC,184241.000,A,3718.9306,N,00555.9986,W,25.28,308.13,240221,,*22<CR><LF>
$GPGGA,184242.000,3718.9355,N,00556.0050,W,1,09,1.1,53.2,M,49.5,M,,0000*76<CR><LF>
$GPGSA,A,3,31,16,18,29,26,27,20,23,10,,,,1.9,1.1,1.5*3A<CR><LF>
$GPRMC,184242.000,A,3718.9355,N,00556.0050,W,26.18,320.47,240221,,*24<CR><LF>
$GPGGA,184243.000,3718.9416,N,00556.0105,W,1,09,1.1,53.2,M,49.5,M,,0000*76<CR><LF>
$GPGSA,A,3,31,16,18,29,26,27,20,23,10,,,,1.9,1.1,1.5*3A<CR><LF>
$GPRMC,184243.000,A,3718.9416,N,00556.0105,W,27.66,327.95,240221,,*24<CR><LF>
$GPGGA,184244.000,3718.9484,N,00556.0156,W,1,09,1.1,53.3,M,49.5,M,,0000*7D<CR><LF>
$GPGSA,A,3,31,16,18,29,26,27,20,23,10,,,,1.9,1.1,1.5*3A<CR><LF>
$GPRMC,184244.000,A,3718.9484,N,00556.0156,W,28.90,330.03,240221,,*21<CR><LF>
$GPGGA,184245.000,3718.9554,N,00556.0207,W,1,09,1.1,53.5,M,49.5,M,,0000*71<CR><LF>
$GPGSA,A,3,31,16,18,29,26,27,20,23,10,,,,1.9,1.1,1.5*3A<CR><LF>
$GPGSV,3,1,11,26,77,127,48,16,69,329,46,18,45,048,47,27,45,292,46*7D<CR><LF>
$GPGSV,3,2,11,20,36,103,45,23,31,106,43,10,23,140,44,31,19,186,43*78<CR><LF>
$GPGSV,3,3,11,08,11,273,31,29,05,073,37,07,00,329,15*40<CR><LF>
$GPRMC,184245.000,A,3718.9554,N,00556.0207,W,29.92,329.98,240221,,*22<CR><LF>
$GPGGA,184246.000,3718.9627,N,00556.0260,W,1,09,1.1,53.8,M,49.5,M,,0000*79<CR><LF>
$GPGSA,A,3,31,16,18,29,26,27,20,23,10,,,,1.9,1.1,1.5*3A<CR><LF>
$GPRMC,184246.000,A,3718.9627,N,00556.0260,W,30.81,329.59,240221,,*20<CR><LF>
$GPGGA,184247.000,3718.9702,N,00556.0315,W,1,09,1.1,54.1,M,49.5,M,,0000*73<CR><LF>
$GPGSA,A,3,31,16,18,29,26,27,20,23,10,,,,1.9,1.1,1.5*3A<CR><LF>
$GPRMC,184247.000,A,3718.9702,N,00556.0315,W,31.59,329.76,240221,,*2D<CR><LF>
$GPGGA,184248.000,3718.9778,N,00556.0371,W,1,09,1.1,54.4,M,49.5,M,,0000*76<CR><LF>
$GPGSA,A,3,31,16,18,29,26,27,20,23,10,,,,1.9,1.1,1.5*3A<CR><LF>
$GPRMC,184248.000,A,3718.9778,N,00556.0371,W,31.37,329.75,240221,,*26<CR><LF>
$GPGGA,184249.000,3718.9854,N,00556.0426,W,1,09,1.1,54.8,M,49.5,M,,0000*7F<CR><LF>
$GPGSA,A,3,31,16,18,29,26,27,20,23,10,,,,1.9,1.1,1.5*3A<CR><LF>
$GPRMC,184249.000,A,3718.9854,N,00556.0426,W,31.54,330.01,240221,,*2D<CR><LF>
$GPGGA,184250.000,3718.9931,N,00556.0482,W,1,09,1.1,55.1,M,49.5,M,,0000*73<CR><LF>
$GPGSA,A,3,31,16,18,29,26,27,20,23,10,,,,1.9,1.1,1.5*3A<CR><LF>
$GPGSV,3,1,12,26,77,127,47,16,69,329,46,18,45,048,48,27,45,292,45*7D<CR><LF>
$GPGSV,3,2,12,20,36,103,45,23,31,106,44,10,23,140,44,31,19,186,43*7C<CR><LF>
$GPGSV,3,3,12,08,11,273,31,29,05,073,37,07,00,329,10,37,37,138,30*7F<CR><LF>
$GPRMC,184250.000,A,3718.9931,N,00556.0482,W,32.57,330.14,240221,,*2D<CR><LF>
$GPGGA,184251.000,3719.0011,N,00556.0540,W,1,09,1.1,55.5,M,49.5,M,,0000*7A<CR><LF>
$GPGSA,A,3,31,16,18,29,26,27,20,23,10,,,,1.9,1.1,1.5*3A<CR><LF>
$GPRMC,184251.000,A,3719.0011,N,00556.0540,W,33.84,330.09,240221,,*23<CR><LF>
$GPGGA,184252.000,3719.0094,N,00556.0599,W,1,09,1.1,55.8,M,49.5,M,,0000*7D<CR><LF>
$GPGSA,A,3,31,16,18,29,26,27,20,23,10,,,,1.9,1.1,1.5*3A<CR><LF>
$GPRMC,184252.000,A,3719.0094,N,00556.0599,W,34.36,329.99,240221,,*26<CR><LF>
$GPGGA,184253.000,3719.0177,N,00556.0660,W,1,10,0.9,56.2,M,49.5,M,,0000*7D<CR><LF>
$GPGSA,A,3,31,16,18,29,26,27,20,23,10,08,,,1.5,0.9,1.2*30<CR><LF>
$GPRMC,184253.000,A,3719.0177,N,00556.0660,W,34.61,329.86,240221,,*22<CR><LF>
$GPGGA,184254.000,3719.0260,N,00556.0720,W,1,10,0.9,56.5,M,49.5,M,,0000*7D<CR><LF>
$GPGSA,A,3,31,16,18,29,26,27,20,23,10,08,,,1.5,0.9,1.2*30<CR><LF>
$GPRMC,184254.000,A,3719.0260,N,00556.0720,W,34.40,329.89,240221,,*29<CR><LF>
$GPGGA,184255.000,3719.0343,N,00556.0780,W,1,10,0.9,56.8,M,49.5,M,,0000*7B<CR><LF>
$GPGSA,A,3,31,16,18,29,26,27,20,23,10,08,,,1.5,0.9,1.2*30<CR><LF>
$GPGSV,3,1,11,26,77,128,47,16,69,329,46,27,45,292,45,18,45,048,48*71<CR><LF>
$GPGSV,3,2,11,20,37,103,45,23,31,106,44,10,23,140,44,31,18,186,43*7F<CR><LF>
$GPGSV,3,3,11,08,11,273,31,29,05,073,33,07,00,329,15*44<CR><LF>
$GPRMC,184255.000,A,3719.0343,N,00556.0780,W,33.70,330.10,240221,,*2E<CR><LF>
$GPGGA,184256.000,3719.0423,N,00556.0838,W,1,10,0.9,57.2,M,49.5,M,,0000*7E<CR><LF>
$GPGSA,A,3,31,16,18,29,26,27,20,23,10,08,,,1.5,0.9,1.2*30<CR><LF>
$GPRMC,184256.000,A,3719.0423,N,00556.0838,W,32.98,329.86,240221,,*20<CR><LF>
$GPGGA,184257.000,3719.0502,N,00556.0896,W,1,10,0.9,57.5,M,49.5,M,,0000*7E<CR><LF>
$GPGSA,A,3,31,16,18,29,26,27,20,23,10,08,,,1.5,0.9,1.2*30<CR><LF>
$GPRMC,184257.000,A,3719.0502,N,00556.0896,W,32.32,330.00,240221,,*21<CR><LF>
$GPGGA,184258.000,3719.0579,N,00556.0951,W,1,10,0.9,57.8,M,49.5,M,,0000*7A<CR><LF>
$GPGSA,A,3,31,16,18,29,26,27,20,23,10,08,,,1.5,0.9,1.2*30<CR><LF>
$GPRMC,184258.000,A,3719.0579,N,00556.0951,W,31.73,330.62,240221,,*2A<CR><LF>
$GPGGA,184259.000,3719.0656,N,00556.1005,W,1,10,0.9,58.2,M,49.5,M,,0000*79<CR><LF>
$GPGSA,A,3,31,16,18,29,26,27,20,23,10,08,,,1.5,0.9,1.2*30<CR><LF>
$GPRMC,184259.000,A,3719.0656,N,00556.1005,W,31.39,330.29,240221,,*2D<CR><LF>
$GPGGA,184300.000,3719.0731,N,00556.1060,W,1,10,0.9,58.5,M,49.5,M,,0000*70<CR><LF>
$GPGSA,A,3,31,16,18,29,26,27,20,23,10,08,,,1.5,0.9,1.2*30<CR><LF>
$GPGSV,3,1,11,26,77,128,47,16,69,329,46,27,45,292,45,18,45,048,48*71<CR><LF>
$GPGSV,3,2,11,20,37,103,45,23,31,106,44,10,23,140,43,31,18,186,43*78<CR><LF>
$GPGSV,3,3,11,08,11,273,31,29,05,073,37,07,00,329,15*40<CR><LF>
$GPRMC,184300.000,A,3719.0731,N,00556.1060,W,31.20,329.89,240221,,*29<CR><LF>
$GPGGA,184301.000,3719.0805,N,00556.1114,W,1,10,0.9,58.9,M,49.5,M,,0000*77<CR><LF>
$GPGSA,A,3,31,16,18,29,26,27,20,23,10,08,,,1.5,0.9,1.2*30<CR><LF>
$GPRMC,184301.000,A,3719.0805,N,00556.1114,W,29.91,329.48,240221,,*2C<CR><LF>
$GPGGA,184302.000,3719.0871,N,00556.1164,W,1,10,0.9,59.3,M,49.5,M,,0000*7B<CR><LF>
$GPGSA,A,3,31,16,18,29,26,27,20,23,10,08,,,1.5,0.9,1.2*30<CR><LF>
$GPRMC,184302.000,A,3719.0871,N,00556.1164,W,26.21,328.12,240221,,*21<CR><LF>
$GPGGA,184303.000,3719.0928,N,00556.1211,W,1,10,0.9,59.8,M,49.5,M,,0000*7D<CR><LF>
$GPGSA,A,3,31,16,18,29,26,27,20,23,10,08,,,1.5,0.9,1.2*30<CR><LF>
$GPRMC,184303.000,A,3719.0928,N,00556.1211,W,23.07,325.78,240221,,*2C<CR><LF>
$GPGGA,184304.000,3719.0981,N,00556.1251,W,1,10,0.9,60.2,M,49.5,M,,0000*7D<CR><LF>
$GPGSA,A,3,31,16,18,29,26,27,20,23,10,08,,,1.5,0.9,1.2*30<CR><LF>
$GPRMC,184304.000,A,3719.0981,N,00556.1251,W,21.49,331.43,240221,,*29<CR><LF>
$GPGGA,184305.000,3719.1037,N,00556.1280,W,1,10,0.9,60.5,M,49.5,M,,0000*72<CR><LF>
$GPGSA,A,3,31,16,18,29,26,27,20,23,10,08,,,1.5,0.9,1.2*30<CR><LF>
$GPGSV,3,1,12,26,77,128,48,16,69,329,46,27,45,292,45,18,45,048,48*7D<CR><LF>
$GPGSV,3,2,12,20,37,103,45,23,31,106,43,10,23,140,43,31,18,186,43*7C<CR><LF>
$GPGSV,3,3,12,08,11,273,31,29,05,073,36,07,00,329,12,37,37,138,24*79<CR><LF>
$GPRMC,184305.000,A,3719.1037,N,00556.1280,W,21.90,343.75,240221,,*25<CR><LF>
$GPGGA,184306.000,3719.1098,N,00556.1295,W,1,10,0.9,60.9,M,49.5,M,,0000*7C<CR><LF>
$GPGSA,A,3,31,16,18,29,26,27,20,23,10,08,,,1.5,0.9,1.2*30<CR><LF>
$GPRMC,184306.000,A,3719.1098,N,00556.1295,W,23.27,352.00,240221,,*2B<CR><LF>
$GPGGA,184307.000,3719.1162,N,00556.1310,W,1,10,0.9,61.2,M,49.5,M,,0000*7F<CR><LF>
$GPGSA,A,3,31,16,18,29,26,27,20,23,10,08,,,1.5,0.9,1.2*30<CR><LF>
$GPRMC,184307.000,A,3719.1162,N,00556.1310,W,23.97,346.92,240221,,*27<CR><LF>
$GPGGA,184308.000,3719.1226,N,00556.1338,W,1,10,0.9,61.6,M,49.5,M,,0000*7D<CR><LF>
$GPGSA,A,3,31,16,18,29,26,27,20,23,10,08,,,1.5,0.9,1.2*30<CR><LF>
$GPRMC,184308.000,A,3719.1226,N,00556.1338,W,24.48,335.20,240221,,*29<CR><LF>
$GPGGA,184309.000,3719.1285,N,00556.1381,W,1,09,1.1,61.9,M,49.5,M,,0000*79<CR><LF>
$GPGSA,A,3,31,16,18,29,26,27,20,23,10,,,,1.9,1.1,1.5*3A<CR><LF>
$GPRMC,184309.000,A,3719.1285,N,00556.1381,W,25.00,324.02,240221,,*2E<CR><LF>
$GPGGA,184310.000,3719.1338,N,00556.1437,W,1,09,1.1,62.3,M,49.5,M,,0000*75<CR><LF>
$GPGSA,A,3,31,16,18,29,26,27,20,23,10,,,,1.9,1.1,1.5*3A<CR><LF>
$GPGSV,3,1,11,26,77,128,48,16,69,329,46,27,45,292,45,18,45,048,47*71<CR><LF>
$GPGSV,3,2,11,20,37,103,45,23,31,106,44,10,23,140,43,31,18,186,43*78<CR><LF>
$GPGSV,3,3,11,08,11,273,18,29,05,073,38,07,00,329,11*40<CR><LF>
$GPRMC,184310.000,A,3719.1338,N,00556.1437,W,25.28,317.01,240221,,*22<CR><LF>
$GPGGA,184311.000,3719.1390,N,00556.1498,W,1,09,1.1,62.5,M,49.5,M,,0000*75<CR><LF>
$GPGSA,A,3,31,16,18,29,26,27,20,23,10,,,,1.9,1.1,1.5*3A<CR><LF>
$GPRMC,184311.000,A,3719.1390,N,00556.1498,W,25.45,317.08,240221,,*26<CR><LF>
$GPGGA,184312.000,3719.1443,N,00556.1555,W,1,09,1.1,62.7,M,49.5,M,,0000*7D<CR><LF>
$GPGSA,A,3,31,16,18,29,26,27,20,23,10,,,,1.9,1.1,1.5*3A<CR><LF>
$GPRMC,184312.000,A,3719.1443,N,00556.1555,W,25.34,321.33,240221,,*27<CR><LF>
$GPGGA,184313.000,3719.1500,N,00556.1609,W,1,09,1.1,62.9,M,49.5,M,,0000*7E<CR><LF>
$GPGSA,A,3,31,16,18,29,26,27,20,23,10,,,,1.9,1.1,1.5*3A<CR><LF>
$GPRMC,184313.000,A,3719.1500,N,00556.1609,W,25.77,324.20,240221,,*2A<CR><LF>
$GPGGA,184314.000,3719.1559,N,00556.1663,W,1,09,1.1,63.2,M,49.5,M,,0000*73<CR><LF>
$GPGSA,A,3,31,16,18,29,26,27,20,23,10,,,,1.9,1.1,1.5*3A<CR><LF>
$GPRMC,184314.000,A,3719.1559,N,00556.1663,W,26.61,324.60,240221,,*2D<CR><LF>
$GPGGA,184315.000,3719.1620,N,00556.1718,W,1,09,1.1,63.6,M,49.5,M,,0000*76<CR><LF>
$GPGSA,A,3,31,16,18,29,26,27,20,23,10,,,,1.9,1.1,1.5*3A<CR><LF>
$GPGSV,3,1,11,26,77,128,47,16,69,329,46,27,45,292,45,18,45,048,47*7E<CR><LF>
$GPGSV,3,2,11,20,37,103,44,23,31,106,43,10,23,140,44,31,18,186,44*7E<CR><LF>
$GPGSV,3,3,11,08,11,273,14,29,05,073,38,07,00,329,13*4E<CR><LF>
$GPRMC,184315.000,A,3719.1620,N,00556.1718,W,27.57,323.20,240221,,*2B<CR><LF>
$GPGGA,184316.000,3719.1680,N,00556.1777,W,1,09,1.1,64.0,M,49.5,M,,0000*77<CR><LF>
$GPGSA,A,3,31,16,18,29,26,27,20,23,10,,,,1.9,1.1,1.5*3A<CR><LF>
$GPRMC,184316.000,A,3719.1680,N,00556.1777,W,27.41,320.67,240221,,*2C<CR><LF>
$GPGGA,184317.000,3719.1738,N,00556.1842,W,1,10,0.9,64.4,M,49.5,M,,0000*78<CR><LF>
$GPGSA,A,3,31,16,18,29,26,27,20,23,10,08,,,1.5,0.9,1.2*30<CR><LF>
$GPRMC,184317.000,A,3719.1738,N,00556.1842,W,28.56,317.33,240221,,*2A<CR><LF>
$GPGGA,184318.000,3719.1797,N,00556.1913,W,1,09,1.1,64.9,M,49.5,M,,0000*7B<CR><LF>
$GPGSA,A,3,31,16,18,29,26,27,20,23,10,,,,1.9,1.1,1.5*3A<CR><LF>
$GPRMC,184318.000,A,3719.1797,N,00556.1913,W,30.46,315.46,240221,,*2D<CR><LF>
$GPGGA,184319.000,3719.1858,N,00556.1990,W,1,09,1.1,65.4,M,49.5,M,,0000*71<CR><LF>
$GPGSA,A,3,31,16,18,29,26,27,20,23,10,,,,1.9,1.1,1.5*3A<CR><LF>
$GPRMC,184319.000,A,3719.1858,N,00556.1990,W,31.60,313.94,240221,,*27<CR><LF>
$GPGGA,184320.000,3719.1918,N,00556.2070,W,1,10,0.9,65.8,M,49.5,M,,0000*77<CR><LF>
$GPGSA,A,3,31,16,18,29,26,27,20,23,10,08,,,1.5,0.9,1.2*30<CR><LF>
$GPGSV,3,1,11,26,76,128,47,16,69,329,45,27,45,292,45,18,44,048,47*7D<CR><LF>
$GPGSV,3,2,11,20,37,103,44,23,31,105,44,10,23,140,44,31,18,186,43*7D<CR><LF>
$GPGSV,3,3,11,08,11,273,34,29,05,073,34,07,00,329,19*4A<CR><LF>
$GPRMC,184320.000,A,3719.1918,N,00556.2070,W,31.36,312.93,240221,,*29<CR><LF>
$GPGGA,184321.000,3719.1977,N,00556.2153,W,1,10,0.9,66.3,M,49.5,M,,0000*77<CR><LF>
$GPGSA,A,3,31,16,18,29,26,27,20,23,10,08,,,1.5,0.9,1.2*30<CR><LF>
$GPRMC,184321.000,A,3719.1977,N,00556.2153,W,31.84,311.15,240221,,*25<CR><LF>
$GPGGA,184322.000,3719.2035,N,00556.2239,W,1,10,0.9,66.6,M,49.5,M,,0000*72<CR><LF>
$GPGSA,A,3,31,16,18,29,26,27,20,23,10,08,,,1.5,0.9,1.2*30<CR><LF>
$GPRMC,184322.000,A,3719.2035,N,00556.2239,W,33.10,309.41,240221,,*22<CR><LF>
$GPGGA,184323.000,3719.2094,N,00556.2332,W,1,10,0.9,67.0,M,49.5,M,,0000*75<CR><LF>
$GPGSA,A,3,31,16,18,29,26,27,20,23,10,08,,,1.5,0.9,1.2*30<CR><LF>
$GPRMC,184323.000,A,3719.2094,N,00556.2332,W,34.21,307.48,240221,,*20<CR><LF>
$GPGGA,184324.000,3719.2150,N,00556.2429,W,1,09,1.2,67.2,M,49.5,M,,0000*76<CR><LF>
$GPGSA,A,3,31,16,18,26,27,20,23,10,08,,,,2.1,1.2,1.7*33<CR><LF>
$GPRMC,184324.000,A,3719.2150,N,00556.2429,W,34.52,305.19,240221,,*21<CR><LF>
$GPGGA,184325.000,3719.2204,N,00556.2530,W,1,10,0.9,67.6,M,49.5,M,,0000*7A<CR><LF>
$GPGSA,A,3,31,16,18,29,26,27,20,23,10,08,,,1.5,0.9,1.2*30<CR><LF>
$GPGSV,3,1,11,26,76,128,47,16,69,329,45,27,45,292,46,18,44,048,46*7F<CR><LF>
$GPGSV,3,2,11,20,37,103,45,23,31,105,43,10,23,140,44,31,18,186,43*7B<CR><LF>
$GPGSV,3,3,11,08,11,273,35,29,05,073,30,07,00,329,26*43<CR><LF>
$GPRMC,184325.000,A,3719.2204,N,00556.2530,W,34.77,302.60,240221,,*25<CR><LF>
$GPGGA,184326.000,3719.2254,N,00556.2634,W,1,10,0.9,67.9,M,49.5,M,,0000*74<CR><LF>
$GPGSA,A,3,31,16,18,29,26,27,20,23,10,08,,,1.5,0.9,1.2*30<CR><LF>
$GPRMC,184326.000,A,3719.2254,N,00556.2634,W,35.12,300.06,240221,,*24<CR><LF>
$GPGGA,184327.000,3719.2301,N,00556.2742,W,1,10,0.9,68.2,M,49.5,M,,0000*70<CR><LF>
$GPGSA,A,3,31,16,18,29,26,27,20,23,10,08,,,1.5,0.9,1.2*30<CR><LF>
$GPRMC,184327.000,A,3719.2301,N,00556.2742,W,35.12,298.00,240221,,*22<CR><LF>
$GPGGA,184328.000,3719.2345,N,00556.2852,W,1,10,0.9,68.4,M,49.5,M,,0000*77<CR><LF>
$GPGSA,A,3,31,16,18,29,26,27,20,23,10,08,,,1.5,0.9,1.2*30<CR><LF>
$GPRMC,184328.000,A,3719.2345,N,00556.2852,W,35.11,295.36,240221,,*28<CR><LF>
$GPGGA,184329.000,3719.2385,N,00556.2964,W,1,10,0.9,68.7,M,49.5,M,,0000*7D<CR><LF>
$GPGSA,A,3,31,16,18,29,26,27,20,23,10,08,,,1.5,0.9,1.2*30<CR><LF>
$GPRMC,184329.000,A,3719.2385,N,00556.2964,W,35.20,293.14,240221,,*25<CR><LF>
$GPGGA,184330.000,3719.2421,N,00556.3079,W,1,10,0.9,69.1,M,49.5,M,,0000*7F<CR><LF>
$GPGSA,A,3,31,16,18,29,26,27,20,23,10,08,,,1.5,0.9,1.2*30<CR><LF>
$GPGSV,3,1,11,26,76,128,47,16,69,329,46,27,45,292,46,18,44,048,46*7C<CR><LF>
$GPGSV,3,2,11,20,37,103,44,23,31,105,44,10,23,140,44,31,18,186,41*7F<CR><LF>
$GPGSV,3,3,11,08,11,273,37,29,05,073,33,07,00,329,33*46<CR><LF>
$GPRMC,184330.000,A,3719.2421,N,00556.3079,W,35.36,290.40,240221,,*25<CR><LF>
$GPGGA,184331.000,3719.2453,N,00556.3196,W,1,10,0.9,69.4,M,49.5,M,,0000*7E<CR><LF>
$GPGSA,A,3,31,16,18,29,26,27,20,23,10,08,,,1.5,0.9,1.2*30<CR><LF>
$GPRMC,184331.000,A,3719.2453,N,00556.3196,W,35.38,287.94,240221,,*20<CR><LF>
$GPGGA,184332.000,3719.2482,N,00556.3314,W,1,10,0.9,69.7,M,49.5,M,,0000*7A<CR><LF>
$GPGSA,A,3,31,16,18,29,26,27,20,23,10,08,,,1.5,0.9,1.2*30<CR><LF>
$GPRMC,184332.000,A,3719.2482,N,00556.3314,W,35.18,287.01,240221,,*29<CR><LF>
$GPGGA,184333.000,3719.2510,N,00556.3430,W,1,10,0.9,70.0,M,49.5,M,,0000*7F<CR><LF>
$GPGSA,A,3,31,16,18,29,26,27,20,23,10,08,,,1.5,0.9,1.2*30<CR><LF>
$GPRMC,184333.000,A,3719.2510,N,00556.3430,W,34.37,287.40,240221,,*2A<CR><LF>
$GPGGA,184334.000,3719.2538,N,00556.3544,W,1,10,0.9,70.3,M,49.5,M,,0000*73<CR><LF>
$GPGSA,A,3,31,16,18,29,26,27,20,23,10,08,,,1.5,0.9,1.2*30<CR><LF>
$GPRMC,184334.000,A,3719.2538,N,00556.3544,W,33.42,286.77,240221,,*25<CR><LF>
$GPGGA,184335.000,3719.2563,N,00556.3654,W,1,10,0.9,70.5,M,49.5,M,,0000*78<CR><LF>
$GPGSA,A,3,31,16,18,29,26,27,20,23,10,08,,,1.5,0.9,1.2*30<CR><LF>
$GPGSV,3,1,11,26,76,128,47,16,69,329,46,27,45,292,46,18,44,048,45*7F<CR><LF>
$GPGSV,3,2,11,20,37,103,44,23,31,105,44,10,23,140,44,31,18,186,36*7F<CR><LF>
$GPGSV,3,3,11,08,11,273,38,29,05,073,34,07,00,329,35*48<CR><LF>
$GPRMC,184335.000,A,3719.2563,N,00556.3654,W,32.08,286.67,240221,,*26<CR><LF>
$GPGGA,184336.000,3719.2588,N,00556.3758,W,1,10,0.9,70.8,M,49.5,M,,0000*7E<CR><LF>
$GPGSA,A,3,31,16,18,29,26,27,20,23,10,08,,,1.5,0.9,1.2*30<CR><LF>
$GPRMC,184336.000,A,3719.2588,N,00556.3758,W,30.41,286.93,240221,,*29<CR><LF>
$GPGGA,184337.000,3719.2612,N,00556.3858,W,1,10,0.9,71.1,M,49.5,M,,0000*78<CR><LF>
$GPGSA,A,3,31,16,18,29,26,27,20,23,10,08,,,1.5,0.9,1.2*30<CR><LF>
$GPRMC,184337.000,A,3719.2612,N,00556.3858,W,29.14,286.99,240221,,*25<CR><LF>
$GPGGA,184338.000,3719.2634,N,00556.3954,W,1,10,0.9,71.4,M,49.5,M,,0000*7B<CR><LF>
$GPGSA,A,3,31,16,18,29,26,27,20,23,10,08,,,1.5,0.9,1.2*30<CR><LF>
$GPRMC,184338.000,A,3719.2634,N,00556.3954,W,28.18,286.46,240221,,*2C<CR><LF>
$GPGGA,184339.000,3719.2656,N,00556.4046,W,1,10,0.9,71.7,M,49.5,M,,0000*70<CR><LF>
$GPGSA,A,3,31,16,18,29,26,27,20,23,10,08,,,1.5,0.9,1.2*30<CR><LF>
$GPRMC,184339.000,A,3719.2656,N,00556.4046,W,27.19,286.99,240221,,*28<CR><LF>
$GPGGA,184340.000,3719.2677,N,00556.4137,W,1,10,0.9,72.0,M,49.5,M,,0000*7E<CR><LF>
$GPGSA,A,3,31,16,18,29,26,27,20,23,10,08,,,1.5,0.9,1.2*30<CR><LF>
$GPGSV,3,1,11,26,76,128,47,16,69,329,46,27,45,292,47,18,44,048,45*7E<CR><LF>
$GPGSV,3,2,11,20,37,103,44,23,31,105,44,10,23,140,44,31,18,186,33*7A<CR><LF>
$GPGSV,3,3,11,08,11,273,38,29,05,073,34,07,00,329,39*44<CR><LF>
$GPRMC,184340.000,A,3719.2677,N,00556.4137,W,27.13,286.85,240221,,*25<CR><LF>
$GPGGA,184341.000,3719.2699,N,00556.4228,W,1,10,0.9,72.2,M,49.5,M,,0000*70<CR><LF>
$GPGSA,A,3,31,16,18,29,26,27,20,23,10,08,,,1.5,0.9,1.2*30<CR><LF>
$GPRMC,184341.000,A,3719.2699,N,00556.4228,W,27.47,286.73,240221,,*21<CR><LF>
$GPGGA,184342.000,3719.2720,N,00556.4319,W,1,10,0.9,72.4,M,49.5,M,,0000*75<CR><LF>
$GPGSA,A,3,31,16,18,29,26,27,20,23,10,08,,,1.5,0.9,1.2*30<CR><LF>
$GPRMC,184342.000,A,3719.2720,N,00556.4319,W,26.68,286.71,240221,,*2C<CR><LF>
$GPGGA,184343.000,3719.2739,N,00556.4403,W,1,10,0.9,72.6,M,49.5,M,,0000*72<CR><LF>
$GPGSA,A,3,31,16,18,29,26,27,20,23,10,08,,,1.5,0.9,1.2*30<CR><LF>
$GPRMC,184343.000,A,3719.2739,N,00556.4403,W,23.55,286.72,240221,,*21<CR><LF>
$GPGGA,184344.000,3719.2756,N,00556.4478,W,1,10,0.9,72.9,M,49.5,M,,0000*7F<CR><LF>
$GPGSA,A,3,31,16,18,29,26,27,20,23,10,08,,,1.5,0.9,1.2*30<CR><LF>
$GPRMC,184344.000,A,3719.2756,N,00556.4478,W,21.27,286.73,240221,,*25<CR><LF>
$GPGGA,184345.000,3719.2773,N,00556.4548,W,1,10,0.9,73.2,M,49.5,M,,0000*71<CR><LF>
$GPGSA,A,3,31,16,18,29,26,27,20,23,10,08,,,1.5,0.9,1.2*30<CR><LF>
$GPGSV,3,1,11,26,76,128,47,16,69,329,46,27,45,292,47,18,44,048,45*7E<CR><LF>
$GPGSV,3,2,11,20,37,103,44,23,31,105,44,10,23,140,44,31,18,186,41*7F<CR><LF>
$GPGSV,3,3,11,08,11,273,39,29,05,073,35,07,00,329,29*45<CR><LF>
$GPRMC,184345.000,A,3719.2773,N,00556.4548,W,21.12,287.46,240221,,*20<CR><LF>
$GPGGA,184346.000,3719.2793,N,00556.4618,W,1,10,0.9,73.6,M,49.5,M,,0000*7E<CR><LF>
$GPGSA,A,3,31,16,18,29,26,27,20,23,10,08,,,1.5,0.9,1.2*30<CR><LF>
$GPRMC,184346.000,A,3719.2793,N,00556.4618,W,21.50,294.14,240221,,*28<CR><LF>
$GPGGA,184347.000,3719.2822,N,00556.4684,W,1,10,0.9,73.9,M,49.5,M,,0000*70<CR><LF>
$GPGSA,A,3,31,16,18,29,26,27,20,23,10,08,,,1.5,0.9,1.2*30<CR><LF>
$GPRMC,184347.000,A,3719.2822,N,00556.4684,W,21.96,302.50,240221,,*2D<CR><LF>
$GPGGA,184348.000,3719.2856,N,00556.4749,W,1,10,0.9,74.3,M,49.5,M,,0000*71<CR><LF>
$GPGSA,A,3,31,16,18,29,26,27,20,23,10,08,,,1.5,0.9,1.2*30<CR><LF>
$GPRMC,184348.000,A,3719.2856,N,00556.4749,W,22.94,305.54,240221,,*23<CR><LF>
$GPGGA,184349.000,3719.2892,N,00556.4818,W,1,10,0.9,74.6,M,49.5,M,,0000*76<CR><LF>
$GPGSA,A,3,31,16,18,29,26,27,20,23,10,08,,,1.5,0.9,1.2*30<CR><LF>
$GPRMC,184349.000,A,3719.2892,N,00556.4818,W,24.42,300.95,240221,,*24<CR><LF>
$GPGGA,184350.000,3719.2922,N,00556.4894,W,1,10,0.9,74.8,M,49.5,M,,0000*7E<CR><LF>
$GPGSA,A,3,31,16,18,29,26,27,20,23,10,08,,,1.5,0.9,1.2*30<CR><LF>
$GPGSV,3,1,11,26,76,129,47,16,70,330,46,27,45,293,47,18,44,047,45*71<CR><LF>
$GPGSV,3,2,11,20,37,103,45,23,31,105,44,10,23,139,45,31,18,186,42*72<CR><LF>
$GPGSV,3,3,11,08,11,273,39,29,04,073,35,07,00,329,29*44<CR><LF>
$GPRMC,184350.000,A,3719.2922,N,00556.4894,W,24.52,292.81,240221,,*2C<CR><LF>
$GPGGA,184351.000,3719.2943,N,00556.4974,W,1,10,0.9,75.0,M,49.5,M,,0000*7E<CR><LF>
$GPGSA,A,3,31,16,18,29,26,27,20,23,10,08,,,1.5,0.9,1.2*30<CR><LF>
$GPRMC,184351.000,A,3719.2943,N,00556.4974,W,23.95,284.31,240221,,*25<CR><LF>
$GPGGA,184352.000,3719.2954,N,00556.5056,W,1,10,0.9,75.1,M,49.5,M,,0000*72<CR><LF>
$GPGSA,A,3,31,16,18,29,26,27,20,23,10,08,,,1.5,0.9,1.2*30<CR><LF>
$GPRMC,184352.000,A,3719.2954,N,00556.5056,W,24.01,275.20,240221,,*2C<CR><LF>
$GPGGA,184353.000,3719.2954,N,00556.5141,W,1,10,0.9,75.2,M,49.5,M,,0000*77<CR><LF>
$GPGSA,A,3,31,16,18,29,26,27,20,23,10,08,,,1.5,0.9,1.2*30<CR><LF>
$GPRMC,184353.000,A,3719.2954,N,00556.5141,W,24.52,264.87,240221,,*21<CR><LF>
$GPGGA,184354.000,3719.2938,N,00556.5223,W,1,10,0.9,75.1,M,49.5,M,,0000*7E<CR><LF>
$GPGSA,A,3,31,16,18,29,26,27,20,23,10,08,,,1.5,0.9,1.2*30<CR><LF>
$GPRMC,184354.000,A,3719.2938,N,00556.5223,W,24.56,249.78,240221,,*20<CR><LF>
$GPGGA,184355.000,3719.2905,N,00556.5298,W,1,10,0.9,75.0,M,49.5,M,,0000*70<CR><LF>
$GPGSA,A,3,31,16,18,29,26,27,20,23,10,08,,,1.5,0.9,1.2*30<CR><LF>
$GPGSV,3,1,11,26,76,129,47,16,70,330,46,27,45,293,47,18,44,047,45*71<CR><LF>
$GPGSV,3,2,11,20,37,103,45,23,31,105,44,10,23,139,44,31,18,186,39*7F<CR><LF>
$GPGSV,3,3,11,08,11,273,40,29,04,073,37,07,00,329,31*41<CR><LF>
$GPRMC,184355.000,A,3719.2905,N,00556.5298,W,24.31,233.70,240221,,*2B<CR><LF>
$GPGGA,184356.000,3719.2857,N,00556.5356,W,1,10,0.9,74.9,M,49.5,M,,0000*7E<CR><LF>
$GPGSA,A,3,31,16,18,29,26,27,20,23,10,08,,,1.5,0.9,1.2*30<CR><LF>
$GPRMC,184356.000,A,3719.2857,N,00556.5356,W,24.15,216.10,240221,,*2A<CR><LF>
$GPGGA,184357.000,3719.2797,N,00556.5395,W,1,10,0.9,74.7,M,49.5,M,,0000*7D<CR><LF>
$GPGSA,A,3,31,16,18,29,26,27,20,23,10,08,,,1.5,0.9,1.2*30<CR><LF>
$GPRMC,184357.000,A,3719.2797,N,00556.5395,W,24.14,199.75,240221,,*21<CR><LF>
$GPGGA,184358.000,3719.2730,N,00556.5411,W,1,10,0.9,74.5,M,49.5,M,,0000*76<CR><LF>
$GPGSA,A,3,31,16,18,29,26,27,20,23,10,08,,,1.5,0.9,1.2*30<CR><LF>
$GPRMC,184358.000,A,3719.2730,N,00556.5411,W,24.15,183.44,240221,,*20<CR><LF>
$GPGGA,184359.000,3719.2663,N,00556.5403,W,1,10,0.9,74.3,M,49.5,M,,0000*75<CR><LF>
$GPGSA,A,3,31,16,18,29,26,27,20,23,10,08,,,1.5,0.9,1.2*30<CR><LF>
$GPRMC,184359.000,A,3719.2663,N,00556.5403,W,23.79,167.59,240221,,*2E<CR><LF>
$GPGGA,184400.000,3719.2601,N,00556.5373,W,1,10,0.9,74.1,M,49.5,M,,0000*78<CR><LF>
$GPGSA,A,3,31,16,18,29,26,27,20,23,10,08,,,1.5,0.9,1.2*30<CR><LF>
$GPGSV,3,1,11,26,76,129,46,16,70,330,46,27,45,293,46,18,44,047,45*71<CR><LF>
$GPGSV,3,2,11,20,37,103,44,23,31,105,43,10,23,139,43,31,18,186,42*72<CR><LF>
$GPGSV,3,3,11,08,11,273,33,29,04,073,29,07,00,329,30*4B<CR><LF>
$GPRMC,184400.000,A,3719.2601,N,00556.5373,W,23.60,151.65,240221,,*23<CR><LF>
$GPGGA,184401.000,3719.2547,N,00556.5324,W,1,10,0.9,73.8,M,49.5,M,,0000*74<CR><LF>
$GPGSA,A,3,31,16,18,29,26,27,20,23,10,08,,,1.5,0.9,1.2*30<CR><LF>
$GPRMC,184401.000,A,3719.2547,N,00556.5324,W,23.80,136.30,240221,,*2E<CR><LF>
$GPGGA,184402.000,3719.2504,N,00556.5259,W,1,10,0.9,73.6,M,49.5,M,,0000*75<CR><LF>
$GPGSA,A,3,31,16,18,29,26,27,20,23,10,08,,,1.5,0.9,1.2*30<CR><LF>
$GPRMC,184402.000,A,3719.2504,N,00556.5259,W,24.11,124.81,240221,,*27<CR><LF>
$GPGGA,184403.000,3719.2466,N,00556.5187,W,1,10,0.9,73.3,M,49.5,M,,0000*74<CR><LF>
$GPGSA,A,3,31,16,18,29,26,27,20,23,10,08,,,1.5,0.9,1.2*30<CR><LF>
$GPRMC,184403.000,A,3719.2466,N,00556.5187,W,24.25,121.56,240221,,*2B<CR><LF>
$GPGGA,184404.000,3719.2429,N,00556.5116,W,1,10,0.9,73.1,M,49.5,M,,0000*72<CR><LF>
$GPGSA,A,3,31,16,18,29,26,27,20,23,10,08,,,1.5,0.9,1.2*30<CR><LF>
$GPRMC,184404.000,A,3719.2429,N,00556.5116,W,23.01,124.42,240221,,*2E<CR><LF>
$GPGGA,184405.000,3719.2389,N,00556.5058,W,1,10,0.9,72.8,M,49.5,M,,0000*7D<CR><LF>
$GPGSA,A,3,31,16,18,29,26,27,20,23,10,08,,,1.5,0.9,1.2*30<CR><LF>
$GPGSV,3,1,12,26,76,129,47,16,70,330,45,27,45,293,46,18,44,047,45*70<CR><LF>
$GPGSV,3,2,12,20,37,103,44,23,31,105,43,10,23,139,44,31,18,186,42*76<CR><LF>
$GPGSV,3,3,12,08,11,273,33,29,04,073,29,07,00,329,19,39,36,135,27*7E<CR><LF>
$GPRMC,184405.000,A,3719.2389,N,00556.5058,W,21.17,138.10,240221,,*26<CR><LF>
$GPGGA,184406.000,3719.2338,N,00556.5017,W,1,10,0.9,72.4,M,49.5,M,,0000*73<CR><LF>
$GPGSA,A,3,31,16,18,29,26,27,20,23,10,08,,,1.5,0.9,1.2*30<CR><LF>
$GPRMC,184406.000,A,3719.2338,N,00556.5017,W,21.92,156.06,240221,,*26<CR><LF>
$GPGGA,184407.000,3719.2276,N,00556.4990,W,1,10,0.9,71.8,M,49.5,M,,0000*71<CR><LF>
$GPGSA,A,3,31,16,18,29,26,27,20,23,10,08,,,1.5,0.9,1.2*30<CR><LF>
$GPRMC,184407.000,A,3719.2276,N,00556.4990,W,24.66,165.98,240221,,*22<CR><LF>
$GPGGA,184408.000,3719.2205,N,00556.4969,W,1,09,1.2,71.1,M,49.5,M,,0000*77<CR><LF>
$GPGSA,A,3,31,16,18,26,27,20,23,10,08,,,,2.1,1.2,1.7*33<CR><LF>
$GPRMC,184408.000,A,3719.2205,N,00556.4969,W,27.17,167.18,240221,,*20<CR><LF>
$GPGGA,184409.000,3719.2129,N,00556.4946,W,1,09,1.2,70.5,M,49.5,M,,0000*73<CR><LF>
$GPGSA,A,3,31,16,18,26,27,20,23,10,08,,,,2.1,1.2,1.7*33<CR><LF>
$GPRMC,184409.000,A,3719.2129,N,00556.4946,W,28.68,166.72,240221,,*2B<CR><LF>
$GPGGA,184410.000,3719.2048,N,00556.4922,W,1,09,1.2,69.9,M,49.5,M,,0000*7B<CR><LF>
$GPGSA,A,3,31,16,18,26,27,20,23,10,08,,,,2.1,1.2,1.7*33<CR><LF>
$GPGSV,3,1,12,26,76,129,46,16,70,330,46,27,45,293,45,18,44,047,45*71<CR><LF>
$GPGSV,3,2,12,20,37,103,43,23,31,105,42,10,23,139,44,31,18,186,44*76<CR><LF>
$GPGSV,3,3,12,08,11,273,39,29,04,073,13,07,00,329,19,35,24,241,25*70<CR><LF>
$GPRMC,184410.000,A,3719.2048,N,00556.4922,W,30.02,166.45,240221,,*26<CR><LF>
$GPGGA,184411.000,3719.1964,N,00556.4896,W,1,09,1.2,69.2,M,49.5,M,,0000*7B<CR><LF>
$GPGSA,A,3,31,16,18,26,27,20,23,10,08,,,,2.1,1.2,1.7*33<CR><LF>
$GPRMC,184411.000,A,3719.1964,N,00556.4896,W,31.34,166.95,240221,,*24<CR><LF>
$GPGGA,184412.000,3719.1876,N,00556.4871,W,1,09,1.2,68.6,M,49.5,M,,0000*76<CR><LF>
$GPGSA,A,3,31,16,18,26,27,20,23,10,08,,,,2.1,1.2,1.7*33<CR><LF>
$GPRMC,184412.000,A,3719.1876,N,00556.4871,W,32.44,167.59,240221,,*29<CR><LF>
$GPGGA,184413.000,3719.1786,N,00556.4847,W,1,09,1.2,68.1,M,49.5,M,,0000*75<CR><LF>
$GPGSA,A,3,31,16,18,26,27,20,23,10,08,,,,2.1,1.2,1.7*33<CR><LF>
$GPRMC,184413.000,A,3719.1786,N,00556.4847,W,32.96,168.45,240221,,*20<CR><LF>
$GPGGA,184414.000,3719.1694,N,00556.4823,W,1,09,1.2,67.5,M,49.5,M,,0000*79<CR><LF>
$GPGSA,A,3,31,16,18,26,27,20,23,10,08,,,,2.1,1.2,1.7*33<CR><LF>
$GPRMC,184414.000,A,3719.1694,N,00556.4823,W,34.19,168.72,240221,,*22<CR><LF>
$GPGGA,184415.000,3719.1597,N,00556.4799,W,1,09,1.2,67.0,M,49.5,M,,0000*73<CR><LF>
$GPGSA,A,3,31,16,18,26,27,20,23,10,08,,,,2.1,1.2,1.7*33<CR><LF>
$GPGSV,3,1,11,26,76,129,46,16,70,330,46,27,45,293,46,18,44,047,45*71<CR><LF>
$GPGSV,3,2,11,20,37,103,43,23,31,105,42,10,23,139,44,31,18,186,44*75<CR><LF>
$GPGSV,3,3,11,08,11,273,39,29,04,073,07,07,00,329,20*4C<CR><LF>
$GPRMC,184415.000,A,3719.1597,N,00556.4799,W,35.69,169.24,240221,,*29<CR><LF>
$GPGGA,184416.000,3719.1497,N,00556.4775,W,1,09,1.2,66.6,M,49.5,M,,0000*74<CR><LF>
$GPGSA,A,3,31,16,18,26,27,20,23,10,08,,,,2.1,1.2,1.7*33<CR><LF>
$GPRMC,184416.000,A,3719.1497,N,00556.4775,W,36.49,169.38,240221,,*25<CR><LF>
$GPGGA,184417.000,3719.1396,N,00556.4752,W,1,09,1.2,66.2,M,49.5,M,,0000*72<CR><LF>
$GPGSA,A,3,31,16,18,26,27,20,23,10,08,,,,2.1,1.2,1.7*33<CR><LF>
$GPRMC,184417.000,A,3719.1396,N,00556.4752,W,36.78,170.36,240221,,*23<CR><LF>
$GPGGA,184418.000,3719.1293,N,00556.4731,W,1,10,0.9,65.8,M,49.5,M,,0000*77<CR><LF>
$GPGSA,A,3,31,16,18,29,26,27,20,23,10,08,,,1.5,0.9,1.2*30<CR><LF>
$GPRMC,184418.000,A,3719.1293,N,00556.4731,W,36.77,171.41,240221,,*23<CR><LF>
$GPGGA,184419.000,3719.1191,N,00556.4713,W,1,10,0.9,65.4,M,49.5,M,,0000*7B<CR><LF>
$GPGSA,A,3,31,16,18,29,26,27,20,23,10,08,,,1.5,0.9,1.2*30<CR><LF>
$GPRMC,184419.000,A,3719.1191,N,00556.4713,W,37.00,172.18,240221,,*2D<CR><LF>
$GPGGA,184420.000,3719.1087,N,00556.4695,W,1,10,0.9,65.0,M,49.5,M,,0000*7C<CR><LF>
$GPGSA,A,3,31,16,18,29,26,27,20,23,10,08,,,1.5,0.9,1.2*30<CR><LF>
$GPGSV,3,1,11,26,76,129,46,16,70,330,47,27,45,293,46,18,44,047,46*73<CR><LF>
$GPGSV,3,2,11,20,37,102,43,23,32,105,42,10,24,139,43,31,18,186,44*77<CR><LF>
$GPGSV,3,3,11,08,12,274,39,29,04,074,20,07,00,329,20*4A<CR><LF>
$GPRMC,184420.000,A,3719.1087,N,00556.4695,W,37.54,172.95,240221,,*2A<CR><LF>
$GPGGA,184421.000,3719.0982,N,00556.4679,W,1,10,0.9,64.6,M,49.5,M,,0000*75<CR><LF>
$GPGSA,A,3,31,16,18,29,26,27,20,23,10,08,,,1.5,0.9,1.2*30<CR><LF>
$GPRMC,184421.000,A,3719.0982,N,00556.4679,W,38.10,173.11,240221,,*26<CR><LF>
$GPGGA,184422.000,3719.0875,N,00556.4663,W,1,10,0.9,64.3,M,49.5,M,,0000*71<CR><LF>
$GPGSA,A,3,31,16,18,29,26,27,20,23,10,08,,,1.5,0.9,1.2*30<CR><LF>
$GPRMC,184422.000,A,3719.0875,N,00556.4663,W,38.40,173.49,240221,,*2F<CR><LF>
$GPGGA,184423.000,3719.0767,N,00556.4648,W,1,10,0.9,63.9,M,49.5,M,,0000*78<CR><LF>
$GPGSA,A,3,31,16,18,29,26,27,20,23,10,08,,,1.5,0.9,1.2*30<CR><LF>
$GPRMC,184423.000,A,3719.0767,N,00556.4648,W,38.70,174.19,240221,,*2A<CR><LF>
$GPGGA,184424.000,3719.0659,N,00556.4635,W,1,10,0.9,63.6,M,49.5,M,,0000*76<CR><LF>
$GPGSA,A,3,31,16,18,29,26,27,20,23,10,08,,,1.5,0.9,1.2*30<CR><LF>
$GPRMC,184424.000,A,3719.0659,N,00556.4635,W,39.08,175.15,240221,,*28<CR><LF>
$GPGGA,184425.000,3719.0549,N,00556.4624,W,1,10,0.9,63.2,M,49.5,M,,0000*71<CR><LF>
$GPGSA,A,3,31,16,18,29,26,27,20,23,10,08,,,1.5,0.9,1.2*30<CR><LF>
$GPGSV,3,1,11,26,76,129,46,16,70,330,47,27,45,293,46,18,44,047,46*73<CR><LF>
$GPGSV,3,2,11,20,37,102,43,23,32,105,41,10,24,139,42,31,18,186,44*75<CR><LF>
$GPGSV,3,3,11,08,12,274,40,29,04,074,31,07,00,329,19*4E<CR><LF>
$GPRMC,184425.000,A,3719.0549,N,00556.4624,W,39.06,175.67,240221,,*20<CR><LF>
$GPGGA,184426.000,3719.0441,N,00556.4614,W,1,10,0.9,62.9,M,49.5,M,,0000*72<CR><LF>
$GPGSA,A,3,31,16,18,29,26,27,20,23,10,08,,,1.5,0.9,1.2*30<CR><LF>
$GPRMC,184426.000,A,3719.0441,N,00556.4614,W,38.56,176.41,240221,,*2A<CR><LF>
$GPGGA,184427.000,3719.0334,N,00556.4607,W,1,10,0.9,62.5,M,49.5,M,,0000*78<CR><LF>
$GPGSA,A,3,31,16,18,29,26,27,20,23,10,08,,,1.5,0.9,1.2*30<CR><LF>
$GPRMC,184427.000,A,3719.0334,N,00556.4607,W,37.98,177.24,240221,,*23<CR><LF>
$GPGGA,184428.000,3719.0228,N,00556.4601,W,1,10,0.9,62.1,M,49.5,M,,0000*79<CR><LF>
$GPGSA,A,3,31,16,18,29,26,27,20,23,10,08,,,1.5,0.9,1.2*30<CR><LF>
$GPRMC,184428.000,A,3719.0228,N,00556.4601,W,37.43,177.87,240221,,*29<CR><LF>
$GPGGA,184429.000,3719.0124,N,00556.4597,W,1,10,0.9,61.8,M,49.5,M,,0000*71<CR><LF>
$GPGSA,A,3,31,16,18,29,26,27,20,23,10,08,,,1.5,0.9,1.2*30<CR><LF>
$GPRMC,184429.000,A,3719.0124,N,00556.4597,W,37.13,178.54,240221,,*2F<CR><LF>
$GPGGA,184430.000,3719.0020,N,00556.4594,W,1,10,0.9,61.4,M,49.5,M,,0000*73<CR><LF>
$GPGSA,A,3,31,16,18,29,26,27,20,23,10,08,,,1.5,0.9,1.2*30<CR><LF>
$GPGSV,3,1,12,26,76,129,47,16,70,330,46,27,45,293,46,18,44,047,46*70<CR><LF>
$GPGSV,3,2,12,20,37,102,43,23,32,105,41,10,24,139,42,31,18,186,43*71<CR><LF>
$GPGSV,3,3,12,08,12,274,40,29,04,074,33,07,00,329,19,35,24,241,22*78<CR><LF>
$GPRMC,184430.000,A,3719.0020,N,00556.4594,W,36.62,179.15,240221,,*22<CR><LF>
$GPGGA,184431.000,3718.9918,N,00556.4593,W,1,10,0.9,61.1,M,49.5,M,,0000*7A<CR><LF>
$GPGSA,A,3,31,16,18,29,26,27,20,23,10,08,,,1.5,0.9,1.2*30<CR><LF>
$GPRMC,184431.000,A,3718.9918,N,00556.4593,W,35.98,180.19,240221,,*22<CR><LF>
$GPGGA,184432.000,3718.9820,N,00556.4594,W,1,10,0.9,60.9,M,49.5,M,,0000*7D<CR><LF>
$GPGSA,A,3,31,16,18,29,26,27,20,23,10,08,,,1.5,0.9,1.2*30<CR><LF>
$GPRMC,184432.000,A,3718.9820,N,00556.4594,W,33.98,180.64,240221,,*20<CR><LF>
$GPGGA,184433.000,3718.9731,N,00556.4595,W,1,10,0.9,60.7,M,49.5,M,,0000*7C<CR><LF>
$GPGSA,A,3,31,16,18,29,26,27,20,23,10,08,,,1.5,0.9,1.2*30<CR><LF>
$GPRMC,184433.000,A,3718.9731,N,00556.4595,W,29.73,180.73,240221,,*27<CR><LF>
$GPGGA,184434.000,3718.9654,N,00556.4597,W,1,10,0.9,60.5,M,49.5,M,,0000*79<CR><LF>
$GPGSA,A,3,31,16,18,29,26,27,20,23,10,08,,,1.5,0.9,1.2*30<CR><LF>
$GPRMC,184434.000,A,3718.9654,N,00556.4597,W,25.80,181.80,240221,,*2D<CR><LF>
$GPGGA,184435.000,3718.9583,N,00556.4604,W,1,10,0.9,60.4,M,49.5,M,,0000*79<CR><LF>
$GPGSA,A,3,31,16,18,29,26,27,20,23,10,08,,,1.5,0.9,1.2*30<CR><LF>
$GPGSV,3,1,11,26,76,129,47,16,70,330,47,27,45,293,46,18,44,047,46*72<CR><LF>
$GPGSV,3,2,11,20,37,102,43,23,32,105,42,10,24,139,42,31,18,186,43*71<CR><LF>
$GPGSV,3,3,11,08,12,274,40,29,04,074,36,07,00,329,18*48<CR><LF>
$GPRMC,184435.000,A,3718.9583,N,00556.4604,W,24.63,187.45,240221,,*2F<CR><LF>
$GPGGA,184436.000,3718.9518,N,00556.4624,W,1,10,0.9,60.3,M,49.5,M,,0000*7D<CR><LF>
$GPGSA,A,3,31,16,18,29,26,27,20,23,10,08,,,1.5,0.9,1.2*30<CR><LF>
$GPRMC,184436.000,A,3718.9518,N,00556.4624,W,23.66,200.41,240221,,*26<CR><LF>
$GPGGA,184437.000,3718.9460,N,00556.4661,W,1,10,0.9,60.2,M,49.5,M,,0000*72<CR><LF>
$GPGSA,A,3,31,16,18,29,26,27,20,23,10,08,,,1.5,0.9,1.2*30<CR><LF>
$GPRMC,184437.000,A,3718.9460,N,00556.4661,W,23.38,213.30,240221,,*27<CR><LF>
$GPGGA,184438.000,3718.9405,N,00556.4707,W,1,10,0.9,60.2,M,49.5,M,,0000*7F<CR><LF>
$GPGSA,A,3,31,16,18,29,26,27,20,23,10,08,,,1.5,0.9,1.2*30<CR><LF>
$GPRMC,184438.000,A,3718.9405,N,00556.4707,W,23.72,213.97,240221,,*29<CR><LF>
$GPGGA,184439.000,3718.9346,N,00556.4740,W,1,10,0.9,60.2,M,49.5,M,,0000*7D<CR><LF>
$GPGSA,A,3,31,16,18,29,26,27,20,23,10,08,,,1.5,0.9,1.2*30<CR><LF>
$GPRMC,184439.000,A,3718.9346,N,00556.4740,W,23.40,194.02,240221,,*2A<CR><LF>
$GPGGA,184440.000,3718.9283,N,00556.4742,W,1,10,0.9,60.0,M,49.5,M,,0000*7B<CR><LF>
$GPGSA,A,3,31,16,18,29,26,27,20,23,10,08,,,1.5,0.9,1.2*30<CR><LF>
$GPGSV,3,1,11,26,76,129,46,16,70,330,47,27,45,293,47,18,44,047,46*72<CR><LF>
$GPGSV,3,2,11,20,37,102,44,23,32,105,43,10,24,139,42,31,18,186,43*77<CR><LF>
$GPGSV,3,3,11,08,12,274,40,29,04,074,32,07,00,329,08*4D<CR><LF>
$GPRMC,184440.000,A,3718.9283,N,00556.4742,W,22.93,168.47,240221,,*23<CR><LF>
$GPGGA,184441.000,3718.9223,N,00556.4716,W,1,10,0.9,59.9,M,49.5,M,,0000*72<CR><LF>
$GPGSA,A,3,31,16,18,29,26,27,20,23,10,08,,,1.5,0.9,1.2*30<CR><LF>
$GPRMC,184441.000,A,3718.9223,N,00556.4716,W,22.58,153.62,240221,,*21<CR><LF>
$GPGGA,184442.000,3718.9167,N,00556.4683,W,1,10,0.9,59.9,M,49.5,M,,0000*7F<CR><LF>
$GPGSA,A,3,31,16,18,29,26,27,20,23,10,08,,,1.5,0.9,1.2*30<CR><LF>
$GPRMC,184442.000,A,3718.9167,N,00556.4683,W,22.06,157.60,240221,,*21<CR><LF>
$GPGGA,184443.000,3718.9107,N,00556.4660,W,1,09,1.2,59.7,M,49.5,M,,0000*79<CR><LF>
$GPGSA,A,3,31,16,18,26,27,20,23,10,08,,,,2.0,1.2,1.7*32<CR><LF>
$GPRMC,184443.000,A,3718.9107,N,00556.4660,W,22.82,168.24,240221,,*2B<CR><LF>
$GPGGA,184444.000,3718.9041,N,00556.4651,W,1,09,1.2,59.7,M,49.5,M,,0000*7F<CR><LF>
$GPGSA,A,3,31,16,18,26,27,20,23,10,08,,,,2.0,1.2,1.7*32<CR><LF>
$GPRMC,184444.000,A,3718.9041,N,00556.4651,W,24.88,178.63,240221,,*23<CR><LF>
$GPGGA,184445.000,3718.8968,N,00556.4654,W,1,09,1.2,59.5,M,49.5,M,,0000*7A<CR><LF>
$GPGSA,A,3,31,16,18,26,27,20,23,10,08,,,,2.0,1.2,1.7*32<CR><LF>
$GPGSV,3,1,11,26,76,129,46,16,70,330,46,27,45,293,46,18,44,047,45*71<CR><LF>
$GPGSV,3,2,11,20,37,102,44,23,32,105,43,10,24,139,43,31,18,186,44*71<CR><LF>
$GPGSV,3,3,11,08,12,274,38,29,04,074,37,07,00,329,14*4A<CR><LF>
$GPRMC,184445.000,A,3718.8968,N,00556.4654,W,27.49,184.91,240221,,*24<CR><LF>
$GPGGA,184446.000,3718.8888,N,00556.4664,W,1,09,1.2,59.4,M,49.5,M,,0000*74<CR><LF>
$GPGSA,A,3,31,16,18,26,27,20,23,10,08,,,,2.0,1.2,1.7*32<CR><LF>
$GPRMC,184446.000,A,3718.8888,N,00556.4664,W,29.52,186.09,240221,,*2C<CR><LF>
$GPGGA,184447.000,3718.8804,N,00556.4676,W,1,09,1.2,59.3,M,49.5,M,,0000*75<CR><LF>
$GPGSA,A,3,31,16,18,26,27,20,23,10,08,,,,2.0,1.2,1.7*32<CR><LF>
$GPRMC,184447.000,A,3718.8804,N,00556.4676,W,31.15,186.46,240221,,*2B<CR><LF>
$GPGGA,184448.000,3718.8717,N,00556.4689,W,1,09,1.2,59.2,M,49.5,M,,0000*76<CR><LF>
$GPGSA,A,3,31,16,18,26,27,20,23,10,08,,,,2.0,1.2,1.7*32<CR><LF>
$GPRMC,184448.000,A,3718.8717,N,00556.4689,W,31.63,187.48,240221,,*27<CR><LF>
